% program   : RTKPOST demo5 b34k
% inp file  : C:\Users\user\Desktop\AAE6102_Laboratory-main\AAE6102_Laboratory-main\GNSS Data\UrbanNav - Medium\20210521.medium-urban.whampoa.ublox.f9p.obs
% inp file  : C:\Users\user\Desktop\AAE6102_Laboratory-main\AAE6102_Laboratory-main\GNSS Data\UrbanNav - Medium\hksc141g.21o
% inp file  : C:\Users\user\Desktop\AAE6102_Laboratory-main\AAE6102_Laboratory-main\GNSS Data\UrbanNav - Medium\hksc141g.21n
% obs start : 2021/05/21 06:29:02.0 GPST (week2158 455342.0s)
% obs end   : 2021/05/21 06:54:39.0 GPST (week2158 456879.0s)
% pos mode  : Kinematic
% freqs     : L1
% solution  : Forward
% elev mask : 15.0 deg
% dynamics  : on
% tidecorr  : off
% ionos opt : Broadcast
% tropo opt : Saastamoinen
% ephemeris : Broadcast
% navi sys  : GPS GLONASS Galileo QZSS BDS NavIC SBAS
% amb res   : Fix and Hold
% amb glo   : Fix and Hold
% val thres : 3.0
% antenna1  :                       ( 0.0000  0.0000  0.0000)
% antenna2  :                       ( 0.0000  0.0000  0.0000)
% ref pos   : 22.322172082  114.141187963    20.2386
%
% (lat/lon/height=WGS84/ellipsoidal,Q=1:fix,2:float,3:sbas,4:dgps,5:single,6:ppp,ns=# of satellites)
%  GPST          latitude(deg) longitude(deg)  height(m)   Q  ns   sdn(m)   sde(m)   sdu(m)  sdne(m)  sdeu(m)  sdun(m) age(s)  ratio
2158 455342.000   22.301566064  114.190307341     3.8842   2   5   2.1379   2.1122   4.3964  -1.0279  -1.0868   1.2138   0.00    0.0
2158 455343.000   22.301566373  114.190307291     3.8849   2   5   1.5406   1.5529   3.1675  -0.7492  -0.7970   0.8273   0.00    0.0
2158 455344.000   22.301566745  114.190307661     3.9585   2   5   1.2662   1.2855   2.6031  -0.6183  -0.6592   0.6662   0.00    0.0
2158 455345.000   22.301567466  114.190307286     3.9696   2   6   1.0751   1.1208   2.2351  -0.5325  -0.5664   0.4972   0.00    0.0
2158 455346.000   22.301567517  114.190307071     3.9108   2   5   0.9679   1.0069   2.0078  -0.4790  -0.5101   0.4559   0.00    0.0
2158 455347.000   22.301567619  114.190306739     3.8667   2   5   0.8874   0.9219   1.8382  -0.4389  -0.4678   0.4232   0.00    0.0
2158 455348.000   22.301568043  114.190303652     3.8775   2   5   0.8242   0.8553   1.7054  -0.4074  -0.4345   0.3966   0.00    0.0
2158 455349.000   22.301568015  114.190296677     3.7941   2   5   0.7727   0.8013   1.5978  -0.3819  -0.4074   0.3744   0.00    0.0
2158 455350.000   22.301568516  114.190286172     3.7643   2   4   0.7299   0.7565   1.5083  -0.3606  -0.3848   0.3558   0.00    0.0
2158 455351.000   22.301571928  114.190273514     3.7490   2   4   0.6936   0.7184   1.4324  -0.3427  -0.3656   0.3398   0.00    0.0
2158 455352.000   22.301581136  114.190263036     3.8667   2   4   0.6952   0.7265   1.5337  -0.3974  -0.5377   0.5034   0.00    0.0
2158 455353.000   22.301592576  114.190256164     3.6786   2   6   0.6343   0.6568   1.3068  -0.3133  -0.3338   0.3114   0.00    0.0
2158 455354.000   22.301605406  114.190248577     3.6820   2   6   0.6097   0.6314   1.2563  -0.3012  -0.3208   0.3001   0.00    0.0
2158 455355.000   22.301619167  114.190240588     3.6259   2   7   0.5865   0.6067   1.1987  -0.2936  -0.3230   0.2782   0.00    0.0
2158 455356.000   22.301634592  114.190232162     3.5514   2   6   0.5662   0.5856   1.1527  -0.2854  -0.3192   0.2635   0.00    0.0
2158 455357.000   22.301655820  114.190220962     3.4268   2   5   0.5479   0.5666   1.1117  -0.2778  -0.3144   0.2512   0.00    0.0
2158 455358.000   22.301684156  114.190206892     3.4111   2   5   0.5312   0.5492   1.0744  -0.2705  -0.3090   0.2397   0.00    0.0
2158 455359.000   22.301717731  114.190190962     3.2834   2   5   0.5158   0.5333   1.0406  -0.2637  -0.3036   0.2294   0.00    0.0
2158 455360.000   22.301756011  114.190172180     3.3185   2   5   0.5018   0.5187   1.0099  -0.2573  -0.2983   0.2203   0.00    0.0
2158 455361.000   22.301798493  114.190151996     3.3342   2   5   0.4887   0.5053   0.9817  -0.2514  -0.2930   0.2121   0.00    0.0
2158 455362.000   22.301845185  114.190129421     3.3185   2   5   0.4767   0.4928   0.9558  -0.2458  -0.2880   0.2046   0.00    0.0
2158 455363.000   22.301895712  114.190104597     3.4201   2   5   0.4654   0.4812   0.9319  -0.2405  -0.2831   0.1978   0.00    0.0
2158 455364.000   22.301948574  114.190078523     3.4131   2   5   0.4549   0.4705   0.9096  -0.2355  -0.2784   0.1916   0.00    0.0
2158 455365.000   22.302000946  114.190052391     3.3680   2   6   0.4453   0.4599   0.8918  -0.2304  -0.2703   0.1892   0.00    0.0
2158 455366.000   22.302052147  114.190027649     3.2461   2   5   0.4363   0.4508   0.8751  -0.2253  -0.2636   0.1867   0.00    0.0
2158 455367.000   22.302101271  114.190002388     3.2938   2   5   0.4278   0.4423   0.8594  -0.2205  -0.2573   0.1843   0.00    0.0
2158 455368.000   22.302149100  114.189978000     3.2093   2   4   0.4202   0.4344   0.8446  -0.2155  -0.2518   0.1809   0.00    0.0
2158 455369.000   22.302194842  114.189951304     3.0551   4   3   0.4367   0.5571   1.2559   0.0784  -0.6310  -0.3190   0.00    0.0
2158 455370.000   22.302235364  114.189920579     2.6614   4   2   0.9072   1.5246   2.5295   1.0600  -0.9241  -0.1896   0.00    0.0
2158 455371.000   22.302265319  114.189882904     1.9316   4   2   1.8486   1.4973   3.8870   0.4795  -2.3452   0.0373   0.00    0.0
2158 455372.000   22.302271805  114.189833790     3.0018   4   3   2.0108   1.7439   4.5706  -0.2612  -2.7653   0.9975   0.00    0.0
2158 455373.000   22.302285785  114.189788968     3.0326   4   3   1.4762   1.7498   4.6513  -0.8797  -2.7996   1.5692   0.00    0.0
2158 455374.000   22.302285233  114.189742823     3.5478   4   3   1.3695   1.6971   4.5426  -1.0191  -2.7233   1.7641   0.00    0.0
2158 455375.000   22.302278890  114.189691473     6.1121   2   4   0.4995   1.1433   2.7889   0.5558  -1.7110  -0.9114   0.00    0.0
2158 455376.000   22.302261379  114.189649517     6.9720   4   3   0.8587   1.3995   3.6775  -0.6714  -2.2069   1.1601   0.00    0.0
2158 455377.000   22.302235429  114.189609873     7.6903   2   4   0.6381   1.5063   3.7935   0.8469  -2.3366  -1.3788   0.00    0.0
2158 455378.000   22.302214079  114.189578035     6.4565   2   5   0.4655   1.0228   2.4385   0.4908  -1.5003  -0.8049   0.00    0.0
2158 455379.000   22.302189494  114.189547092     5.2331   2   5   0.5976   0.9337   2.2033   0.3339  -1.3479  -0.5143   0.00    0.0
2158 455380.000   22.302171995  114.189512658     5.8989   2   5   0.4204   0.8720   2.0020   0.3825  -1.2312  -0.6319   0.00    0.0
2158 455381.000   22.302152905  114.189497095     2.3325   2   4   0.5472   0.8565   2.0914  -0.2140  -1.2468   0.3855   0.00    0.0
2158 455382.000   22.302137253  114.189471660     2.0053   2   5   0.3850   0.6958   1.5747   0.2651  -0.9365  -0.4651   0.00    0.0
2158 455383.000   22.302118599  114.189444153     2.2980   2   5   0.3736   0.6379   1.4374   0.2242  -0.8388  -0.4100   0.00    0.0
2158 455384.000   22.302098206  114.189414220     2.7059   2   5   0.3758   0.6060   1.3705   0.1730  -0.7881  -0.3362   0.00    0.0
2158 455385.000   22.302077177  114.189382771     2.8100   2   5   0.3576   0.5678   1.2657   0.1707  -0.7177  -0.3393   0.00    0.0
2158 455386.000   22.302055336  114.189346297     2.7970   2   4   0.3581   0.5531   1.2021   0.1735  -0.6713  -0.3108   0.00    0.0
2158 455387.000   22.302035284  114.189302368     2.7672   4   2   0.9965   1.4648   1.4841   1.0578  -0.6546   0.5899   0.00    0.0
2158 455388.000   22.302015956  114.189252509     1.6062   4   2   1.3131   1.7413   2.5347   1.0307  -1.2354   1.3712   0.00    0.0
2158 455389.000   22.302005701  114.189202334     0.1906   4   2   1.4630   1.8251   3.1517   0.8431  -1.5995   1.7594   0.00    0.0
2158 455390.000   22.302003518  114.189152575    -1.8455   4   2   1.4983   1.8473   3.2596   0.8090  -1.6668   1.8299   0.00    0.0
2158 455391.000   22.302039681  114.189099170     0.6810   4   2   2.6833   1.9990   4.3913  -0.8310  -1.2824   2.7102   0.00    0.0
2158 455392.000   22.302069113  114.189042306     1.0985   4   0   3.1260   2.1698   5.2023  -1.2336  -1.3161   3.0508   0.00    0.0
2158 455393.000   22.302102320  114.188980389     0.8360   4   0   3.1747   2.1788   5.5006  -1.2708  -1.4225   3.1978   0.00    0.0
2158 455394.000   22.302122333  114.188929333     0.0844   4   0   3.2008   2.1852   5.5698  -1.2950  -1.4534   3.2432   0.00    0.0
2158 455395.000   22.302153296  114.188888634     1.2427   4   0   3.2117   2.1877   5.5869  -1.3034  -1.4567   3.2556   0.00    0.0
2158 455396.000   22.302187690  114.188851410     1.8778   4   0   3.2151   2.1881   5.6042  -1.3053  -1.4612   3.2654   0.00    0.0
2158 455397.000   22.302197895  114.188816823     1.4000   4   0   3.2191   2.1887   5.6230  -1.3079  -1.4673   3.2767   0.00    0.0
2158 455398.000   22.302209842  114.188791228     2.4027   4   0   3.2225   2.1892   5.6367  -1.3099  -1.4712   3.2855   0.00    0.0
2158 455399.000   22.302214368  114.188772921     3.4971   4   0   3.2242   2.1894   5.6438  -1.3106  -1.4727   3.2902   0.00    0.0
2158 455400.000   22.302224780  114.188756405     3.8381   4   0   3.2248   2.1895   5.6470  -1.3107  -1.4730   3.2924   0.00    0.0
2158 455401.000   22.302219085  114.188739895     2.6104   4   2   3.1283   2.1759   5.5841  -1.3818  -1.5422   3.1905   0.00    0.0
2158 455402.000   22.302209441  114.188725010     2.0858   2   4   2.5682   1.9471   5.4001  -1.6289  -1.9360   2.9622   0.00    0.0
2158 455403.000   22.302192033  114.188721998    -0.0941   2   4   2.0043   1.4617   4.1249  -1.1370  -1.5124   2.3255   0.00    0.0
2158 455404.000   22.302179742  114.188718189    -0.4056   2   6   1.7383   1.2284   3.4907  -0.9201  -1.2058   1.9995   0.00    0.0
2158 455405.000   22.302176270  114.188715382    -0.0384   2   4   1.5681   1.0784   3.1211  -0.7955  -1.0249   1.7943   0.00    0.0
2158 455406.000   22.302176913  114.188714518     0.2322   2   6   1.4309   0.9663   2.7927  -0.6930  -0.8591   1.6141   0.00    0.0
2158 455407.000   22.302166442  114.188713187    -2.2843   2   6   1.2818   0.8863   2.4380  -0.6334  -0.7688   1.3938   0.00    0.0
2158 455408.000   22.302162926  114.188711588    -3.0163   2   5   1.1747   0.8278   2.2061  -0.5904  -0.7176   1.2466   0.00    0.0
2158 455409.000   22.302162176  114.188711066    -3.1015   2   5   1.0917   0.7797   2.0315  -0.5552  -0.6760   1.1373   0.00    0.0
2158 455410.000   22.302163541  114.188710813    -2.7112   2   5   1.0247   0.7392   1.8937  -0.5257  -0.6412   1.0520   0.00    0.0
2158 455411.000   22.302166283  114.188710305    -1.9849   2   6   0.9684   0.7040   1.7799  -0.4996  -0.6100   0.9819   0.00    0.0
2158 455412.000   22.302168676  114.188710550    -1.3558   2   6   0.9208   0.6736   1.6854  -0.4774  -0.5837   0.9244   0.00    0.0
2158 455413.000   22.302171053  114.188710660    -0.7065   2   5   0.8800   0.6471   1.6055  -0.4583  -0.5612   0.8765   0.00    0.0
2158 455414.000   22.302173493  114.188711026    -0.0056   2   5   0.8440   0.6234   1.5357  -0.4411  -0.5410   0.8349   0.00    0.0
2158 455415.000   22.302176469  114.188711426     0.8059   2   5   0.8121   0.6021   1.4744  -0.4257  -0.5227   0.7985   0.00    0.0
2158 455416.000   22.302179012  114.188711968     1.4957   2   6   0.7828   0.5824   1.4183  -0.4108  -0.5046   0.7649   0.00    0.0
2158 455417.000   22.302181998  114.188712390     2.2861   2   6   0.7565   0.5646   1.3689  -0.3975  -0.4888   0.7356   0.00    0.0
2158 455418.000   22.302185011  114.188712969     3.1128   2   5   0.7333   0.5487   1.3256  -0.3862  -0.4756   0.7105   0.00    0.0
2158 455419.000   22.302188165  114.188713470     3.9209   2   6   0.7111   0.5335   1.2841  -0.3746  -0.4615   0.6858   0.00    0.0
2158 455420.000   22.302191017  114.188714028     4.7111   2   6   0.6910   0.5196   1.2469  -0.3642  -0.4490   0.6638   0.00    0.0
2158 455421.000   22.302194443  114.188714601     5.6258   2   5   0.6730   0.5072   1.2140  -0.3553  -0.4387   0.6451   0.00    0.0
2158 455422.000   22.302197658  114.188715255     6.4754   2   6   0.6553   0.4950   1.1814  -0.3458  -0.4271   0.6256   0.00    0.0
2158 455423.000   22.302197248  114.188715438     6.3720   2   6   0.6429   0.4837   1.1630  -0.3366  -0.4157   0.6174   0.00    0.0
2158 455424.000   22.302196713  114.188715593     6.2612   2   5   0.6319   0.4736   1.1470  -0.3290  -0.4065   0.6110   0.00    0.0
2158 455425.000   22.302196227  114.188715905     6.1273   2   6   0.6202   0.4636   1.1290  -0.3204  -0.3955   0.6021   0.00    0.0
2158 455426.000   22.302195736  114.188716045     6.0182   2   6   0.6093   0.4541   1.1127  -0.3125  -0.3857   0.5942   0.00    0.0
2158 455427.000   22.302195063  114.188716266     5.8968   2   6   0.5989   0.4452   1.0970  -0.3051  -0.3765   0.5865   0.00    0.0
2158 455428.000   22.302194595  114.188716266     5.7842   2   6   0.5889   0.4368   1.0819  -0.2980  -0.3676   0.5790   0.00    0.0
2158 455429.000   22.302194485  114.188716114     5.7750   2   5   0.5802   0.4294   1.0692  -0.2924  -0.3611   0.5734   0.00    0.0
2158 455430.000   22.302194218  114.188716059     5.7195   2   5   0.5716   0.4222   1.0561  -0.2869  -0.3542   0.5672   0.00    0.0
2158 455431.000   22.302193942  114.188715897     5.6848   2   5   0.5633   0.4154   1.0433  -0.2815  -0.3477   0.5611   0.00    0.0
2158 455432.000   22.302193598  114.188715820     5.6375   2   5   0.5553   0.4089   1.0310  -0.2765  -0.3414   0.5551   0.00    0.0
2158 455433.000   22.302193357  114.188715648     5.6049   2   5   0.5475   0.4026   1.0191  -0.2716  -0.3354   0.5491   0.00    0.0
2158 455434.000   22.302192948  114.188715528     5.5889   2   5   0.5400   0.3967   1.0075  -0.2669  -0.3296   0.5433   0.00    0.0
2158 455435.000   22.302192883  114.188715334     5.5774   2   5   0.5327   0.3910   0.9963  -0.2624  -0.3241   0.5375   0.00    0.0
2158 455436.000   22.302192742  114.188715092     5.5813   2   5   0.5256   0.3855   0.9853  -0.2581  -0.3187   0.5319   0.00    0.0
2158 455437.000   22.302192763  114.188714999     5.6171   2   5   0.5187   0.3803   0.9747  -0.2539  -0.3136   0.5263   0.00    0.0
2158 455438.000   22.302192669  114.188714802     5.6383   2   5   0.5120   0.3753   0.9644  -0.2499  -0.3086   0.5207   0.00    0.0
2158 455439.000   22.302192574  114.188714716     5.6254   2   5   0.5055   0.3704   0.9543  -0.2460  -0.3038   0.5153   0.00    0.0
2158 455440.000   22.302192694  114.188714565     5.6534   2   5   0.4992   0.3657   0.9445  -0.2422  -0.2992   0.5100   0.00    0.0
2158 455441.000   22.302192374  114.188714489     5.6497   2   5   0.4930   0.3612   0.9349  -0.2386  -0.2947   0.5047   0.00    0.0
2158 455442.000   22.302191364  114.188714224     5.6777   2   5   0.4869   0.3569   0.9255  -0.2351  -0.2904   0.4994   0.00    0.0
2158 455443.000   22.302181359  114.188712123     5.7405   2   5   0.4810   0.3527   0.9164  -0.2316  -0.2862   0.4943   0.00    0.0
2158 455444.000   22.302156988  114.188703698     5.8231   2   5   0.4752   0.3487   0.9074  -0.2283  -0.2821   0.4892   0.00    0.0
2158 455445.000   22.302119059  114.188687333     5.9085   2   5   0.4696   0.3447   0.8987  -0.2251  -0.2781   0.4842   0.00    0.0
2158 455446.000   22.302070694  114.188661570     5.9209   2   4   0.4645   0.3414   0.8902  -0.2227  -0.2746   0.4794   0.00    0.0
2158 455447.000   22.302017452  114.188629975     7.2441   4   3   0.5526   0.4645   1.2752   0.2223   0.4698   0.7126   0.00    0.0
2158 455448.000   22.301971205  114.188601570    12.6709   4   2   0.8842   1.7210   2.5668   0.3475  -0.3719   1.4250   0.00    0.0
2158 455449.000   22.301940689  114.188550318    22.9846   4   2   1.2076   2.0520   3.7966  -0.6725  -1.4974   2.0812   0.00    0.0
2158 455450.000   22.301905888  114.188488439    30.7659   4   3   1.3234   2.0749   4.2085  -0.7918  -1.6812   2.3063   0.00    0.0
2158 455451.000   22.301856737  114.188423784    32.4297   4   2   1.3443   2.0865   4.2809  -0.7986  -1.6943   2.3469   0.00    0.0
2158 455452.000   22.301804064  114.188361380    31.1233   4   2   1.3461   2.0883   4.2898  -0.7991  -1.6955   2.3521   0.00    0.0
2158 455453.000   22.301751943  114.188294860    25.7576   4   0   2.3310   2.1357   4.3194  -1.2181  -1.6795   2.2806   0.00    0.0
2158 455454.000   22.301678026  114.188229958    17.4613   4   2   1.3599   2.0918   4.3430  -0.8122  -1.7169   2.3813   0.00    0.0
2158 455455.000   22.301608487  114.188163827     9.4867   4   0   2.6362   2.4930   4.4439  -0.8768  -1.3438   2.4183   0.00    0.0
2158 455456.000   22.301505206  114.188139434     6.0156   4   2   2.8008   2.4346   4.0051  -1.1753  -1.7251   2.1054   0.00    0.0
2158 455457.000   22.301343194  114.188132876     3.4683   4   2   2.6963   2.1560   3.9197  -1.4642  -1.8196   2.0167   0.00    0.0
2158 455458.000   22.301333511  114.188023533     2.6108   4   0   3.1967   2.3952   4.2628  -1.9223  -1.5782   2.0765   0.00    0.0
2158 455459.000   22.301309261  114.187922569     1.8728   4   3   3.1696   2.3019   4.3387  -1.8479  -1.6166   2.0954   0.00    0.0
2158 455460.000   22.301298231  114.187874835     2.1101   4   2   2.2451   2.0125   4.3388  -0.8644  -1.2805   1.7257   0.00    0.0
2158 455461.000   22.301296355  114.187833771     3.7483   4   0   2.2934   2.0120   4.2522  -0.8975  -1.3787   1.8359   0.00    0.0
2158 455462.000   22.301353444  114.187770315     5.6856   4   2   2.9949   1.6528   4.1445  -1.3257  -2.1331   2.3772   0.00    0.0
2158 455463.000   22.301382844  114.187747431     7.3219   4   2   3.0421   1.5696   4.1582  -1.3271  -2.1522   2.4479   0.00    0.0
2158 455464.000   22.301384596  114.187735849     7.4754   4   3   3.1171   2.1322   4.2269  -1.7317  -1.8819   2.3414   0.00    0.0
2158 455465.000   22.301385830  114.187718460     7.2489   4   3   2.6263   2.4031   4.2248  -1.8666  -1.6348   2.5479   0.00    0.0
2158 455466.000   22.301386433  114.187715747     8.0190   4   2   2.8737   2.3822   4.1798  -1.9135  -1.6871   2.3962   0.00    0.0
2158 455467.000   22.301403703  114.187708466     7.1750   4   2   3.1988   2.4130   4.3212  -2.0026  -1.5920   2.0867   0.00    0.0
2158 455468.000   22.301388573  114.187710698     4.1040   4   2   2.8214   2.3488   4.3627  -2.2204  -1.6248   1.9226   0.00    0.0
2158 455469.000   22.301382400  114.187713643     2.2920   2   4   2.5898   2.2363   4.2238  -2.1420  -1.4866   1.6777   0.00    0.0
2158 455470.000   22.301379326  114.187717027     2.8921   4   3   2.3272   2.0933   3.8312  -1.9719  -2.1633   2.2371   0.00    0.0
2158 455471.000   22.301377094  114.187718478     2.5175   4   2   2.4041   2.2511   3.6740  -2.1407  -2.0797   2.1209   0.00    0.0
2158 455472.000   22.301371135  114.187723266     1.2636   4   3   2.2299   2.1185   3.3814  -2.0026  -2.2512   2.2765   0.00    0.0
2158 455473.000   22.301375583  114.187716194     1.6482   4   2   2.3885   2.2868   3.6093  -2.1992  -1.9277   1.9213   0.00    0.0
2158 455474.000   22.301371703  114.187714604     4.1018   4   2   2.4377   2.3369   4.0908  -2.2669  -1.6258   1.5600   0.00    0.0
2158 455475.000   22.301361307  114.187717604     5.7602   4   2   2.4180   2.3307   4.2637  -2.2654  -1.6511   1.5602   0.00    0.0
2158 455476.000   22.301362965  114.187699455     7.5072   4   2   2.8965   2.2858   4.2627  -1.9103  -1.3924   1.7449   0.00    0.0
2158 455477.000   22.301366062  114.187688174     5.8820   4   2   2.7256   1.6338   4.1555  -0.8797  -0.1647   1.4223   0.00    0.0
2158 455478.000   22.301401109  114.187676175     6.0467   4   2   2.7415   1.9633   4.0236  -1.2975  -0.2280   1.4534   0.00    0.0
2158 455479.000   22.301433092  114.187693226     9.4581   4   0   3.2058   2.3981   4.2397  -1.9357  -1.4174   1.9460   0.00    0.0
2158 455480.000   22.301413241  114.187730229    12.2330   4   2   3.2393   2.3351   4.3401  -1.9158  -1.6587   2.1516   0.00    0.0
2158 455481.000   22.301395488  114.187760107    11.9420   4   3   3.0801   1.7869   4.2822  -1.5120  -1.9414   2.2558   0.00    0.0
2158 455482.000   22.301421238  114.187796282     9.9547   4   3   2.2616   1.8482   4.1879  -0.7972  -1.6110   1.8161   0.00    0.0
2158 455483.000   22.301455061  114.187855139     7.5608   4   3   2.0507   1.8695   3.8398   0.8034   1.8055   1.9299   0.00    0.0
2158 455484.000   22.301470098  114.187895939     5.6013   4   3   1.7106   1.4848   3.4173  -0.2511   1.4362   1.5652   0.00    0.0
2158 455485.000   22.301503186  114.187959801     7.3717   4   3   1.5635   1.4121   3.2709  -0.1663   1.4489   1.5111   0.00    0.0
2158 455486.000   22.301537279  114.188023374     8.6790   4   3   1.4755   1.3765   3.2007   0.2763   1.4839   1.5144   0.00    0.0
2158 455487.000   22.301568932  114.188081124     9.3648   4   3   1.4142   1.3486   3.1483   0.4157   1.5121   1.5266   0.00    0.0
2158 455488.000   22.301592449  114.188130646     9.9397   4   2   1.4317   1.6324   3.5203   0.8131   0.8777   1.2795   0.00    0.0
2158 455489.000   22.301612124  114.188162012     8.0617   4   0   2.4266   2.5760   4.1766  -0.6487   0.5446   1.6135   0.00    0.0
2158 455490.000   22.301660012  114.188190908     6.2573   4   0   3.1883   3.0050   4.4683  -1.8082  -0.5403   2.0803   0.00    0.0
2158 455491.000   22.301725382  114.188297547    17.5596   4   2   1.3426   2.1019   3.7782   1.1841  -0.8498   0.4273   0.00    0.0
2158 455492.000   22.301781857  114.188283272    18.0085   4   2   2.3362   2.8636   3.6712  -1.5278  -0.4476  -0.7701   0.00    0.0
2158 455493.000   22.301762508  114.188311908    14.8356   4   3   1.2580   1.9826   3.5490   1.1651  -0.4462   0.4580   0.00    0.0
2158 455494.000   22.301770573  114.188349000    18.1659   2   4   1.0200   1.3661   3.1635   0.6660   0.7270   0.9372   0.00    0.0
2158 455495.000   22.301766707  114.188339361    13.2783   4   3   1.0455   1.2179   2.9868   0.6029   0.9160   1.1274   0.00    0.0
2158 455496.000   22.301756007  114.188320125     9.0827   4   3   1.0546   1.1495   2.8450   0.6179   1.0064   1.1943   0.00    0.0
2158 455497.000   22.301772638  114.188295151     8.6171   4   3   1.7896   1.7503   2.7351  -1.2497   1.0531   1.2384   0.00    0.0
2158 455498.000   22.301767614  114.188303346     9.6101   4   3   1.2681   1.2747   2.6653  -0.2800   1.1216   1.2353   0.00    0.0
2158 455499.000   22.301769029  114.188295990     9.2864   2   4   1.1839   1.1759   2.5902   0.2495   1.1233   1.2257   0.00    0.0
2158 455500.000   22.301755634  114.188288535     6.0424   2   4   0.9454   1.1907   2.8391   0.7374   1.4643   1.2739   0.00    0.0
2158 455501.000   22.301760980  114.188293237     7.5003   2   4   0.7577   0.9002   2.0352   0.3687   0.8477   0.7613   0.00    0.0
2158 455502.000   22.301763218  114.188293530     7.7836   2   5   0.6925   0.8154   1.7754   0.2232   0.6641   0.5812   0.00    0.0
2158 455503.000   22.301765959  114.188296493     8.7870   2   4   0.6574   0.7545   1.6108   0.0944   0.5387   0.4837   0.00    0.0
2158 455504.000   22.301768286  114.188298411     9.5310   2   4   0.6322   0.7130   1.5012  -0.1081   0.4627   0.4243   0.00    0.0
2158 455505.000   22.301769448  114.188299183     9.8738   2   4   0.6108   0.6794   1.4135  -0.1593   0.4040   0.3774   0.00    0.0
2158 455506.000   22.301770886  114.188299500    10.2066   4   3   0.6922   0.7440   1.7149   0.3069   0.7157   0.7060   0.00    0.0
2158 455507.000   22.301775893  114.188304572    11.7273   4   3   0.8614   0.8972   2.2952   0.6082   1.1509   1.1472   0.00    0.0
2158 455508.000   22.301779046  114.188308801    12.5436   4   3   0.9851   1.0281   2.7481   0.7912   1.4577   1.4385   0.00    0.0
2158 455509.000   22.301776008  114.188304860    11.2187   4   3   1.0035   1.0515   2.8351   0.8266   1.5220   1.4942   0.00    0.0
2158 455510.000   22.301773962  114.188301920    10.2306   4   3   1.0002   1.0515   2.8413   0.8328   1.5348   1.5012   0.00    0.0
2158 455511.000   22.301770142  114.188296358     8.6395   4   3   0.9992   1.0526   2.8488   0.8404   1.5480   1.5102   0.00    0.0
2158 455512.000   22.301767720  114.188292275     7.5138   4   3   0.9990   1.0532   2.8552   0.8477   1.5595   1.5192   0.00    0.0
2158 455513.000   22.301769775  114.188293703     7.9469   4   3   0.9973   1.0515   2.8550   0.8521   1.5657   1.5240   0.00    0.0
2158 455514.000   22.301772060  114.188295707     8.5364   4   3   0.9946   1.0484   2.8514   0.8547   1.5688   1.5263   0.00    0.0
2158 455515.000   22.301772538  114.188295536     8.5069   4   3   0.9919   1.0453   2.8478   0.8569   1.5714   1.5281   0.00    0.0
2158 455516.000   22.301774077  114.188296731     8.8551   4   3   0.9893   1.0426   2.8452   0.8590   1.5741   1.5300   0.00    0.0
2158 455517.000   22.301776410  114.188298880     9.5056   2   4   0.5067   0.5399   1.1503  -0.1067   0.4182   0.3808   0.00    0.0
2158 455518.000   22.301775560  114.188297678     9.0500   2   4   0.4950   0.5349   1.1190  -0.1098   0.4142   0.3600   0.00    0.0
2158 455519.000   22.301774089  114.188295847     8.4085   4   3   0.6071   0.6534   1.5678   0.3571   0.7741   0.7273   0.00    0.0
2158 455520.000   22.301775894  114.188297844     8.9328   2   4   0.4739   0.5103   1.0539  -0.1420   0.3744   0.3178   0.00    0.0
2158 455521.000   22.301775416  114.188297075     8.6222   2   4   0.4665   0.5012   1.0336  -0.1461   0.3650   0.3086   0.00    0.0
2158 455522.000   22.301775810  114.188297452     8.6745   2   4   0.4588   0.4924   1.0123  -0.1507   0.3547   0.2976   0.00    0.0
2158 455523.000   22.301776817  114.188298846     8.8971   2   4   0.4516   0.4841   0.9923  -0.1545   0.3452   0.2873   0.00    0.0
2158 455524.000   22.301778855  114.188300964     8.8077   2   4   0.4449   0.4763   0.9739  -0.1574   0.3366   0.2782   0.00    0.0
2158 455525.000   22.301785948  114.188308796     8.7925   2   4   0.4385   0.4690   0.9568  -0.1595   0.3291   0.2701   0.00    0.0
2158 455526.000   22.301800296  114.188332702    10.2997   4   3   0.5841   0.6161   1.5240   0.3703   0.7700   0.7382   0.00    0.0
2158 455527.000   22.301828530  114.188370713    14.0119   4   3   0.8522   0.8909   2.4287   0.7378   1.3490   1.3160   0.00    0.0
2158 455528.000   22.301860830  114.188408716    16.3609   4   3   0.9391   0.9787   2.7103   0.8434   1.5221   1.4895   0.00    0.0
2158 455529.000   22.301888760  114.188432456    13.8690   4   3   0.9437   0.9836   2.7302   0.8527   1.5356   1.5037   0.00    0.0
2158 455530.000   22.301918125  114.188448522     8.9477   4   3   0.9415   0.9841   2.7328   0.8554   1.5396   1.5059   0.00    0.0
2158 455531.000   22.301964058  114.188475115     7.2950   4   3   0.9431   0.9895   2.7487   0.8626   1.5520   1.5154   0.00    0.0
2158 455532.000   22.302027625  114.188501321     4.4526   4   2   1.9839   1.2519   3.5402   1.3278   1.9052   1.6138   0.00    0.0
2158 455533.000   22.302068435  114.188522982     4.7662   4   3   1.2656   1.2844   3.7243   1.2021   2.1168   2.1057   0.00    0.0
2158 455534.000   22.302141397  114.188549500     4.3712   4   2   2.1587   1.3339   3.8808   1.4315   2.0617   1.6975   0.00    0.0
2158 455535.000   22.302197904  114.188558999     0.6915   4   2   2.2955   1.3313   3.9659   1.4400   2.0485   1.4776   0.00    0.0
2158 455536.000   22.302253347  114.188559352    -0.8092   4   2   2.6743   1.8443   4.4929   0.4790   1.1385   2.2662   0.00    0.0
2158 455537.000   22.302292505  114.188574713    -0.4439   4   2   3.1257   1.4353   5.3120  -1.1421  -1.6882   3.1426   0.00    0.0
2158 455538.000   22.302351919  114.188585537     3.4190   4   0   3.2064   2.0146   5.4373  -1.4070  -1.8917   3.2687   0.00    0.0
2158 455539.000   22.302395932  114.188602025     7.1722   4   2   3.2031   2.1758   5.5742  -1.2937  -1.4733   3.2936   0.00    0.0
2158 455540.000   22.302418798  114.188609391     9.1012   4   0   3.2136   2.1842   5.6765  -1.2532  -1.3498   3.3356   0.00    0.0
2158 455541.000   22.302437209  114.188612118     9.8138   4   0   3.2307   2.1967   5.7419  -1.2772  -1.4038   3.3782   0.00    0.0
2158 455542.000   22.302437616  114.188597381     6.7542   4   0   3.2406   2.2019   5.7791  -1.2893  -1.4289   3.4027   0.00    0.0
2158 455543.000   22.302419389  114.188586348     2.2578   4   0   3.2436   2.2018   5.7960  -1.2892  -1.4287   3.4120   0.00    0.0
2158 455544.000   22.302419599  114.188586828     0.2866   4   0   3.2444   2.2020   5.8021  -1.2887  -1.4278   3.4152   0.00    0.0
2158 455545.000   22.302431565  114.188595984     1.1854   4   0   3.2449   2.2023   5.8047  -1.2893  -1.4290   3.4169   0.00    0.0
2158 455546.000   22.302426122  114.188589751     0.3090   4   0   3.2454   2.2025   5.8070  -1.2895  -1.4297   3.4187   0.00    0.0
2158 455547.000   22.302427903  114.188585208     0.2028   4   0   3.2459   2.2026   5.8098  -1.2895  -1.4297   3.4205   0.00    0.0
2158 455548.000   22.302436873  114.188582820     0.5804   4   0   3.2463   2.2027   5.8124  -1.2894  -1.4296   3.4222   0.00    0.0
2158 455549.000   22.302426235  114.188588379     0.9928   4   0   3.2467   2.2028   5.8145  -1.2893  -1.4295   3.4236   0.00    0.0
2158 455550.000   22.302435766  114.188586322     1.7989   4   0   3.2469   2.2029   5.8161  -1.2892  -1.4293   3.4248   0.00    0.0
2158 455551.000   22.302437715  114.188585386     3.2524   4   0   3.2471   2.2030   5.8174  -1.2890  -1.4290   3.4257   0.00    0.0
2158 455552.000   22.302440285  114.188586247     5.5928   4   0   3.2472   2.2031   5.8186  -1.2888  -1.4286   3.4266   0.00    0.0
2158 455553.000   22.302435839  114.188588553     5.9044   4   0   3.2473   2.2032   5.8198  -1.2886  -1.4282   3.4275   0.00    0.0
2158 455554.000   22.302443539  114.188594875     7.1247   4   0   3.2475   2.2033   5.8209  -1.2884  -1.4279   3.4283   0.00    0.0
2158 455555.000   22.302447258  114.188598424     5.6251   4   0   3.2476   2.2034   5.8221  -1.2883  -1.4275   3.4292   0.00    0.0
2158 455558.000   22.302410718  114.188541047   -11.2493   4   0   3.9852   2.6294   7.0063  -2.0347  -1.3034   3.8887   0.00    0.0
2158 455559.000   22.302426621  114.188573785    -6.9718   4   0   3.6454   2.4944   6.0478  -1.8494  -1.1116   3.3460   0.00    0.0
2158 455563.000   22.302085915  114.188835725    22.8966   4   0   4.3285   2.5792   7.1885  -2.1714  -1.1373   3.6884   0.00    0.0
2158 455571.000   22.302684248  114.188615177    12.9472   4   3   2.1486   2.2210   4.1460  -1.2100  -1.4610   0.9912   0.00    0.0
2158 455572.000   22.302734214  114.188546374     0.4590   4   2   2.1423   2.2186   4.2280  -1.0998  -0.9962   1.1784   0.00    0.0
2158 455573.000   22.302774486  114.188499406    -4.0194   4   0   2.1822   2.2662   4.3437  -1.0426  -1.0041   1.2413   0.00    0.0
2158 455574.000   22.302847640  114.188451431    -6.1183   4   2   2.1225   2.2448   4.3545  -1.0235  -1.0378   1.3248   0.00    0.0
2158 455575.000   22.302895759  114.188406971    -5.0289   2   4   1.6464   2.6840   4.0955  -0.2104  -0.7927   1.8318   0.00    0.0
2158 455576.000   22.302954462  114.188349596    -2.7156   4   2   1.6849   4.1033   4.5596   1.8858  -2.5289   0.8895   0.00    0.0
2158 455577.000   22.303004017  114.188273280     0.2184   4   2   1.9272   4.5639   4.9436   2.4864  -3.2531  -1.3185   0.00    0.0
2158 455578.000   22.303069305  114.188168106     5.1134   4   0   2.1116   5.3395   5.0842   1.9995  -3.7465  -1.0021   0.00    0.0
2158 455579.000   22.303159057  114.188198545     1.5066   4   0   2.1024   3.6423   4.9169  -0.8218  -3.0473   1.0335   0.00    0.0
2158 455580.000   22.303191268  114.188140623    -1.2738   4   3   2.0625   3.5084   4.8242  -0.7473  -2.9856   1.1569   0.00    0.0
2158 455581.000   22.303303207  114.187942441    31.4153   4   3   2.0321   3.0165   3.9108   1.1105  -2.2190   1.6604   0.00    0.0
2158 455582.000   22.303374799  114.187831659    48.5680   2   4   1.9660   2.8216   4.3421   1.1879  -2.2207   1.8416   0.00    0.0
2158 455583.000   22.303415736  114.187714907    54.5681   4   2   1.9627   2.8750   5.3031   1.3213  -2.4107   1.9686   0.00    0.0
2158 455584.000   22.303501598  114.187602367    52.9823   4   0   2.6944   3.3799   6.7751  -1.2011  -3.4509   3.0767   0.00    0.0
2158 455585.000   22.303540126  114.187582155    32.5560   4   2   1.8897   2.9091   6.4283   1.3764  -2.7151   1.9781   0.00    0.0
2158 455586.000   22.303612282  114.187543880    20.9583   4   0   2.8851   3.5487   7.3340  -1.5926  -3.8196   3.4186   0.00    0.0
2158 455590.000   22.303398569  114.186526703    16.7809   4   0   5.7985   3.6645  11.2043   3.2623   4.6536   7.5228   0.00    0.0
2158 455591.000   22.303651312  114.186695794    18.2538   4   0   4.9770   3.3884   9.3692   2.7026   3.8386   6.2259   0.00    0.0
2158 455592.000   22.303916308  114.186813498    36.8633   4   0   5.2708   3.4775  10.0444   2.9093   4.1420   6.7052   0.00    0.0
2158 455593.000   22.303965926  114.186952103    27.4934   4   2   4.1849   4.5447  11.0943  -3.2607  -6.0454   6.0031   0.00    0.0
2158 455596.000   22.304060973  114.186826111     1.9373   4   0   4.7579   5.4996  13.3737  -4.1665  -7.7059   7.2227   0.00    0.0
2158 455597.000   22.304080915  114.186741057     1.5157   4   2   4.0605   4.7022  10.9327  -3.2989  -6.2039   5.8129   0.00    0.0
2158 455598.000   22.304164273  114.186654619     9.8623   4   3   3.2855   4.1532  10.1955  -2.4195  -5.5109   4.8487   0.00    0.0
2158 455599.000   22.304219628  114.186557674    31.3075   4   2   3.4196   3.6304   9.9300  -2.4661  -5.4473   4.8212   0.00    0.0
2158 455600.000   22.304225621  114.186601184    23.9212   4   2   4.3966   4.6240  12.2869  -3.7066  -6.9952   6.6107   0.00    0.0
2158 455601.000   22.304234191  114.186609190    11.4857   4   2   4.5176   5.2707  12.9636  -4.0560  -7.4934   7.0210   0.00    0.0
2158 455602.000   22.304240075  114.186587662     6.7799   4   3   4.4056   4.2475  12.6771  -3.7405  -7.1038   6.8286   0.00    0.0
2158 455603.000   22.304274465  114.186551282    10.2760   2   4   2.3050   3.1072   7.0219  -0.8492  -3.5227   2.7469   0.00    0.0
2158 455604.000   22.304277481  114.186554265     4.0345   4   3   2.3320   2.8812   8.0458  -2.1127  -4.5687   3.8010   0.00    0.0
2158 455605.000   22.304290251  114.186558823    -1.7833   4   2   3.4761   4.2083   9.9550  -2.9980  -5.7158   5.2695   0.00    0.0
2158 455606.000   22.304309327  114.186530628    -0.2215   4   3   3.5177   4.3709  10.9818  -2.8911  -6.2075   5.7921   0.00    0.0
2158 455607.000   22.304335299  114.186484962     5.8918   2   4   3.3729   3.9474  11.0156  -3.2019  -6.2315   5.8471   0.00    0.0
2158 455608.000   22.304360352  114.186447093    10.5763   2   4   2.0949   2.5352   6.2961  -1.7767  -3.5783   3.3092   0.00    0.0
2158 455609.000   22.304377259  114.186419756    12.4855   2   4   1.8313   2.2122   5.3506  -1.5189  -3.0468   2.8191   0.00    0.0
2158 455610.000   22.304389377  114.186399216    13.6427   2   4   1.7272   2.0722   5.0481  -1.4540  -2.8783   2.6690   0.00    0.0
2158 455611.000   22.304390808  114.186367672    14.7575   2   4   1.8779   2.5608   4.7917  -0.6573  -2.7640   2.5224   0.00    0.0
2158 455612.000   22.304400094  114.186357232    15.8481   2   4   1.6220   2.0135   4.5704  -1.2110  -2.6177   2.4243   0.00    0.0
2158 455613.000   22.304404784  114.186344060    16.6389   2   4   1.5375   1.8788   4.3777  -1.2080  -2.5065   2.3278   0.00    0.0
2158 455614.000   22.304408831  114.186335575    17.2239   2   4   1.4720   1.7849   4.2077  -1.1816  -2.4093   2.2413   0.00    0.0
2158 455615.000   22.304410594  114.186330787    17.5954   2   4   1.4150   1.7052   4.0560  -1.1539  -2.3227   2.1637   0.00    0.0
2158 455616.000   22.304410413  114.186326861    18.0788   2   4   1.3645   1.6362   3.9197  -1.1263  -2.2448   2.0935   0.00    0.0
2158 455617.000   22.304409349  114.186323498    18.5554   2   4   1.3194   1.5755   3.7962  -1.0995  -2.1742   2.0297   0.00    0.0
2158 455618.000   22.304408493  114.186317991    19.4449   2   4   1.2787   1.5215   3.6837  -1.0738  -2.1098   1.9714   0.00    0.0
2158 455619.000   22.304408378  114.186313162    20.2860   4   3   1.2706   1.5011   3.7070  -1.0859  -2.1175   1.9841   0.00    0.0
2158 455620.000   22.304407553  114.186308247    20.9909   2   5   1.2075   1.4270   3.4852  -1.0268  -1.9953   1.8687   0.00    0.0
2158 455621.000   22.304407668  114.186303715    21.8522   2   4   1.2331   1.4427   3.6439  -1.0753  -2.0752   1.9518   0.00    0.0
2158 455622.000   22.304410265  114.186298223    23.2720   2   4   1.5409   1.7447   4.9414  -1.4505  -2.7662   2.6337   0.00    0.0
2158 455623.000   22.304408844  114.186299472    22.7021   2   5   1.1207   1.3153   3.2402  -0.9643  -1.8544   1.7406   0.00    0.0
2158 455624.000   22.304411003  114.186297424    22.9807   2   4   1.0957   1.2838   3.1691  -0.9454  -1.8137   1.7031   0.00    0.0
2158 455625.000   22.304414483  114.186295166    22.9476   4   3   1.1098   1.2914   3.2656  -0.9736  -1.8613   1.7532   0.00    0.0
2158 455626.000   22.304419692  114.186292457    22.5016   4   3   1.3625   1.5397   4.3365  -1.2790  -2.4294   2.3145   0.00    0.0
2158 455627.000   22.304424817  114.186289080    22.4672   2   4   1.0299   1.2015   2.9817  -0.8944  -1.7060   1.6041   0.00    0.0
2158 455628.000   22.304427003  114.186289829    22.1555   2   5   1.0097   1.1772   2.9250  -0.8785  -1.6735   1.5737   0.00    0.0
2158 455629.000   22.304429857  114.186289917    21.7925   2   5   0.9909   1.1542   2.8714  -0.8634  -1.6426   1.5452   0.00    0.0
2158 455630.000   22.304436947  114.186284943    21.5476   2   4   0.9736   1.1325   2.8212  -0.8493  -1.6136   1.5187   0.00    0.0
2158 455631.000   22.304451184  114.186271642    21.1786   4   3   0.9956   1.1500   2.9410  -0.8825  -1.6740   1.5806   0.00    0.0
2158 455632.000   22.304472960  114.186250092    20.8600   2   4   0.9415   1.0929   2.7290  -0.8231  -1.5604   1.4697   0.00    0.0
2158 455633.000   22.304500775  114.186221599    20.4924   4   3   1.0000   1.1469   3.0017  -0.8990  -1.7015   1.6117   0.00    0.0
2158 455634.000   22.304545773  114.186207202    20.1922   4   3   1.3713   2.1211   2.6461   1.1153  -1.5533   1.4003   0.00    0.0
2158 455635.000   22.304584316  114.186167188    20.1239   4   2   1.6870   2.6741   2.9596   1.5957  -1.7057   1.5700   0.00    0.0
2158 455636.000   22.304622943  114.186120017    20.3169   4   3   1.6300   2.6641   2.5703   1.6617  -1.5421   1.3387   0.00    0.0
2158 455637.000   22.304639990  114.186036667    20.5768   4   3   1.6293   2.6704   2.5344   1.6772  -1.5222   1.3190   0.00    0.0
2158 455638.000   22.304636254  114.185920426    20.6386   4   3   2.5742   4.4292   2.4999   3.1460  -1.5001   1.3020   0.00    0.0
2158 455639.000   22.304703732  114.185947609    20.2352   4   3   2.8837   4.9834   2.4678   3.5924  -1.4291   1.3176   0.00    0.0
2158 455640.000   22.304764947  114.185964404    19.7549   2   4   2.7525   4.7406   2.4387   3.4090  -1.3767   1.3221   0.00    0.0
2158 455641.000   22.304803249  114.185938578    19.2560   4   2   2.8806   4.9824   2.6101   3.5998  -1.2772   1.3612   0.00    0.0
2158 455642.000   22.304872698  114.185970033    20.9065   4   2   1.6634   2.7652   3.6659   1.8002  -1.5587   1.2222   0.00    0.0
2158 455643.000   22.304793528  114.185718242    26.6169   4   2   2.6978   4.6560   5.1709   3.3503   1.5168   2.0938   0.00    0.0
2158 455644.000   22.304671971  114.185409616    25.3390   4   2   3.1152   5.3552   6.0813   3.9212   2.8813   2.8200   0.00    0.0
2158 455645.000   22.304648807  114.185313881    29.0691   4   2   3.1554   5.4059   6.3364   3.9725   3.1633   2.9919   0.00    0.0
2158 455646.000   22.304773428  114.185514393    41.4678   4   2   3.1497   5.3957   6.3638   3.9679   3.1700   2.9902   0.00    0.0
2158 455647.000   22.304947492  114.185834420    55.1188   4   0   2.4974   3.2269   6.5576   0.4153  -2.9255   2.7087   0.00    0.0
2158 455648.000   22.304985648  114.185899357    62.0014   4   0   3.5493   4.1329   8.5962  -2.6006  -4.8986   4.6164   0.00    0.0
2158 455649.000   22.304976655  114.185902028    67.8724   4   0   3.9675   4.5416  10.0982  -3.1892  -5.8332   5.5440   0.00    0.0
2158 455650.000   22.304939161  114.185847284    81.3634   4   0   4.1083   4.6904  10.8905  -3.3907  -6.2443   5.9241   0.00    0.0
2158 455651.000   22.304960897  114.185766828   104.6789   4   0   4.1483   4.7371  11.1511  -3.4474  -6.3716   6.0388   0.00    0.0
2158 455652.000   22.305048506  114.185810310   111.2629   4   0   4.1558   4.7436  11.1918  -3.4567  -6.3903   6.0587   0.00    0.0
2158 455653.000   22.305159452  114.185867734   124.5416   4   0   4.1558   4.7399  11.1914  -3.4550  -6.3868   6.0588   0.00    0.0
2158 455654.000   22.305221868  114.185989282   111.7630   4   0   4.1586   4.7404  11.2096  -3.4575  -6.3929   6.0670   0.00    0.0
2158 455655.000   22.305326273  114.186202157    98.9925   4   0   4.1661   4.7469  11.2470  -3.4665  -6.4111   6.0861   0.00    0.0
2158 455656.000   22.305370458  114.186314249    88.9586   4   0   4.1750   4.7552  11.2866  -3.4775  -6.4318   6.1073   0.00    0.0
2158 455657.000   22.305350506  114.186294615    83.7819   4   0   4.1817   4.7612  11.3155  -3.4857  -6.4470   6.1232   0.00    0.0
2158 455658.000   22.305328970  114.186223212    90.5758   4   0   4.1852   4.7637  11.3310  -3.4896  -6.4543   6.1316   0.00    0.0
2158 455659.000   22.305348288  114.186223915    95.3525   4   0   4.1862   4.7636  11.3364  -3.4902  -6.4558   6.1345   0.00    0.0
2158 455660.000   22.305401933  114.186239521   102.2842   4   0   4.1861   4.7623  11.3370  -3.4893  -6.4544   6.1346   0.00    0.0
2158 455661.000   22.305419681  114.186218483   106.6589   4   2   4.0046   4.5966  10.9287  -3.2645  -6.1564   5.8275   0.00    0.0
2158 455662.000   22.305424180  114.186181163   108.5371   4   2   2.9939   3.8517   9.7527  -1.9967  -5.0520   4.5655   0.00    0.0
2158 455663.000   22.305433929  114.186134221   114.9822   4   2   2.6535   3.5238   8.7419  -1.3529  -4.3351   3.8533   0.00    0.0
2158 455664.000   22.305450519  114.186109222   121.2479   4   2   2.9791   3.6618   8.4377  -1.8005  -4.3426   3.9874   0.00    0.0
2158 455665.000   22.305449450  114.186052281   123.7546   4   2   3.6079   4.1501   9.2018  -2.6881  -5.1311   4.8838   0.00    0.0
2158 455666.000   22.305440031  114.186005302   119.4081   4   0   3.9836   4.5185  10.2590  -3.2002  -5.8692   5.6124   0.00    0.0
2158 455667.000   22.305401473  114.186001020   112.3448   4   0   4.1221   4.6795  10.9595  -3.3954  -6.2546   5.9619   0.00    0.0
2158 455668.000   22.305377514  114.185943351   106.9730   4   2   4.1589   4.5676  11.2445  -3.4082  -6.3524   6.0829   0.00    0.0
2158 455669.000   22.305399660  114.185930376   107.9354   4   0   4.1769   4.7232  11.3105  -3.4642  -6.4155   6.1188   0.00    0.0
2158 455670.000   22.305650652  114.186210384   144.4142   4   2   4.5691   5.7890  11.2073  -1.5836  -5.2485   6.2968   0.00    0.0
2158 455671.000   22.305860081  114.186377112   181.8259   4   2   4.8960   6.2909  11.3856   1.6067  -4.4213   6.6026   0.00    0.0
2158 455675.000   22.305814493  114.185744656   205.0509   4   0   3.6543   2.3425   7.1885  -1.4268  -1.6544   4.2475   0.00    0.0
2158 455676.000   22.305831079  114.185785131   207.8860   4   0   3.3480   2.2819   6.3052  -1.2869  -1.4104   3.6642   0.00    0.0
2158 455681.000   22.305552657  114.185029675   -10.2977   4   2   5.4622   3.9270  10.5380   3.6558   5.0524   6.9686   0.00    0.0
2158 455682.000   22.305628904  114.185084837    -2.7600   4   2   4.8771   3.6046   9.4650   3.3792   4.4888   6.2323   0.00    0.0
2158 455690.000   22.306295128  114.185666543    69.8128   4   0   4.7595   5.3570  13.4763  -4.0816  -7.5826   7.2683   0.00    0.0
2158 455691.000   22.306223658  114.185474097    67.1671   4   0   4.3682   4.9204  12.0027  -3.6003  -6.7145   6.4475   0.00    0.0
2158 455692.000   22.306096321  114.185275531    51.0184   4   2   4.6069   5.0079  13.0414  -3.8962  -7.2865   7.0269   0.00    0.0
2158 455693.000   22.306063306  114.185231737    45.9286   4   0   4.6683   5.2301  13.2912  -4.0344  -7.4832   7.1777   0.00    0.0
2158 455694.000   22.306068412  114.185219896    48.3613   4   3   2.5698   3.3092   8.2243  -1.0826  -3.9502   3.3423   0.00    0.0
2158 455695.000   22.306069186  114.185214664    48.7536   4   0   3.8590   4.4066  10.6546  -3.0422  -5.8631   5.5801   0.00    0.0
2158 455696.000   22.306084083  114.185154561    55.9390   4   2   4.3266   4.6997  11.9527  -3.5993  -6.7038   6.4725   0.00    0.0
2158 455697.000   22.306107086  114.185059646    73.4475   4   2   2.1347   3.0432   7.3472   0.9783  -3.1390   2.5205   0.00    0.0
2158 455698.000   22.306152556  114.185053573    84.7835   4   2   2.9812   4.7078   7.1844   2.9959   0.3471   3.2690   0.00    0.0
2158 455700.000   22.306274759  114.185095486    87.9666   4   2   3.6508   5.9843   7.9739   4.1501   3.2722   3.9696   0.00    0.0
2158 455701.000   22.306297884  114.185058205    81.6744   4   2   3.3928   5.5186   7.3648   3.8037   2.9112   3.7104   0.00    0.0
2158 455702.000   22.306344248  114.185077524    79.6079   4   2   3.3552   5.4989   7.1725   3.8069   2.8216   3.5898   0.00    0.0
2158 455703.000   22.306336385  114.185009014    72.2876   4   2   1.9637   2.9656   6.4260   1.4687  -2.4489   2.0700   0.00    0.0
2158 455704.000   22.306316569  114.184932034    68.4266   4   2   1.8929   2.9008   6.2798   1.4321  -2.5108   1.8935   0.00    0.0
2158 455705.000   22.306320811  114.184918305    66.9705   4   2   2.8553   4.7346   6.6058   3.2033   1.5620   2.8637   0.00    0.0
2158 455706.000   22.306309698  114.184884802    63.2861   4   2   1.8848   2.9041   6.2246   1.5579  -2.2772   1.8748   0.00    0.0
2158 455707.000   22.306307633  114.184877236    57.8057   4   2   1.8244   2.8183   6.1334   1.5022  -2.3588   1.7285   0.00    0.0
2158 455708.000   22.306298002  114.184858268    55.2798   4   3   1.7756   2.7325   6.0186   1.4551  -2.4325   1.5915   0.00    0.0
2158 455709.000   22.306299215  114.184860699    52.6009   4   3   1.5155   2.2340   5.8196   0.8922  -2.7968   1.0820   0.00    0.0
2158 455710.000   22.306303942  114.184869382    49.4232   4   3   1.4600   2.1487   5.6251   0.8170  -2.8994   0.7562   0.00    0.0
2158 455711.000   22.306304946  114.184870310    46.7557   4   3   1.4308   2.1129   5.4741   0.8137  -2.9325   0.4682   0.00    0.0
2158 455712.000   22.306307442  114.184874368    44.1840   4   3   1.4075   2.0865   5.3544   0.8216  -2.9467  -0.2208   0.00    0.0
2158 455713.000   22.306307242  114.184872648    43.6283   4   3   1.3863   2.0628   5.2661   0.8305  -2.9527  -0.5179   0.00    0.0
2158 455714.000   22.306311653  114.184881424    39.9490   4   3   1.5423   2.3928   5.3730   1.2639  -2.6546   0.7131   0.00    0.0
2158 455715.000   22.306318810  114.184895130    36.0897   4   3   1.3709   2.0622   5.2538   0.9055  -2.8765  -0.5924   0.00    0.0
2158 455716.000   22.306323306  114.184904304    33.2949   4   3   1.3404   2.0167   5.2062   0.8770  -2.8989  -0.7595   0.00    0.0
2158 455717.000   22.306325377  114.184908014    31.9818   4   3   1.3209   1.9929   5.1555   0.8751  -2.9040  -0.8579   0.00    0.0
2158 455718.000   22.306327401  114.184912809    30.6409   4   3   1.3051   1.9756   5.1032   0.8800  -2.9050  -0.9342   0.00    0.0
2158 455719.000   22.306325953  114.184910286    31.3397   4   3   1.2912   1.9613   5.0570   0.8873  -2.9044  -0.9976   0.00    0.0
2158 455720.000   22.306323169  114.184904844    32.8264   4   3   1.2784   1.9483   5.0184   0.8948  -2.9027  -1.0517   0.00    0.0
2158 455721.000   22.306327083  114.184913698    30.8080   4   3   1.2661   1.9357   4.9859   0.9014  -2.8999  -1.0980   0.00    0.0
2158 455722.000   22.306330449  114.184921748    29.1141   4   3   1.2544   1.9233   4.9578   0.9073  -2.8960  -1.1382   0.00    0.0
2158 455723.000   22.306336002  114.184933746    29.0178   4   2   1.4560   2.3367   5.1503   1.3607  -2.5238  -0.5049   0.00    0.0
2158 455724.000   22.306340858  114.184937746    24.7814   4   3   1.2354   1.9062   4.9161   0.9245  -2.8928  -1.2134   0.00    0.0
2158 455725.000   22.306346388  114.184927221    25.2144   4   3   1.2234   1.8909   4.8887   0.9244  -2.8817  -1.2343   0.00    0.0
2158 455726.000   22.306351273  114.184900576    26.5018   4   2   2.1552   1.9855   5.6797  -0.5180  -3.1830   1.9031   0.00    0.0
2158 455727.000   22.306389883  114.184874782    26.3347   4   3   1.2090   1.8564   4.7116   0.9647  -2.8189  -1.3530   0.00    0.0
2158 455728.000   22.306436952  114.184862896    20.2015   4   3   1.1867   1.8294   4.5989   0.9695  -2.7716  -1.3914   0.00    0.0
2158 455729.000   22.306493536  114.184862014    10.8279   4   3   1.1675   1.8191   4.5522   0.9801  -2.7579  -1.4367   0.00    0.0
2158 455730.000   22.306544337  114.184851703    11.2939   4   2   1.3384   2.2663   4.6281   1.3826  -2.5010  -1.2259   0.00    0.0
2158 455731.000   22.306581954  114.184821184    19.7929   4   2   1.4191   2.4972   4.7359   1.5703  -2.2507  -1.0136   0.00    0.0
2158 455732.000   22.306591097  114.184718766    36.9807   4   2   1.2121   1.7499   4.0588   1.0953  -0.7526   0.8484   0.00    0.0
2158 455733.000   22.306636045  114.184698598    42.7190   4   3   1.2082   1.7162   3.8285   1.1146  -0.4799   0.8448   0.00    0.0
2158 455734.000   22.306706458  114.184756401    37.1879   4   3   1.3611   2.2794   2.7617   1.5034  -1.2444   0.3430   0.00    0.0
2158 455735.000   22.306748117  114.184773378    36.6001   4   2   1.3577   2.3679   2.6201   1.5475  -1.3792  -0.1170   0.00    0.0
2158 455736.000   22.306769510  114.184765246    35.9670   4   2   1.3612   2.4030   3.5051   1.5729  -1.6964  -0.6223   0.00    0.0
2158 455737.000   22.306774813  114.184732872    38.0668   4   2   1.3829   2.4516   4.4585   1.6173  -2.0667  -1.0099   0.00    0.0
2158 455738.000   22.306724412  114.184609037    36.3566   4   2   1.2882   1.9058   4.6426   1.3302   1.1507   1.3847   0.00    0.0
2158 455739.000   22.306716313  114.184575682    36.9750   4   2   1.3089   1.9106   4.6869   1.3638   1.4260   1.4878   0.00    0.0
2158 455740.000   22.306721678  114.184583909    34.4924   4   2   1.2878   1.9080   4.6730   1.3555   1.3999   1.4518   0.00    0.0
2158 455741.000   22.306728304  114.184606116    30.2553   4   2   1.2697   1.9086   4.6756   1.3501   1.3940   1.4307   0.00    0.0
2158 455742.000   22.306723175  114.184608349    24.5430   4   2   1.8487   2.9775   5.5286   2.2174   2.9429   2.4454   0.00    0.0
2158 455743.000   22.306711068  114.184598898    15.5633   4   3   1.9850   3.1721   6.0459   2.3945   3.5324   2.8813   0.00    0.0
2158 455744.000   22.306727432  114.184638514    20.0986   4   2   1.2921   1.9593   4.9146   1.4105   1.6377   1.5748   0.00    0.0
2158 455745.000   22.306726338  114.184646257    25.0026   2   4   1.2224   1.8625   4.5764   1.3236   1.5749   1.4948   0.00    0.0
2158 455746.000   22.306731407  114.184664291    28.0674   4   3   1.0914   1.5864   4.3750   1.1107   1.9471   1.7003   0.00    0.0
2158 455747.000   22.306729845  114.184668274    27.5883   2   4   0.9604   1.2957   3.4108   0.8813   1.4357   1.3765   0.00    0.0
2158 455748.000   22.306727976  114.184671159    27.7726   2   4   0.9158   1.2030   3.1217   0.8082   1.3349   1.3073   0.00    0.0
2158 455749.000   22.306726634  114.184676079    28.6718   4   3   0.9887   1.3856   3.4546   0.9617   1.7534   1.5526   0.00    0.0
2158 455750.000   22.306723065  114.184676956    28.9982   2   4   1.0424   1.5157   3.7329   1.0691   2.0356   1.7303   0.00    0.0
2158 455751.000   22.306717539  114.184672724    27.7552   4   3   1.0479   1.5395   3.7891   1.0896   2.1140   1.7754   0.00    0.0
2158 455752.000   22.306705560  114.184655643    23.4259   4   3   1.0388   1.5310   3.7681   1.0843   2.1268   1.7776   0.00    0.0
2158 455753.000   22.306689820  114.184630553    17.2177   4   3   1.3551   2.1240   5.0392   1.5710   3.0897   2.4749   0.00    0.0
2158 455754.000   22.306679868  114.184617032    13.7893   4   3   1.0876   1.6294   3.9525   1.1736   2.3169   1.9084   0.00    0.0
2158 455755.000   22.306671003  114.184605399    10.8005   4   3   1.0300   1.5334   3.7429   1.0929   2.1764   1.7985   0.00    0.0
2158 455756.000   22.306666668  114.184602948    10.0566   4   3   1.0164   1.5221   3.7144   1.0819   2.1704   1.7850   0.00    0.0
2158 455757.000   22.306664520  114.184604665    10.3539   4   3   1.0119   1.5240   3.7107   1.0833   2.1824   1.7873   0.00    0.0
2158 455758.000   22.306663789  114.184610497    11.6871   4   3   1.0073   1.5222   3.6977   1.0831   2.1868   1.7863   0.00    0.0
2158 455759.000   22.306661952  114.184614384    12.5739   4   3   1.0027   1.5190   3.6820   1.0822   2.1878   1.7839   0.00    0.0
2158 455760.000   22.306655991  114.184610752    11.6468   4   3   0.9988   1.5170   3.6699   1.0822   2.1900   1.7825   0.00    0.0
2158 455761.000   22.306649186  114.184606822    10.7167   2   4   0.9954   1.5157   3.6599   1.0828   2.1929   1.7821   0.00    0.0
2158 455762.000   22.306645979  114.184607877    10.9315   4   3   0.9918   1.5154   3.6541   1.0834   2.1974   1.7816   0.00    0.0
2158 455763.000   22.306642996  114.184609456    11.2790   4   3   0.9881   1.5148   3.6479   1.0835   2.2009   1.7804   0.00    0.0
2158 455764.000   22.306638005  114.184607153    10.6673   4   3   0.9844   1.5141   3.6417   1.0835   2.2038   1.7789   0.00    0.0
2158 455765.000   22.306630279  114.184599067     8.6533   4   3   0.9808   1.5135   3.6360   1.0835   2.2065   1.7773   0.00    0.0
2158 455766.000   22.306623815  114.184592656     7.0559   4   3   0.9774   1.5130   3.6307   1.0836   2.2091   1.7759   0.00    0.0
2158 455767.000   22.306638097  114.184625166    14.7648   4   3   1.3001   2.1189   5.0035   1.5659   3.1634   2.4733   0.00    0.0
2158 455768.000   22.306621478  114.184600237     8.7170   4   3   1.0307   1.6168   3.8564   1.1716   2.3789   1.8979   0.00    0.0
2158 455769.000   22.306613572  114.184591522     6.5703   4   3   0.9759   1.5218   3.6386   1.0939   2.2313   1.7854   0.00    0.0
2158 455770.000   22.306632043  114.184631964    16.1667   4   3   1.2911   2.1194   4.9979   1.5649   3.1700   2.4686   0.00    0.0
2158 455771.000   22.306653183  114.184676264    26.6799   4   3   1.4821   2.4605   5.7786   1.8340   3.6999   2.8659   0.00    0.0
2158 455772.000   22.306675747  114.184722205    37.6330   4   3   1.5389   2.5562   5.9968   1.9119   3.8489   2.9809   0.00    0.0
2158 455773.000   22.306691273  114.184755656    45.4966   4   3   1.5448   2.5654   6.0163   1.9206   3.8643   2.9930   0.00    0.0
2158 455774.000   22.306704652  114.184784818    52.3448   4   3   1.5410   2.5628   6.0089   1.9179   3.8614   2.9881   0.00    0.0
2158 455775.000   22.306712267  114.184801693    56.2715   4   3   1.5384   2.5659   6.0145   1.9181   3.8673   2.9876   0.00    0.0
2158 455776.000   22.306714246  114.184808256    57.6725   4   3   1.5368   2.5717   6.0264   1.9201   3.8772   2.9895   0.00    0.0
2158 455777.000   22.306708727  114.184799726    55.4835   4   3   1.5347   2.5757   6.0340   1.9209   3.8842   2.9899   0.00    0.0
2158 455778.000   22.306623398  114.184641640    17.4451   4   3   1.0259   1.6489   3.9022   1.1977   2.4475   1.9211   0.00    0.0
2158 455779.000   22.306604194  114.184608551     9.3828   4   3   0.9534   1.5346   3.6382   1.0994   2.2692   1.7776   0.00    0.0
2158 455780.000   22.306601869  114.184608154     9.1106   4   3   0.9465   1.5306   3.6263   1.0946   2.2640   1.7691   0.00    0.0
2158 455781.000   22.306611269  114.184629074    13.9750   4   3   0.9455   1.5271   3.6161   1.0943   2.2597   1.7674   0.00    0.0
2158 455782.000   22.306619234  114.184646820    18.0533   4   3   0.9434   1.5192   3.5963   1.0915   2.2486   1.7621   0.00    0.0
2158 455783.000   22.306626132  114.184661458    21.4088   4   3   0.9419   1.5142   3.5833   1.0902   2.2420   1.7589   0.00    0.0
2158 455784.000   22.306630074  114.184671013    23.5110   4   3   0.9407   1.5130   3.5786   1.0906   2.2412   1.7582   0.00    0.0
2158 455785.000   22.306631325  114.184675574    24.3829   4   3   0.9389   1.5131   3.5767   1.0909   2.2423   1.7574   0.00    0.0
2158 455786.000   22.306630412  114.184675282    24.1408   4   3   0.9364   1.5130   3.5745   1.0906   2.2431   1.7555   0.00    0.0
2158 455787.000   22.306613521  114.184644538    16.6056   4   3   1.2589   2.1230   4.9711   1.5639   3.1911   2.4482   0.00    0.0
2158 455788.000   22.306590152  114.184601758     6.1676   4   3   1.4433   2.4569   5.7396   1.8226   3.7064   2.8325   0.00    0.0
2158 455789.000   22.306572961  114.184572152    -1.1560   4   3   1.4969   2.5506   5.9550   1.8965   3.8512   2.9423   0.00    0.0
2158 455790.000   22.306560450  114.184551812    -6.2537   4   3   1.5027   2.5617   5.9792   1.9054   3.8685   2.9550   0.00    0.0
2158 455791.000   22.306550282  114.184536204   -10.2135   4   3   1.5002   2.5618   5.9774   1.9043   3.8688   2.9523   0.00    0.0
2158 455792.000   22.306545596  114.184531893   -11.5390   4   3   1.4989   2.5670   5.9869   1.9059   3.8767   2.9537   0.00    0.0
2158 455793.000   22.306534221  114.184515134    -9.7954   4   2   1.7437   3.0312   6.0411   2.2518   3.7405   2.8495   0.00    0.0
2158 455794.000   22.306437867  114.184491999   -19.5733   4   2   3.1258   3.3258   6.8580   2.3661   3.5129   3.9098   0.00    0.0
2158 455795.000   22.306273506  114.184484610   -46.4774   4   2   4.3653   3.3322   8.3433   2.4303   3.5720   5.4477   0.00    0.0
2158 455796.000   22.306207328  114.184459041   -64.2221   4   3   4.5694   3.2855   8.7990   2.6399   3.9680   5.8110   0.00    0.0
2158 455797.000   22.306236784  114.184436556   -67.9371   4   3   3.6918   3.4091   8.5239   2.8717   4.1213   5.1267   0.00    0.0
2158 455798.000   22.306289627  114.184459336   -57.8423   4   3   3.2898   3.4095   8.0535   2.8107   4.0419   4.6382   0.00    0.0
2158 455799.000   22.306326790  114.184476776   -47.1283   4   2   3.0560   3.3947   7.6641   2.7378   3.9425   4.3003   0.00    0.0
2158 455800.000   22.306363744  114.184488668   -35.8010   4   2   2.8746   3.3813   7.3247   2.6690   3.8436   4.0159   0.00    0.0
2158 455801.000   22.306513018  114.184614404     0.2914   4   0   2.6269   2.1335   5.7311   0.4459   0.8239   2.9652   0.00    0.0
2158 455802.000   22.306510024  114.184546408     4.9950   4   2   1.7039   1.9889   4.9953   1.1423   1.2095   1.9204   0.00    0.0
2158 455803.000   22.306525798  114.184469095     5.6381   4   2   1.6359   1.9727   4.8816   1.1898   1.2990   1.8020   0.00    0.0
2158 455804.000   22.306627327  114.184435648     8.8852   4   0   2.9759   3.0534   6.1946   1.9502   2.8021   3.4917   0.00    0.0
2158 455805.000   22.306806207  114.184465562    24.6387   4   2   4.0137   3.3251   7.8968   2.2882   3.4096   5.0516   0.00    0.0
2158 455806.000   22.306899975  114.184492434    38.7548   4   2   4.5627   3.2909   8.9144   2.4885   3.8204   5.8716   0.00    0.0
2158 455807.000   22.306919839  114.184482380    45.2294   4   0   4.7248   3.4288   9.2792   2.6791   3.9671   6.0823   0.00    0.0
2158 455808.000   22.306894913  114.184457890    43.8321   4   0   4.7381   3.4530   9.3534   2.7034   4.0061   6.1133   0.00    0.0
2158 455814.000   22.306978396  114.183732750    45.4652   4   0   2.2528   3.1404   4.7005  -0.6720   1.0307   1.6040   0.00    0.0
2158 455815.000   22.307043302  114.183932392    36.8165   4   2   4.0556   5.2969   9.9011   2.4844   5.9500   5.1354   0.00    0.0
