% program   : RTKPOST demo5 b34k
% inp file  : C:\Users\user\Desktop\AAE6102_Laboratory-main\AAE6102_Laboratory-main\GNSS Data\UrbanNav - Medium\20210521.medium-urban.whampoa.ublox.f9p.obs
% inp file  : C:\Users\user\Desktop\AAE6102_Laboratory-main\AAE6102_Laboratory-main\GNSS Data\UrbanNav - Medium\hksc141g.21o
% inp file  : C:\Users\user\Desktop\AAE6102_Laboratory-main\AAE6102_Laboratory-main\GNSS Data\UrbanNav - Medium\hksc141g.21n
% obs start : 2021/05/21 06:29:02.0 GPST (week2158 455342.0s)
% obs end   : 2021/05/21 06:54:39.0 GPST (week2158 456879.0s)
% pos mode  : Kinematic
% freqs     : L1
% solution  : Forward
% elev mask : 10.0 deg
% dynamics  : on
% tidecorr  : off
% ionos opt : Broadcast
% tropo opt : Saastamoinen
% ephemeris : Broadcast
% navi sys  : GPS GLONASS Galileo QZSS BDS NavIC SBAS
% amb res   : Fix and Hold
% amb glo   : Fix and Hold
% val thres : 3.0
% antenna1  :                       ( 0.0000  0.0000  0.0000)
% antenna2  :                       ( 0.0000  0.0000  0.0000)
% ref pos   : 22.322172082  114.141187963    20.2386
%
% (lat/lon/height=WGS84/ellipsoidal,Q=1:fix,2:float,3:sbas,4:dgps,5:single,6:ppp,ns=# of satellites)
%  GPST          latitude(deg) longitude(deg)  height(m)   Q  ns   sdn(m)   sde(m)   sdu(m)  sdne(m)  sdeu(m)  sdun(m) age(s)  ratio
2158 455342.000   22.301565318  114.190306585     3.5893   2   6   2.0701   2.0565   3.9311  -1.1458  -1.4583   0.6605   0.00    0.0
2158 455343.000   22.301565627  114.190306458     3.5575   2   5   1.5032   1.5152   2.8734  -0.8219  -1.0429   0.4899   0.00    0.0
2158 455344.000   22.301565789  114.190306808     3.5941   2   6   1.2379   1.2553   2.3735  -0.6735  -0.8540   0.4072   0.00    0.0
2158 455345.000   22.301566603  114.190306305     3.5909   2   6   1.0584   1.0934   2.0565  -0.5733  -0.7311   0.2902   0.00    0.0
2158 455346.000   22.301566649  114.190306063     3.5205   2   5   0.9527   0.9829   1.8479  -0.5156  -0.6561   0.2744   0.00    0.0
2158 455347.000   22.301566754  114.190305720     3.4719   2   5   0.8734   0.9002   1.6922  -0.4724  -0.6002   0.2596   0.00    0.0
2158 455348.000   22.301567193  114.190302642     3.4860   2   5   0.8111   0.8355   1.5701  -0.4385  -0.5566   0.2466   0.00    0.0
2158 455349.000   22.301567195  114.190295698     3.4139   2   5   0.7604   0.7829   1.4712  -0.4110  -0.5213   0.2352   0.00    0.0
2158 455350.000   22.301567724  114.190285223     3.3956   2   4   0.7183   0.7392   1.3889  -0.3881  -0.4920   0.2253   0.00    0.0
2158 455351.000   22.301571159  114.190272589     3.3896   2   4   0.6826   0.7021   1.3191  -0.3687  -0.4671   0.2167   0.00    0.0
2158 455352.000   22.301580386  114.190262140     3.5151   2   4   0.6848   0.7120   1.4364  -0.4179  -0.6043   0.4353   0.00    0.0
2158 455353.000   22.301591842  114.190255271     3.3337   2   6   0.6242   0.6421   1.2033  -0.3371  -0.4265   0.1994   0.00    0.0
2158 455354.000   22.301604702  114.190247718     3.3504   2   6   0.6000   0.6173   1.1568  -0.3240  -0.4098   0.1928   0.00    0.0
2158 455355.000   22.301618682  114.190239806     3.3408   2   7   0.5742   0.5945   1.1154  -0.3093  -0.3950   0.1869   0.00    0.0
2158 455356.000   22.301634391  114.190231317     3.2973   2   6   0.5541   0.5743   1.0787  -0.2976  -0.3820   0.1802   0.00    0.0
2158 455357.000   22.301655677  114.190220259     3.2100   2   5   0.5376   0.5566   1.0453  -0.2893  -0.3707   0.1788   0.00    0.0
2158 455358.000   22.301684043  114.190206255     3.2170   2   5   0.5218   0.5401   1.0145  -0.2808  -0.3595   0.1739   0.00    0.0
2158 455359.000   22.301717683  114.190190419     3.1245   2   5   0.5073   0.5251   0.9861  -0.2729  -0.3493   0.1693   0.00    0.0
2158 455360.000   22.301756001  114.190171702     3.1830   2   5   0.4939   0.5112   0.9601  -0.2657  -0.3398   0.1651   0.00    0.0
2158 455361.000   22.301798502  114.190151556     3.2118   2   5   0.4815   0.4983   0.9360  -0.2590  -0.3311   0.1612   0.00    0.0
2158 455362.000   22.301845203  114.190129007     3.2048   2   5   0.4700   0.4864   0.9136  -0.2528  -0.3230   0.1575   0.00    0.0
2158 455363.000   22.301895727  114.190104193     3.3088   2   5   0.4592   0.4753   0.8927  -0.2470  -0.3154   0.1540   0.00    0.0
2158 455364.000   22.301948579  114.190078117     3.2998   2   5   0.4491   0.4649   0.8732  -0.2415  -0.3084   0.1507   0.00    0.0
2158 455365.000   22.302000966  114.190052018     3.2657   2   6   0.4398   0.4546   0.8571  -0.2361  -0.2991   0.1508   0.00    0.0
2158 455366.000   22.302052176  114.190027299     3.1518   2   5   0.4311   0.4458   0.8420  -0.2308  -0.2913   0.1505   0.00    0.0
2158 455367.000   22.302101324  114.190002083     3.2153   2   5   0.4229   0.4375   0.8277  -0.2258  -0.2840   0.1500   0.00    0.0
2158 455368.000   22.302149421  114.189978077     3.0813   2   4   0.4173   0.4345   0.8186  -0.2197  -0.2868   0.1445   0.00    0.0
2158 455369.000   22.302195310  114.189952141     2.7802   4   3   0.4351   0.5746   1.2720   0.0931  -0.6751  -0.3487   0.00    0.0
2158 455370.000   22.302233211  114.189915684     2.8165   4   2   1.0936   1.9919   2.7948   1.3799  -1.5239  -0.8465   0.00    0.0
2158 455371.000   22.302264736  114.189881398     2.2549   4   2   1.8562   1.6109   4.1536   0.5695  -2.5279  -0.4811   0.00    0.0
2158 455372.000   22.302281475  114.189838457     1.8942   4   3   2.3772   1.9459   4.9921   0.9460  -3.0653  -1.0867   0.00    0.0
2158 455373.000   22.302294279  114.189797640     0.8367   4   3   1.6312   1.9108   5.0076  -0.4963  -3.0458   1.0983   0.00    0.0
2158 455374.000   22.302292593  114.189751549     1.3356   4   3   1.4891   1.8286   4.8306  -0.7926  -2.9236   1.4658   0.00    0.0
2158 455375.000   22.302285837  114.189709878     1.3312   2   4   0.5939   1.4196   3.4807   0.7611  -2.1673  -1.2315   0.00    0.0
2158 455376.000   22.302268471  114.189671721     1.2635   4   3   0.8981   1.5938   4.1289  -0.5005  -2.5135   0.9165   0.00    0.0
2158 455377.000   22.302239886  114.189620080     5.2566   2   4   0.6565   1.5505   3.8848   0.8793  -2.4046  -1.4293   0.00    0.0
2158 455378.000   22.302219151  114.189589688     3.5971   2   5   0.5006   1.1110   2.6431   0.5655  -1.6456  -0.9204   0.00    0.0
2158 455379.000   22.302193757  114.189557801     2.6220   2   5   0.6150   1.0075   2.3747   0.4056  -1.4718  -0.6330   0.00    0.0
2158 455380.000   22.302176025  114.189521376     3.8225   2   5   0.4430   0.9282   2.1301   0.4357  -1.3270  -0.7146   0.00    0.0
2158 455381.000   22.302157314  114.189503929     0.7559   2   4   0.5630   0.8816   2.1406  -0.1382  -1.2893   0.2821   0.00    0.0
2158 455382.000   22.302140765  114.189477846     0.5430   2   5   0.3965   0.7184   1.6235   0.2937  -0.9798  -0.5125   0.00    0.0
2158 455383.000   22.302121672  114.189448982     1.1583   2   5   0.3827   0.6535   1.4695   0.2471  -0.8710  -0.4495   0.00    0.0
2158 455384.000   22.302100981  114.189418176     1.7810   2   5   0.3833   0.6174   1.3926   0.1948  -0.8133  -0.3743   0.00    0.0
2158 455385.000   22.302079743  114.189386190     2.0174   2   5   0.3642   0.5768   1.2824   0.1877  -0.7394  -0.3707   0.00    0.0
2158 455386.000   22.302057729  114.189349267     2.1108   2   4   0.3637   0.5599   1.2143   0.1866  -0.6899  -0.3397   0.00    0.0
2158 455387.000   22.302036385  114.189302916     2.1606   4   2   0.9970   1.4651   1.4917   1.0578  -0.6587   0.5844   0.00    0.0
2158 455388.000   22.302016736  114.189251384     1.1786   4   2   1.3133   1.7416   2.5368   1.0303  -1.2338   1.3705   0.00    0.0
2158 455389.000   22.302002391  114.189192777    -0.0640   4   2   1.6400   2.1939   3.1524   1.2690  -1.5951   1.7608   0.00    0.0
2158 455390.000   22.301998446  114.189139299    -2.0264   4   2   1.6898   2.2537   3.2599   1.2882  -1.6658   1.8295   0.00    0.0
2158 455391.000   22.302023454  114.189083131    -1.6899   4   2   3.3386   2.5822   5.0347   1.5985   1.5422   3.4977   0.00    0.0
2158 455392.000   22.302063824  114.189041270    -0.2022   4   0   3.1942   2.1855   5.3741  -1.1695  -1.2004   3.1911   0.00    0.0
2158 455393.000   22.302100941  114.188982351     0.2274   4   0   3.1805   2.1849   5.5476  -1.2799  -1.4589   3.2187   0.00    0.0
2158 455394.000   22.302122279  114.188930384    -0.0757   4   0   3.2009   2.1883   5.5754  -1.2958  -1.4634   3.2439   0.00    0.0
2158 455395.000   22.302153632  114.188888530     1.3278   4   0   3.2119   2.1880   5.5871  -1.3032  -1.4568   3.2557   0.00    0.0
2158 455396.000   22.302188155  114.188850916     2.0601   4   0   3.2154   2.1885   5.6068  -1.3059  -1.4634   3.2666   0.00    0.0
2158 455397.000   22.302198369  114.188816461     1.5807   4   0   3.2196   2.1890   5.6265  -1.3086  -1.4697   3.2783   0.00    0.0
2158 455398.000   22.302210217  114.188791092     2.5324   4   0   3.2229   2.1892   5.6390  -1.3102  -1.4722   3.2867   0.00    0.0
2158 455399.000   22.302214577  114.188772914     3.5622   4   0   3.2244   2.1894   5.6447  -1.3106  -1.4729   3.2907   0.00    0.0
2158 455400.000   22.302224820  114.188756436     3.8473   4   0   3.2249   2.1895   5.6472  -1.3107  -1.4730   3.2925   0.00    0.0
2158 455401.000   22.302231701  114.188720461    10.2514   4   2   3.1016   2.0964   5.1203  -1.2929  -1.0392   3.0446   0.00    0.0
2158 455402.000   22.302231313  114.188699595    12.7556   2   4   2.4962   1.8531   4.8007  -1.5159  -1.5068   2.7012   0.00    0.0
2158 455403.000   22.302211807  114.188697956     9.7077   2   4   1.9623   1.3937   3.7407  -1.0557  -1.2336   2.1689   0.00    0.0
2158 455404.000   22.302198001  114.188697142     8.7410   2   6   1.7059   1.1797   3.1820  -0.8561  -0.9811   1.8767   0.00    0.0
2158 455405.000   22.302194324  114.188694647     9.0033   2   4   1.5370   1.0313   2.8202  -0.7318  -0.7930   1.6753   0.00    0.0
2158 455406.000   22.302194549  114.188694627     9.0712   2   6   1.4034   0.9245   2.5139  -0.6342  -0.6293   1.5057   0.00    0.0
2158 455407.000   22.302182181  114.188692741     6.2101   2   6   1.2626   0.8482   2.2065  -0.5873  -0.5700   1.3096   0.00    0.0
2158 455408.000   22.302177171  114.188690833     5.1826   2   5   1.1598   0.7913   1.9994  -0.5511  -0.5370   1.1754   0.00    0.0
2158 455409.000   22.302174094  114.188692082     4.1548   2   5   1.0808   0.7483   1.8614  -0.5242  -0.5278   1.0812   0.00    0.0
2158 455410.000   22.302173689  114.188693445     3.7674   2   5   1.0163   0.7117   1.7502  -0.5005  -0.5164   1.0063   0.00    0.0
2158 455411.000   22.302175024  114.188694401     3.8377   2   6   0.9617   0.6798   1.6566  -0.4786  -0.5028   0.9439   0.00    0.0
2158 455412.000   22.302176331  114.188695886     3.9345   2   6   0.9153   0.6520   1.5778  -0.4595  -0.4903   0.8922   0.00    0.0
2158 455413.000   22.302177839  114.188697074     4.1360   2   5   0.8754   0.6276   1.5104  -0.4429  -0.4789   0.8486   0.00    0.0
2158 455414.000   22.302179562  114.188698390     4.4536   2   5   0.8402   0.6058   1.4509  -0.4277  -0.4676   0.8105   0.00    0.0
2158 455415.000   22.302181925  114.188699656     4.9251   2   5   0.8088   0.5861   1.3981  -0.4139  -0.4568   0.7771   0.00    0.0
2158 455416.000   22.302183930  114.188700974     5.3163   2   6   0.7799   0.5678   1.3493  -0.4003  -0.4450   0.7459   0.00    0.0
2158 455417.000   22.302186457  114.188702096     5.8428   2   6   0.7540   0.5512   1.3061  -0.3881  -0.4345   0.7186   0.00    0.0
2158 455418.000   22.302189089  114.188703296     6.4375   2   5   0.7311   0.5363   1.2680  -0.3777  -0.4259   0.6951   0.00    0.0
2158 455419.000   22.302191882  114.188704384     7.0298   2   6   0.7092   0.5221   1.2311  -0.3670  -0.4157   0.6719   0.00    0.0
2158 455420.000   22.302194422  114.188705470     7.6283   2   6   0.6892   0.5090   1.1979  -0.3572  -0.4067   0.6512   0.00    0.0
2158 455421.000   22.302197585  114.188706523     8.3696   2   5   0.6714   0.4972   1.1686  -0.3490  -0.3995   0.6335   0.00    0.0
2158 455422.000   22.302200541  114.188707629     9.0575   2   6   0.6539   0.4857   1.1391  -0.3400  -0.3906   0.6150   0.00    0.0
2158 455423.000   22.302200065  114.188708121     8.8757   2   6   0.6415   0.4751   1.1230  -0.3311  -0.3811   0.6073   0.00    0.0
2158 455424.000   22.302199485  114.188708547     8.6958   2   5   0.6305   0.4655   1.1090  -0.3237  -0.3737   0.6013   0.00    0.0
2158 455425.000   22.302198927  114.188709124     8.4916   2   6   0.6189   0.4560   1.0930  -0.3153  -0.3644   0.5929   0.00    0.0
2158 455426.000   22.302198366  114.188709516     8.3156   2   6   0.6080   0.4470   1.0784  -0.3076  -0.3561   0.5854   0.00    0.0
2158 455427.000   22.302197626  114.188709969     8.1319   2   6   0.5977   0.4385   1.0643  -0.3004  -0.3482   0.5781   0.00    0.0
2158 455428.000   22.302197087  114.188710193     7.9575   2   6   0.5877   0.4305   1.0507  -0.2935  -0.3407   0.5710   0.00    0.0
2158 455429.000   22.302196932  114.188710240     7.8928   2   5   0.5791   0.4234   1.0394  -0.2881  -0.3353   0.5657   0.00    0.0
2158 455430.000   22.302196614  114.188710374     7.7824   2   5   0.5705   0.4165   1.0275  -0.2827  -0.3295   0.5598   0.00    0.0
2158 455431.000   22.302196287  114.188710391     7.6951   2   5   0.5622   0.4099   1.0159  -0.2775  -0.3240   0.5539   0.00    0.0
2158 455432.000   22.302195892  114.188710483     7.5977   2   5   0.5542   0.4037   1.0047  -0.2726  -0.3186   0.5481   0.00    0.0
2158 455433.000   22.302195600  114.188710473     7.5165   2   5   0.5465   0.3977   0.9938  -0.2678  -0.3135   0.5425   0.00    0.0
2158 455434.000   22.302195140  114.188710505     7.4540   2   5   0.5390   0.3920   0.9831  -0.2633  -0.3086   0.5368   0.00    0.0
2158 455435.000   22.302195021  114.188710461     7.3960   2   5   0.5317   0.3865   0.9728  -0.2589  -0.3038   0.5313   0.00    0.0
2158 455436.000   22.302194830  114.188710359     7.3562   2   5   0.5247   0.3812   0.9627  -0.2547  -0.2992   0.5258   0.00    0.0
2158 455437.000   22.302194800  114.188710399     7.3495   2   5   0.5178   0.3762   0.9529  -0.2507  -0.2947   0.5205   0.00    0.0
2158 455438.000   22.302194656  114.188710329     7.3303   2   5   0.5111   0.3713   0.9433  -0.2467  -0.2904   0.5151   0.00    0.0
2158 455439.000   22.302194513  114.188710364     7.2785   2   5   0.5046   0.3666   0.9339  -0.2429  -0.2862   0.5099   0.00    0.0
2158 455440.000   22.302194584  114.188710329     7.2687   2   5   0.4983   0.3621   0.9248  -0.2393  -0.2822   0.5047   0.00    0.0
2158 455441.000   22.302194219  114.188710359     7.2304   2   5   0.4921   0.3577   0.9159  -0.2357  -0.2783   0.4996   0.00    0.0
2158 455442.000   22.302193162  114.188710200     7.2234   2   5   0.4861   0.3535   0.9071  -0.2323  -0.2744   0.4946   0.00    0.0
2158 455443.000   22.302183110  114.188708202     7.2516   2   5   0.4802   0.3495   0.8986  -0.2290  -0.2707   0.4896   0.00    0.0
2158 455444.000   22.302158693  114.188699877     7.3005   2   5   0.4745   0.3455   0.8902  -0.2257  -0.2671   0.4846   0.00    0.0
2158 455445.000   22.302120716  114.188683610     7.3521   2   5   0.4689   0.3417   0.8820  -0.2226  -0.2636   0.4798   0.00    0.0
2158 455446.000   22.302072320  114.188657925     7.3343   2   4   0.4638   0.3385   0.8740  -0.2203  -0.2604   0.4751   0.00    0.0
2158 455447.000   22.302018606  114.188626530     8.4114   4   3   0.5518   0.4623   1.2623   0.2248   0.4783   0.7091   0.00    0.0
2158 455448.000   22.301969601  114.188606990    12.5959   4   2   0.8772   1.6799   2.5220   0.4021   0.1849   1.4066   0.00    0.0
2158 455449.000   22.301930541  114.188568913    19.5162   4   2   1.1599   1.9436   3.5857  -0.4818  -1.1937   1.9782   0.00    0.0
2158 455450.000   22.301889538  114.188511287    24.9351   4   3   1.2471   1.9512   3.8929  -0.5663  -1.3106   2.1476   0.00    0.0
2158 455451.000   22.301829531  114.188468465    22.2251   4   3   1.0348   1.0370   2.9127   0.9372   1.6405   1.6786   0.00    0.0
2158 455452.000   22.301786066  114.188378135    24.7924   4   2   1.1455   1.9224   3.5274  -0.2604  -0.9511   1.9512   0.00    0.0
2158 455453.000   22.301746429  114.188295180    23.7237   4   0   2.3120   2.1350   4.1829  -1.2128  -1.6657   2.2094   0.00    0.0
2158 455454.000   22.301677612  114.188227450    17.7815   4   2   1.3579   2.0876   4.3392  -0.8144  -1.7196   2.3787   0.00    0.0
2158 455455.000   22.301611853  114.188162293    10.8971   4   0   2.6327   2.4915   4.4227  -0.8707  -1.3310   2.4062   0.00    0.0
2158 455456.000   22.301508329  114.188137816     7.1621   4   2   2.7979   2.4339   3.9816  -1.1722  -1.7178   2.0922   0.00    0.0
2158 455457.000   22.301345292  114.188131543     4.2629   4   2   2.6946   2.1555   3.9034  -1.4627  -1.8149   2.0083   0.00    0.0
2158 455458.000   22.301334543  114.188023035     3.0698   4   0   3.1963   2.3951   4.2558  -1.9221  -1.5768   2.0734   0.00    0.0
2158 455459.000   22.301309350  114.187922472     1.9508   4   3   3.1696   2.3018   4.3379  -1.8478  -1.6164   2.0951   0.00    0.0
2158 455460.000   22.301298545  114.187874564     1.9613   4   2   2.2450   2.0125   4.3385  -0.8643  -1.2806   1.7258   0.00    0.0
2158 455461.000   22.301296245  114.187833815     3.5140   4   0   2.2934   2.0120   4.2512  -0.8975  -1.3786   1.8358   0.00    0.0
2158 455462.000   22.301352495  114.187771351     5.4789   4   2   2.9945   1.6521   4.1436  -1.3248  -2.1321   2.3763   0.00    0.0
2158 455463.000   22.301382034  114.187748179     7.1702   4   2   3.0418   1.5691   4.1576  -1.3265  -2.1516   2.4474   0.00    0.0
2158 455464.000   22.301384175  114.187736121     7.3835   4   3   3.1170   2.1321   4.2267  -1.7316  -1.8818   2.3412   0.00    0.0
2158 455465.000   22.301385682  114.187718469     7.2147   4   3   2.6263   2.4031   4.2247  -1.8666  -1.6348   2.5479   0.00    0.0
2158 455466.000   22.301386483  114.187715685     8.0253   4   2   2.8737   2.3822   4.1798  -1.9135  -1.6871   2.3962   0.00    0.0
2158 455467.000   22.301403808  114.187708405     7.2042   4   2   3.1988   2.4130   4.3212  -2.0026  -1.5920   2.0867   0.00    0.0
2158 455468.000   22.301388616  114.187710629     4.1376   4   2   2.8214   2.3488   4.3627  -2.2204  -1.6248   1.9226   0.00    0.0
2158 455469.000   22.301382408  114.187713605     2.3176   2   4   2.5898   2.2363   4.2238  -2.1420  -1.4866   1.6777   0.00    0.0
2158 455470.000   22.301379355  114.187716975     2.9035   4   3   2.3272   2.0933   3.8312  -1.9719  -2.1633   2.2371   0.00    0.0
2158 455471.000   22.301377102  114.187718454     2.5202   4   2   2.4041   2.2511   3.6740  -2.1407  -2.0797   2.1209   0.00    0.0
2158 455472.000   22.301371114  114.187723277     1.2634   4   3   2.2299   2.1185   3.3814  -2.0026  -2.2512   2.2765   0.00    0.0
2158 455473.000   22.301375560  114.187716209     1.6448   4   2   2.3885   2.2868   3.6093  -2.1992  -1.9277   1.9213   0.00    0.0
2158 455474.000   22.301371686  114.187714615     4.0967   4   2   2.4377   2.3369   4.0908  -2.2669  -1.6258   1.5600   0.00    0.0
2158 455475.000   22.301361294  114.187717610     5.7559   4   2   2.4180   2.3307   4.2637  -2.2654  -1.6511   1.5602   0.00    0.0
2158 455476.000   22.301362959  114.187699457     7.5047   4   2   2.8965   2.2858   4.2627  -1.9103  -1.3924   1.7449   0.00    0.0
2158 455477.000   22.301355712  114.187680888    10.5345   4   2   2.7049   1.6189   3.9254  -0.9207   0.5226   1.5751   0.00    0.0
2158 455478.000   22.301400388  114.187674433     8.6092   4   2   2.7412   1.9625   3.9595  -1.2983  -0.1182   1.4629   0.00    0.0
2158 455479.000   22.301435193  114.187693352    10.3337   4   0   3.2052   2.3981   4.2322  -1.9357  -1.4174   1.9419   0.00    0.0
2158 455480.000   22.301414669  114.187730088    12.0491   4   2   3.2391   2.3351   4.3400  -1.9159  -1.6586   2.1519   0.00    0.0
2158 455481.000   22.301394043  114.187762312    11.4521   4   3   3.0797   1.7855   4.2804  -1.5109  -1.9391   2.2545   0.00    0.0
2158 455482.000   22.301421104  114.187797004     9.5453   4   3   2.2616   1.8480   4.1865  -0.7971  -1.6102   1.8158   0.00    0.0
2158 455483.000   22.301454288  114.187850533     7.8184   4   3   2.0505   1.8649   3.8391   0.8011   1.8081   1.9304   0.00    0.0
2158 455484.000   22.301470710  114.187893967     6.0838   4   3   1.7106   1.4837   3.4147  -0.2494   1.4389   1.5645   0.00    0.0
2158 455485.000   22.301504081  114.187958505     7.8624   4   3   1.5633   1.4116   3.2681  -0.1636   1.4507   1.5100   0.00    0.0
2158 455486.000   22.301538203  114.188022312     9.1290   4   3   1.4753   1.3762   3.1983   0.2777   1.4851   1.5133   0.00    0.0
2158 455487.000   22.301570782  114.188080007    11.6380   4   3   1.4137   1.3483   3.1099   0.4165   1.5135   1.5213   0.00    0.0
2158 455488.000   22.301593158  114.188127401    11.9434   4   2   1.4286   1.6095   3.3900   0.7982   1.0105   1.3094   0.00    0.0
2158 455489.000   22.301614438  114.188163840     8.1718   4   0   2.4211   2.5212   3.9182  -0.7070   1.0278   1.6764   0.00    0.0
2158 455490.000   22.301660365  114.188192827     5.7053   4   0   3.1859   2.9495   4.1472  -1.8159   0.8045   2.0907   0.00    0.0
2158 455491.000   22.301727638  114.188300952    16.1031   4   2   1.3171   2.0195   3.5054   1.1190   0.2735   0.7249   0.00    0.0
2158 455492.000   22.301784345  114.188287703    16.2592   4   2   2.3172   2.8067   3.4128  -1.5816   0.7357  -0.4625   0.00    0.0
2158 455493.000   22.301763740  114.188313381    13.8364   4   3   1.2348   1.9202   3.3323   1.1135   0.6133   0.6935   0.00    0.0
2158 455494.000   22.301772123  114.188351017    17.5080   2   4   1.0152   1.3457   3.0750   0.6485   0.8327   0.9726   0.00    0.0
2158 455495.000   22.301768417  114.188341159    12.8887   4   3   1.0409   1.2034   2.9444   0.5880   0.9623   1.1461   0.00    0.0
2158 455496.000   22.301757645  114.188321750     8.7578   4   3   1.0506   1.1387   2.8210   0.6064   1.0338   1.2075   0.00    0.0
2158 455497.000   22.301774000  114.188296451     8.3036   4   3   1.7874   1.7462   2.7187  -1.2539   1.0700   1.2489   0.00    0.0
2158 455498.000   22.301768728  114.188304324     9.2826   4   3   1.2661   1.2706   2.6518  -0.2926   1.1336   1.2428   0.00    0.0
2158 455499.000   22.301769952  114.188296719     8.9411   2   4   1.1824   1.1730   2.5782   0.2392   1.1323   1.2316   0.00    0.0
2158 455500.000   22.301756344  114.188289071     5.6901   2   4   0.9445   1.1886   2.8282   0.7355   1.4701   1.2775   0.00    0.0
2158 455501.000   22.301761755  114.188293867     7.2247   2   4   0.7565   0.8976   2.0247   0.3649   0.8560   0.7667   0.00    0.0
2158 455502.000   22.301763942  114.188294085     7.5344   2   5   0.6913   0.8129   1.7657   0.2178   0.6728   0.5874   0.00    0.0
2158 455503.000   22.301766647  114.188297007     8.5588   2   4   0.6563   0.7523   1.6019   0.0828   0.5477   0.4900   0.00    0.0
2158 455504.000   22.301768940  114.188298884     9.3190   2   4   0.6312   0.7110   1.4931  -0.1161   0.4715   0.4305   0.00    0.0
2158 455505.000   22.301770068  114.188299617     9.6768   2   4   0.6099   0.6776   1.4061  -0.1641   0.4127   0.3835   0.00    0.0
2158 455506.000   22.301771478  114.188299902    10.0220   4   3   0.6915   0.7425   1.7096   0.3047   0.7200   0.7089   0.00    0.0
2158 455507.000   22.301776457  114.188304944    11.5557   4   3   0.8609   0.8961   2.2918   0.6072   1.1532   1.1488   0.00    0.0
2158 455508.000   22.301779554  114.188309108    12.3781   4   3   0.9847   1.0273   2.7453   0.7906   1.4594   1.4397   0.00    0.0
2158 455509.000   22.301776478  114.188305123    11.0602   4   3   1.0032   1.0509   2.8326   0.8261   1.5234   1.4951   0.00    0.0
2158 455510.000   22.301774406  114.188302155    10.0806   4   3   0.9999   1.0510   2.8391   0.8323   1.5361   1.5021   0.00    0.0
2158 455511.000   22.301770568  114.188296575     8.4980   4   3   0.9989   1.0521   2.8467   0.8400   1.5491   1.5110   0.00    0.0
2158 455512.000   22.301768131  114.188292479     7.3802   4   3   0.9987   1.0528   2.8534   0.8473   1.5605   1.5199   0.00    0.0
2158 455513.000   22.301770172  114.188293894     7.8206   4   3   0.9971   1.0511   2.8534   0.8518   1.5666   1.5246   0.00    0.0
2158 455514.000   22.301772443  114.188295885     8.4166   4   3   0.9944   1.0480   2.8498   0.8544   1.5696   1.5269   0.00    0.0
2158 455515.000   22.301772907  114.188295703     8.3925   4   3   0.9917   1.0450   2.8464   0.8566   1.5721   1.5287   0.00    0.0
2158 455516.000   22.301774433  114.188296887     8.7457   4   3   0.9891   1.0423   2.8439   0.8587   1.5748   1.5305   0.00    0.0
2158 455517.000   22.301776772  114.188299047     9.4073   2   4   0.5063   0.5393   1.1476  -0.1088   0.4206   0.3828   0.00    0.0
2158 455518.000   22.301775911  114.188297836     8.9565   2   4   0.4946   0.5343   1.1164  -0.1118   0.4165   0.3620   0.00    0.0
2158 455519.000   22.301774427  114.188295994     8.3184   4   3   0.6069   0.6529   1.5661   0.3565   0.7752   0.7282   0.00    0.0
2158 455520.000   22.301776221  114.188297982     8.8464   2   4   0.4735   0.5098   1.0516  -0.1434   0.3765   0.3198   0.00    0.0
2158 455521.000   22.301775732  114.188297205     8.5389   2   4   0.4661   0.5007   1.0313  -0.1473   0.3670   0.3105   0.00    0.0
2158 455522.000   22.301776115  114.188297574     8.5944   2   4   0.4585   0.4920   1.0101  -0.1518   0.3567   0.2994   0.00    0.0
2158 455523.000   22.301777113  114.188298960     8.8197   2   4   0.4513   0.4837   0.9902  -0.1555   0.3470   0.2891   0.00    0.0
2158 455524.000   22.301779181  114.188301132     8.6960   2   4   0.4445   0.4758   0.9694  -0.1586   0.3396   0.2809   0.00    0.0
2158 455525.000   22.301786315  114.188309033     8.6407   2   4   0.4381   0.4684   0.9503  -0.1609   0.3331   0.2737   0.00    0.0
2158 455526.000   22.301800484  114.188332854     9.8989   2   4   0.5835   0.6154   1.5102   0.3694   0.7703   0.7376   0.00    0.0
2158 455527.000   22.301828342  114.188370559    13.3860   4   3   0.8511   0.8899   2.4140   0.7365   1.3472   1.3132   0.00    0.0
2158 455528.000   22.301860577  114.188408605    15.6288   4   3   0.9376   0.9774   2.6956   0.8419   1.5200   1.4863   0.00    0.0
2158 455529.000   22.301888788  114.188432734    13.2008   4   3   0.9420   0.9820   2.7159   0.8510   1.5337   1.5004   0.00    0.0
2158 455530.000   22.301918593  114.188449327     8.4400   4   3   0.9397   0.9822   2.7190   0.8534   1.5378   1.5028   0.00    0.0
2158 455531.000   22.301964694  114.188476146     6.8459   4   3   0.9412   0.9873   2.7352   0.8604   1.5502   1.5123   0.00    0.0
2158 455532.000   22.302027453  114.188502244     4.0808   4   2   1.9683   1.2506   3.4919   1.3302   1.9007   1.6521   0.00    0.0
2158 455533.000   22.302068640  114.188523627     4.1882   4   3   1.2567   1.2763   3.6848   1.1932   2.1012   2.0881   0.00    0.0
2158 455534.000   22.302140959  114.188550040     3.8330   4   2   2.1348   1.3314   3.8088   1.4340   2.0518   1.7495   0.00    0.0
2158 455535.000   22.302196324  114.188559629     0.3728   4   2   2.2569   1.3298   3.8669   1.4463   2.0388   1.5879   0.00    0.0
2158 455536.000   22.302252208  114.188559746    -1.0063   4   2   2.6724   1.8249   4.2855   0.4592   1.2737   2.2867   0.00    0.0
2158 455537.000   22.302292209  114.188574770    -0.5131   4   2   3.1139   1.4231   5.2214  -1.1233  -1.6371   3.1013   0.00    0.0
2158 455538.000   22.302351962  114.188585387     3.4212   4   0   3.1976   2.0140   5.4126  -1.4045  -1.8871   3.2503   0.00    0.0
2158 455539.000   22.302396227  114.188601928     7.2490   4   2   3.2011   2.1757   5.5703  -1.2939  -1.4738   3.2902   0.00    0.0
2158 455540.000   22.302419127  114.188609335     9.1929   4   0   3.2132   2.1842   5.6754  -1.2531  -1.3497   3.3348   0.00    0.0
2158 455541.000   22.302437451  114.188612089     9.8850   4   0   3.2299   2.1967   5.7397  -1.2769  -1.4033   3.3765   0.00    0.0
2158 455542.000   22.302437750  114.188597367     6.7954   4   0   3.2398   2.2018   5.7769  -1.2890  -1.4284   3.4010   0.00    0.0
2158 455543.000   22.302419417  114.188586346     2.2677   4   0   3.2433   2.2018   5.7947  -1.2890  -1.4284   3.4111   0.00    0.0
2158 455544.000   22.302419548  114.188586836     0.2717   4   0   3.2442   2.2020   5.8016  -1.2887  -1.4277   3.4149   0.00    0.0
2158 455545.000   22.302431474  114.188595999     1.1573   4   0   3.2448   2.2023   5.8046  -1.2892  -1.4290   3.4169   0.00    0.0
2158 455546.000   22.302426023  114.188589769     0.2782   4   0   3.2454   2.2025   5.8070  -1.2895  -1.4297   3.4186   0.00    0.0
2158 455547.000   22.302430080  114.188583484     0.0574   4   0   3.5591   2.4380   5.8506  -1.7857  -1.1497   3.2696   0.00    0.0
2158 455548.000   22.302437246  114.188582467     0.5075   4   0   3.2588   2.2140   5.8209  -1.3138  -1.4046   3.4089   0.00    0.0
2158 455549.000   22.302426012  114.188588484     0.9574   4   0   3.2484   2.2034   5.8158  -1.2915  -1.4318   3.4256   0.00    0.0
2158 455550.000   22.302435589  114.188586429     1.7927   4   0   3.2495   2.2042   5.8161  -1.2930  -1.4297   3.4250   0.00    0.0
2158 455551.000   22.302437668  114.188585421     3.2589   4   0   3.2473   2.2031   5.8175  -1.2894  -1.4286   3.4255   0.00    0.0
2158 455552.000   22.302440335  114.188586227     5.6044   4   0   3.2473   2.2031   5.8189  -1.2890  -1.4288   3.4268   0.00    0.0
2158 455553.000   22.302435911  114.188588523     5.9160   4   0   3.2476   2.2033   5.8200  -1.2890  -1.4286   3.4278   0.00    0.0
2158 455554.000   22.302443591  114.188594856     7.1338   4   0   3.2476   2.2033   5.8210  -1.2886  -1.4280   3.4285   0.00    0.0
2158 455555.000   22.302448521  114.188597464     5.5660   4   0   3.5605   2.4385   5.8625  -1.7846  -1.1490   3.2797   0.00    0.0
2158 455558.000   22.302410812  114.188540943   -11.2778   4   0   3.9858   2.6303   7.0087  -2.0359  -1.2985   3.8871   0.00    0.0
2158 455559.000   22.302426105  114.188574128    -6.9750   4   0   3.6521   2.4982   6.0478  -1.8576  -1.1120   3.3462   0.00    0.0
2158 455563.000   22.302085915  114.188835725    22.8966   4   0   4.3285   2.5792   7.1885  -2.1714  -1.1373   3.6884   0.00    0.0
2158 455571.000   22.302684248  114.188615177    12.9472   4   3   2.1486   2.2210   4.1460  -1.2100  -1.4610   0.9912   0.00    0.0
2158 455572.000   22.302734214  114.188546374     0.4590   4   2   2.1423   2.2186   4.2280  -1.0998  -0.9962   1.1784   0.00    0.0
2158 455573.000   22.302774486  114.188499406    -4.0194   4   0   2.1822   2.2662   4.3437  -1.0426  -1.0041   1.2413   0.00    0.0
2158 455574.000   22.302847640  114.188451431    -6.1183   4   2   2.1225   2.2448   4.3545  -1.0235  -1.0378   1.3248   0.00    0.0
2158 455575.000   22.302895759  114.188406971    -5.0289   2   4   1.6464   2.6840   4.0955  -0.2104  -0.7927   1.8318   0.00    0.0
2158 455576.000   22.302954462  114.188349596    -2.7156   4   2   1.6849   4.1033   4.5596   1.8858  -2.5289   0.8895   0.00    0.0
2158 455577.000   22.303004017  114.188273280     0.2184   4   2   1.9272   4.5639   4.9436   2.4864  -3.2531  -1.3185   0.00    0.0
2158 455578.000   22.303069305  114.188168106     5.1134   4   0   2.1116   5.3395   5.0842   1.9995  -3.7465  -1.0021   0.00    0.0
2158 455579.000   22.303159057  114.188198545     1.5066   4   0   2.1024   3.6423   4.9169  -0.8218  -3.0473   1.0335   0.00    0.0
2158 455580.000   22.303191268  114.188140623    -1.2738   4   3   2.0625   3.5084   4.8242  -0.7473  -2.9856   1.1569   0.00    0.0
2158 455581.000   22.303303207  114.187942441    31.4153   4   3   2.0321   3.0165   3.9108   1.1105  -2.2190   1.6604   0.00    0.0
2158 455582.000   22.303374799  114.187831659    48.5680   2   4   1.9660   2.8216   4.3421   1.1879  -2.2207   1.8416   0.00    0.0
2158 455583.000   22.303415736  114.187714907    54.5681   4   2   1.9627   2.8750   5.3031   1.3213  -2.4107   1.9686   0.00    0.0
2158 455584.000   22.303501598  114.187602367    52.9823   4   0   2.6944   3.3799   6.7751  -1.2011  -3.4509   3.0767   0.00    0.0
2158 455585.000   22.303540126  114.187582155    32.5560   4   2   1.8897   2.9091   6.4283   1.3764  -2.7151   1.9781   0.00    0.0
2158 455586.000   22.303612282  114.187543880    20.9583   4   0   2.8851   3.5487   7.3340  -1.5926  -3.8196   3.4186   0.00    0.0
2158 455592.000   22.303949848  114.186824749    45.3354   4   0   5.7958   3.6657  11.2057   3.2619   4.6551   7.5215   0.00    0.0
2158 455593.000   22.304068453  114.186700944    84.8187   4   2   3.7075   2.5231   6.5798  -1.8058  -0.9617   3.5823   0.00    0.0
2158 455594.000   22.304116715  114.186508547    89.0078   4   0   4.9282   3.3683   9.3012   2.6102   3.7222   6.1518   0.00    0.0
2158 455595.000   22.304265470  114.186451496   107.0479   4   0   3.5671   2.2845   6.9055  -1.3605  -1.5466   4.0860   0.00    0.0
2158 455596.000   22.304232366  114.186589467    65.5778   4   0   4.0630   4.2693  10.4104  -3.0999  -5.6180   5.7016   0.00    0.0
2158 455597.000   22.304110589  114.186733640     8.7091   4   2   4.3132   4.9762  12.0125  -3.6881  -6.8716   6.4582   0.00    0.0
2158 455598.000   22.304095578  114.186748496   -14.7651   4   2   4.4419   5.0619  12.3639  -3.8758  -7.1660   6.6964   0.00    0.0
2158 455599.000   22.304087714  114.186710964   -15.4999   4   2   4.3646   4.4070  12.1227  -3.6428  -6.8945   6.5531   0.00    0.0
2158 455600.000   22.304104245  114.186725244   -20.6685   4   2   4.2968   4.4901  11.8279  -3.5828  -6.7344   6.3921   0.00    0.0
2158 455601.000   22.304148973  114.186702959   -21.2321   4   2   4.1827   4.9005  11.6151  -3.6293  -6.7087   6.2824   0.00    0.0
2158 455602.000   22.304183780  114.186655351   -15.0843   4   3   4.1149   3.9120  11.4417  -3.3715  -6.4364   6.1673   0.00    0.0
2158 455603.000   22.304223604  114.186614083    -7.2386   2   4   3.9424   4.3890  10.9883  -3.2654  -6.2157   5.8983   0.00    0.0
2158 455604.000   22.304263197  114.186570214    -0.6522   4   3   3.6137   3.7063  11.1597  -3.3068  -6.2370   5.9910   0.00    0.0
2158 455605.000   22.304304024  114.186540654     3.7162   4   2   3.8653   4.5015  11.2735  -3.4202  -6.4133   6.0598   0.00    0.0
2158 455606.000   22.304335724  114.186496909    10.5148   4   3   3.6426   4.5034  11.3181  -3.0633  -6.4436   6.0120   0.00    0.0
2158 455607.000   22.304363937  114.186450427    17.3514   2   4   3.3948   3.9582  11.0303  -3.2200  -6.2451   5.8682   0.00    0.0
2158 455608.000   22.304350422  114.186459231     6.7730   2   4   2.3101   2.7166   6.8950  -2.0267  -3.9432   3.7004   0.00    0.0
2158 455609.000   22.304365684  114.186433953     8.0020   2   4   2.0218   2.3762   5.8989  -1.7466  -3.3821   3.1746   0.00    0.0
2158 455610.000   22.304379510  114.186411339     9.8106   2   4   1.8860   2.2104   5.5035  -1.6422  -3.1578   2.9642   0.00    0.0
2158 455611.000   22.304382276  114.186378177    11.4332   2   4   1.9938   2.6565   5.1780  -0.9516  -3.0045   2.7711   0.00    0.0
2158 455612.000   22.304392577  114.186366505    12.9106   2   4   1.7334   2.1108   4.9034  -1.3615  -2.8245   2.6391   0.00    0.0
2158 455613.000   22.304398119  114.186352291    14.0251   2   4   1.6359   1.9663   4.6687  -1.3354  -2.6877   2.5153   0.00    0.0
2158 455614.000   22.304402801  114.186343020    14.8562   2   4   1.5593   1.8634   4.4648  -1.2929  -2.5699   2.4068   0.00    0.0
2158 455615.000   22.304405078  114.186337596    15.4273   2   4   1.4931   1.7760   4.2854  -1.2523  -2.4662   2.3113   0.00    0.0
2158 455616.000   22.304405363  114.186333095    16.0904   2   4   1.4350   1.7005   4.1260  -1.2142  -2.3740   2.2262   0.00    0.0
2158 455617.000   22.304404711  114.186329226    16.7246   2   4   1.3834   1.6341   3.9831  -1.1787  -2.2914   2.1499   0.00    0.0
2158 455618.000   22.304404295  114.186323188    17.7772   2   4   1.3371   1.5752   3.8541  -1.1456  -2.2167   2.0808   0.00    0.0
2158 455619.000   22.304404572  114.186317887    18.7644   4   3   1.3226   1.5493   3.8568  -1.1490  -2.2119   2.0804   0.00    0.0
2158 455620.000   22.304404077  114.186312563    19.5927   2   5   1.2570   1.4727   3.6289  -1.0870  -2.0855   1.9610   0.00    0.0
2158 455621.000   22.304404530  114.186307626    20.5792   2   4   1.2764   1.4831   3.7666  -1.1268  -2.1528   2.0308   0.00    0.0
2158 455622.000   22.304407605  114.186301569    22.1818   2   4   1.5691   1.7717   5.0131  -1.4817  -2.8129   2.6808   0.00    0.0
2158 455623.000   22.304406177  114.186302809    21.6054   2   5   1.1604   1.3522   3.3551  -1.0121  -1.9267   1.8143   0.00    0.0
2158 455624.000   22.304408525  114.186300531    21.9559   2   4   1.1328   1.3184   3.2765  -0.9899  -1.8812   1.7720   0.00    0.0
2158 455625.000   22.304412141  114.186298104    21.9778   4   3   1.1432   1.3226   3.3604  -1.0130  -1.9212   1.8142   0.00    0.0
2158 455626.000   22.304417570  114.186295130    21.6211   4   3   1.3856   1.5619   4.3961  -1.3047  -2.4681   2.3535   0.00    0.0
2158 455627.000   22.304422623  114.186291822    21.5622   2   4   1.0607   1.2304   3.0709  -0.9312  -1.7621   1.6613   0.00    0.0
2158 455628.000   22.304424892  114.186292469    21.2847   2   5   1.0387   1.2044   3.0090  -0.9132  -1.7264   1.6276   0.00    0.0
2158 455629.000   22.304427784  114.186292502    20.9413   2   5   1.0184   1.1799   2.9508  -0.8962  -1.6926   1.5961   0.00    0.0
2158 455630.000   22.304434925  114.186287459    20.7198   2   4   0.9997   1.1570   2.8965  -0.8803  -1.6610   1.5669   0.00    0.0
2158 455631.000   22.304449211  114.186274093    20.3738   4   3   1.0193   1.1723   3.0080  -0.9102  -1.7164   1.6237   0.00    0.0
2158 455632.000   22.304471002  114.186252517    20.0651   2   4   0.9651   1.1150   2.7971  -0.8511  -1.6033   1.5134   0.00    0.0
2158 455633.000   22.304498859  114.186223967    19.7176   4   3   1.0207   1.1664   3.0592  -0.9228  -1.7380   1.6487   0.00    0.0
2158 455634.000   22.304543882  114.186209519    19.4311   4   3   1.3855   2.1314   2.7080   1.0965  -1.5916   1.4405   0.00    0.0
2158 455635.000   22.304601833  114.186208289    18.8895   4   2   1.9938   3.3188   3.0210   2.1335  -1.8710   1.5213   0.00    0.0
2158 455636.000   22.304647822  114.186176299    18.7645   4   3   2.0134   3.4537   2.6447   2.2976  -1.7697   1.2451   0.00    0.0
2158 455637.000   22.304668398  114.186100889    18.7038   4   3   2.0133   3.4600   2.6112   2.3105  -1.7524   1.2224   0.00    0.0
2158 455638.000   22.304644270  114.185944592    19.0713   4   3   2.7148   4.6920   2.5664   3.3405  -1.5911   1.3033   0.00    0.0
2158 455639.000   22.304699063  114.185947014    18.8162   4   3   2.9089   5.0151   2.5290   3.6132  -1.4397   1.3672   0.00    0.0
2158 455640.000   22.304756304  114.185955850    18.4290   2   4   2.7691   4.7541   2.4966   3.4166  -1.3763   1.3749   0.00    0.0
2158 455641.000   22.304794649  114.185930008    17.9539   4   2   2.8963   4.9971   2.6617   3.6080  -1.2829   1.4070   0.00    0.0
2158 455642.000   22.304809256  114.185857829    17.7881   4   2   2.9712   5.1266   3.7706   3.7161   0.8022   1.8358   0.00    0.0
2158 455643.000   22.304720996  114.185592859    18.7441   4   2   3.0750   5.2845   5.3543   3.8545   2.3438   2.5257   0.00    0.0
2158 455644.000   22.304651823  114.185384602    19.1089   4   2   3.1437   5.3883   6.1824   3.9467   2.9697   2.9018   0.00    0.0
2158 455645.000   22.304653516  114.185336190    24.9725   4   2   3.1619   5.4173   6.3788   3.9745   3.1246   2.9923   0.00    0.0
2158 455646.000   22.304784371  114.185548504    39.1698   4   2   3.1611   5.4186   6.3829   3.9783   3.1418   2.9923   0.00    0.0
2158 455652.000   22.305043179  114.185859671   101.7648   4   0   4.7349   5.3869  13.3397  -4.0851  -7.5765   7.1976   0.00    0.0
2158 455653.000   22.305126471  114.185905712   113.4964   4   0   4.1395   4.7045  11.1158  -3.3541  -6.2556   5.9577   0.00    0.0
2158 455654.000   22.305183691  114.186021900    99.3385   4   0   4.3333   4.9255  11.8702  -3.6027  -6.7039   6.3800   0.00    0.0
2158 455657.000   22.305291379  114.186394690    30.1381   4   0   4.1715   3.6527   7.9017  -2.6696  -3.4445   4.5196   0.00    0.0
2158 455661.000   22.305476905  114.186190048    86.7583   4   2   4.6029   5.1406  13.0037  -3.8141  -7.0228   6.4981   0.00    0.0
2158 455662.000   22.305485555  114.186157313    83.0354   4   2   3.6161   4.2819  10.8235  -2.6832  -5.6093   5.0798   0.00    0.0
2158 455663.000   22.305498227  114.186117632    88.7972   4   2   3.1459   3.9156  10.3184  -1.9763  -4.9663   4.2579   0.00    0.0
2158 455697.000   22.306068780  114.184935183    93.1891   4   2   4.7341   6.2100  13.8362  -3.2060  -8.3066   6.4385   0.00    0.0
2158 455700.000   22.306272987  114.185068367    83.6763   4   2   4.9654   6.6685  12.0804   3.2568  -2.7732   6.7336   0.00    0.0
2158 455701.000   22.306295712  114.185036478    78.8334   4   2   4.4602   6.1789  10.7000   3.4129  -1.4853   5.8463   0.00    0.0
2158 455702.000   22.306344875  114.185062443    79.8619   4   2   4.1743   6.0243   9.9095   3.5710   1.3683   5.3330   0.00    0.0
2158 455703.000   22.306338820  114.185001988    73.6457   4   2   2.6307   3.4704   8.3532  -0.9604  -3.8698   3.5631   0.00    0.0
2158 455704.000   22.306306502  114.184896922    74.4042   4   2   2.7106   4.2363   8.3757   1.6564  -4.6288   2.5166   0.00    0.0
2158 455705.000   22.306324351  114.184915852    70.4793   4   2   3.2833   5.1605   7.8293   3.0814  -1.8483   3.6758   0.00    0.0
2158 455706.000   22.306311689  114.184880711    66.0206   4   2   2.2742   3.1813   7.1800   0.8903  -3.1224   2.8133   0.00    0.0
2158 455707.000   22.306310126  114.184874791    59.9749   4   2   2.1704   3.0617   6.9233   0.9460  -3.0563   2.5877   0.00    0.0
2158 455708.000   22.306300259  114.184855707    56.8714   4   3   2.0815   2.9745   6.7099   0.9956  -3.0065   2.3901   0.00    0.0
2158 455709.000   22.306301417  114.184858168    53.7370   4   3   1.8203   2.4673   6.4397  -0.4631  -3.2589   1.9777   0.00    0.0
2158 455710.000   22.306310252  114.184875473    48.4535   4   3   1.8637   2.7608   6.9322   0.8619  -3.9183   0.9354   0.00    0.0
2158 455711.000   22.306316917  114.184888983    42.9595   4   3   1.8802   2.9298   7.1293   1.1809  -4.2178  -0.9467   0.00    0.0
2158 455712.000   22.306324346  114.184904238    37.9806   4   3   1.8572   2.9590   7.1078   1.2850  -4.2903  -1.3139   0.00    0.0
2158 455713.000   22.306314138  114.184880016    42.6568   4   3   1.6286   2.3632   5.9032   0.5691  -3.4210   0.9655   0.00    0.0
2158 455714.000   22.306317070  114.184886113    39.5408   4   3   1.9595   3.1661   6.4961   1.6860  -3.7814  -0.8751   0.00    0.0
2158 455715.000   22.306326354  114.184904873    34.7217   4   3   1.7796   2.8586   6.8014   1.3837  -4.0856  -1.5313   0.00    0.0
2158 455716.000   22.306330302  114.184913407    32.1002   4   3   1.7501   2.8420   6.8561   1.4025  -4.1477  -1.7104   0.00    0.0
2158 455717.000   22.306332096  114.184917033    30.7876   4   3   1.7188   2.8073   6.8154   1.4037  -4.1358  -1.7832   0.00    0.0
2158 455718.000   22.306330642  114.184914982    31.0763   4   3   1.6901   2.7707   6.7627   1.4023  -4.1122  -1.8358   0.00    0.0
2158 455719.000   22.306327528  114.184909255    32.4819   4   3   1.6666   2.7404   6.7210   1.4060  -4.0934  -1.8874   0.00    0.0
2158 455720.000   22.306323304  114.184900983    34.5772   4   3   1.6468   2.7156   6.6884   1.4131  -4.0790  -1.9368   0.00    0.0
2158 455721.000   22.306320630  114.184896094    35.8503   4   3   1.6290   2.6938   6.6584   1.4208  -4.0654  -1.9805   0.00    0.0
2158 455722.000   22.306315131  114.184885332    38.6336   4   3   1.6125   2.6737   6.6287   1.4278  -4.0515  -2.0176   0.00    0.0
2158 455723.000   22.306307861  114.184870671    42.0739   4   2   1.8821   3.2034   6.6308   1.9600  -3.8923  -1.8871   0.00    0.0
2158 455724.000   22.306315889  114.184879670    39.0128   4   3   1.5835   2.6400   6.5730   1.4421  -4.0254  -2.0794   0.00    0.0
2158 455725.000   22.306326437  114.184878807    36.5906   4   3   1.5698   2.6238   6.5472   1.4471  -4.0121  -2.1044   0.00    0.0
2158 455726.000   22.306354289  114.184881300    30.8965   4   2   2.2019   2.2438   6.3249  -0.7804  -3.5930   2.1291   0.00    0.0
2158 455727.000   22.306393923  114.184870674    26.2701   4   3   1.2955   1.9384   4.8814   0.8799  -2.9246  -1.2023   0.00    0.0
2158 455728.000   22.306445082  114.184862611    19.2056   4   3   1.2614   1.8899   4.7279   0.8856  -2.8480  -1.2622   0.00    0.0
2158 455729.000   22.306502929  114.184860195    10.3179   4   3   1.2339   1.8764   4.6665   0.9076  -2.8286  -1.3327   0.00    0.0
2158 455730.000   22.306552630  114.184845154    11.7918   4   2   1.3833   2.3101   4.7172   1.3310  -2.5751  -1.1212   0.00    0.0
2158 455731.000   22.306589498  114.184810942    21.2821   4   2   1.4531   2.5365   4.8034   1.5269  -2.3265  -0.8977   0.00    0.0
2158 455732.000   22.306602718  114.184711098    38.6255   4   2   1.2683   1.7643   4.0854   1.0564  -0.8157   0.9409   0.00    0.0
2158 455733.000   22.306649220  114.184691118    44.7685   4   3   1.2598   1.7258   3.8574   1.0852  -0.5342   0.9067   0.00    0.0
2158 455734.000   22.306718011  114.184743922    38.9903   4   3   1.3896   2.2965   2.7954   1.4773  -1.2891   0.4740   0.00    0.0
2158 455735.000   22.306758868  114.184758353    38.6278   4   2   1.3790   2.3893   2.6579   1.5226  -1.4286   0.2949   0.00    0.0
2158 455736.000   22.306828398  114.184852875    37.2912   4   2   1.7175   3.1702   3.5461   2.1192  -1.8582  -0.6973   0.00    0.0
2158 455737.000   22.306913323  114.184990256    28.8431   4   2   2.5062   4.7475   5.1662   3.3119  -3.7022  -2.3863   0.00    0.0
2158 455738.000   22.306857357  114.184849975    42.6413   4   2   1.8570   3.4767   4.9011   2.3560  -2.6024  -1.4339   0.00    0.0
2158 455739.000   22.306772352  114.184651493    57.3040   4   2   1.1916   1.7622   4.0766   1.1458  -0.6931   0.8578   0.00    0.0
2158 455740.000   22.306738441  114.184581157    47.8089   4   2   1.3231   1.9032   4.4566   1.3420   1.2783   1.3881   0.00    0.0
2158 455741.000   22.306740000  114.184597594    40.4744   4   2   1.3176   1.9448   5.0178   1.3652   1.6185   1.5262   0.00    0.0
2158 455742.000   22.306762614  114.184658187    39.9590   4   2   2.3270   3.9249   7.8873   2.9031   4.7949   3.7150   0.00    0.0
2158 455743.000   22.306809476  114.184764083    52.7042   4   3   3.5404   6.0917  12.6470   4.5699   8.3708   6.3794   0.00    0.0
2158 455744.000   22.306858691  114.184870595    76.3402   4   2   1.3941   2.2880   4.8630   1.5912   1.7564   1.4726   0.00    0.0
2158 455745.000   22.306847227  114.184842964    73.9321   2   4   1.2908   2.0689   3.9808   1.4337   1.2146   1.1487   0.00    0.0
2158 455746.000   22.306851481  114.184846296    74.7241   4   3   1.3266   2.1442   3.9799   1.5030   0.9944   1.0456   0.00    0.0
2158 455747.000   22.306862676  114.184863033    74.8904   2   4   1.1276   1.7220   3.5112   1.1808   1.8396   1.5510   0.00    0.0
2158 455748.000   22.306867602  114.184867712    75.9104   2   4   1.1057   1.6833   3.3361   1.1575   1.8593   1.5570   0.00    0.0
2158 455749.000   22.306869555  114.184868330    76.6941   4   3   1.0501   1.5820   3.3288   1.0788   1.8489   1.5440   0.00    0.0
2158 455750.000   22.306870036  114.184867060    77.1686   2   4   1.0214   1.5376   3.3622   1.0459   1.8805   1.5588   0.00    0.0
2158 455751.000   22.306823137  114.184781973    57.3997   4   3   1.3605   2.1266   4.8586   1.5598   2.9771   2.3831   0.00    0.0
2158 455752.000   22.306759949  114.184670512    30.9209   4   3   1.5877   2.4917   5.7817   1.8742   3.6153   2.8845   0.00    0.0
2158 455753.000   22.306722071  114.184605224    15.3650   4   3   1.6602   2.5969   6.0640   1.9704   3.8108   3.0445   0.00    0.0
2158 455754.000   22.306704673  114.184578760     9.1605   4   3   1.6672   2.6042   6.0995   1.9808   3.8406   3.0688   0.00    0.0
2158 455755.000   22.306694641  114.184566716     6.3510   4   3   1.6579   2.5966   6.0892   1.9734   3.8412   3.0626   0.00    0.0
2158 455756.000   22.306698375  114.184581361     9.8837   4   3   1.6475   2.5951   6.0863   1.9674   3.8477   3.0561   0.00    0.0
2158 455757.000   22.306707379  114.184606251    15.8359   4   3   1.6383   2.5973   6.0891   1.9634   3.8578   3.0517   0.00    0.0
2158 455758.000   22.306719426  114.184638177    23.4749   4   3   1.6298   2.5983   6.0890   1.9595   3.8650   3.0468   0.00    0.0
2158 455759.000   22.306731111  114.184669050    30.8404   4   3   1.6224   2.5970   6.0847   1.9555   3.8683   3.0417   0.00    0.0
2158 455760.000   22.306735537  114.184685980    34.8301   4   3   1.6165   2.5947   6.0797   1.9521   3.8699   3.0378   0.00    0.0
2158 455761.000   22.306740659  114.184704696    39.2250   2   4   1.6118   2.5907   6.0721   1.9491   3.8689   3.0344   0.00    0.0
2158 455762.000   22.306741190  114.184712831    41.0856   4   3   1.6094   2.5909   6.0749   1.9491   3.8741   3.0355   0.00    0.0
2158 455763.000   22.306740226  114.184717982    42.2263   4   3   1.6072   2.5907   6.0767   1.9491   3.8783   3.0364   0.00    0.0
2158 455764.000   22.306731449  114.184708400    39.8130   4   3   1.6049   2.5902   6.0774   1.9488   3.8816   3.0368   0.00    0.0
2158 455765.000   22.306719345  114.184691958    35.7416   4   3   1.6022   2.5895   6.0772   1.9482   3.8841   3.0363   0.00    0.0
2158 455766.000   22.306709647  114.184679346    32.6085   4   3   1.5992   2.5886   6.0760   1.9472   3.8860   3.0352   0.00    0.0
2158 455767.000   22.306707129  114.184680535    32.7729   4   3   1.5960   2.5878   6.0741   1.9460   3.8874   3.0334   0.00    0.0
2158 455768.000   22.306709619  114.184691172    35.1997   4   3   1.5926   2.5870   6.0718   1.9447   3.8885   3.0312   0.00    0.0
2158 455769.000   22.306714120  114.184705268    38.4870   4   3   1.5891   2.5863   6.0693   1.9432   3.8894   3.0288   0.00    0.0
2158 455770.000   22.306713188  114.184709042    39.2666   4   3   1.5856   2.5856   6.0668   1.9418   3.8902   3.0263   0.00    0.0
2158 455771.000   22.306710069  114.184708308    38.9553   4   3   1.5822   2.5851   6.0643   1.9405   3.8909   3.0238   0.00    0.0
2158 455772.000   22.306718213  114.184728188    43.6333   4   3   1.5790   2.5846   6.0620   1.9392   3.8917   3.0214   0.00    0.0
2158 455773.000   22.306727473  114.184751102    48.9453   4   3   1.5758   2.5842   6.0598   1.9380   3.8924   3.0190   0.00    0.0
2158 455774.000   22.306739652  114.184779433    55.5688   4   3   1.5728   2.5839   6.0578   1.9369   3.8932   3.0168   0.00    0.0
2158 455775.000   22.306748669  114.184800433    60.4568   4   3   1.5699   2.5836   6.0559   1.9359   3.8939   3.0147   0.00    0.0
2158 455776.000   22.306752934  114.184812830    63.2256   4   3   1.5671   2.5834   6.0541   1.9350   3.8947   3.0126   0.00    0.0
2158 455777.000   22.306749390  114.184809567    62.2655   4   3   1.5644   2.5833   6.0523   1.9340   3.8954   3.0106   0.00    0.0
2158 455778.000   22.306739654  114.184794256    58.3900   4   3   1.5617   2.5832   6.0507   1.9332   3.8961   3.0086   0.00    0.0
2158 455779.000   22.306722689  114.184763517    50.8912   4   3   1.5591   2.5831   6.0490   1.9323   3.8968   3.0066   0.00    0.0
2158 455780.000   22.306694710  114.184712399    38.4537   4   3   1.5566   2.5831   6.0474   1.9315   3.8975   3.0047   0.00    0.0
2158 455781.000   22.306671259  114.184670022    28.1400   4   3   1.5540   2.5831   6.0458   1.9307   3.8982   3.0027   0.00    0.0
2158 455782.000   22.306654201  114.184640600    20.8934   4   3   1.5515   2.5832   6.0443   1.9299   3.8988   3.0008   0.00    0.0
2158 455783.000   22.306642560  114.184621205    16.0684   4   3   1.5491   2.5833   6.0428   1.9291   3.8994   2.9989   0.00    0.0
2158 455784.000   22.306639951  114.184620171    15.5968   4   3   1.5467   2.5834   6.0413   1.9284   3.9000   2.9970   0.00    0.0
2158 455785.000   22.306636518  114.184618146    14.8506   4   3   1.5444   2.5835   6.0398   1.9277   3.9006   2.9951   0.00    0.0
2158 455786.000   22.306632888  114.184615350    13.9599   4   3   1.5420   2.5836   6.0384   1.9270   3.9012   2.9932   0.00    0.0
2158 455787.000   22.306626653  114.184607706    11.8935   4   3   1.5398   2.5838   6.0370   1.9263   3.9017   2.9914   0.00    0.0
2158 455788.000   22.306620006  114.184599295     9.6217   4   3   1.5375   2.5840   6.0357   1.9256   3.9023   2.9896   0.00    0.0
2158 455789.000   22.306613400  114.184592139     7.6113   4   3   1.5353   2.5842   6.0344   1.9249   3.9028   2.9878   0.00    0.0
2158 455790.000   22.306604612  114.184581029     4.6593   4   3   1.5332   2.5844   6.0331   1.9243   3.9034   2.9860   0.00    0.0
2158 455791.000   22.306593451  114.184565531     0.6640   4   3   1.5311   2.5847   6.0318   1.9237   3.9039   2.9843   0.00    0.0
2158 455792.000   22.306585105  114.184556034    -1.9608   4   3   1.5290   2.5849   6.0306   1.9231   3.9045   2.9826   0.00    0.0
2158 455793.000   22.306568118  114.184530123    -1.9396   4   2   1.7644   3.0385   6.0713   2.2600   3.7567   2.8734   0.00    0.0
2158 455794.000   22.306462179  114.184499134   -14.0356   4   2   3.1339   3.3280   6.8797   2.3707   3.5215   3.9251   0.00    0.0
2158 455795.000   22.306280236  114.184486949   -44.6723   4   2   4.3694   3.3334   8.3561   2.4335   3.5775   5.4557   0.00    0.0
2158 455796.000   22.306201855  114.184457853   -65.4246   4   3   4.5785   3.2892   8.8252   2.6354   3.9614   5.8278   0.00    0.0
2158 455797.000   22.306236093  114.184431121   -69.2930   4   3   3.6960   3.4098   8.5357   2.8723   4.1229   5.1342   0.00    0.0
2158 455798.000   22.306291188  114.184453832   -58.7400   4   3   3.2929   3.4103   8.0593   2.8119   4.0442   4.6426   0.00    0.0
2158 455799.000   22.306328995  114.184472550   -47.6079   4   2   3.0583   3.3953   7.6672   2.7386   3.9440   4.3030   0.00    0.0
2158 455800.000   22.306365214  114.184484103   -36.3041   4   2   3.7116   5.1123  11.1381   4.0150   6.8516   5.9852   0.00    0.0
2158 455801.000   22.306493789  114.184657416    13.0103   4   0   2.7386   2.2870   6.3074  -0.4320   1.5732   2.9467   0.00    0.0
2158 455802.000   22.306509075  114.184552486     9.3389   4   2   1.7075   1.9974   5.0890   1.1344   1.2738   1.8956   0.00    0.0
2158 455803.000   22.306523779  114.184470178     6.5951   4   2   1.6424   1.9743   4.8870   1.1874   1.3051   1.8004   0.00    0.0
2158 455804.000   22.306622369  114.184433943     7.7141   4   0   2.9888   3.0565   6.2355   1.9586   2.8188   3.5191   0.00    0.0
2158 455805.000   22.306798672  114.184462322    22.4448   4   2   4.0415   3.3301   7.9711   2.3061   3.4385   5.0993   0.00    0.0
2158 455806.000   22.306892213  114.184488754    36.6216   4   2   4.5850   3.2995   8.9683   2.5094   3.8454   5.9066   0.00    0.0
2158 455816.000   22.307235279  114.184391963    56.6674   4   3   6.0351   2.5651   7.6910  -2.5513  -2.0536   5.4377   0.00    0.0
2158 455817.000   22.307329494  114.184523567    30.2079   4   3   4.5487   2.0860   6.1142  -1.8702  -2.0525   3.9566   0.00    0.0
2158 455818.000   22.307245206  114.184593236     6.5913   4   2   2.2282   2.3274   4.5535  -1.0992   0.3938   0.9310   0.00    0.0
2158 455819.000   22.307282524  114.184673084     7.8752   4   2   1.8112   2.1254   4.3820   0.7357  -0.3483   0.8597   0.00    0.0
2158 455820.000   22.307345518  114.184731740    -1.4308   4   2   1.9716   2.1042   5.6573   1.1496   1.5018   1.6730   0.00    0.0
2158 455821.000   22.307401879  114.184743432    -2.4185   4   3   3.1922   2.2154   5.8297  -0.7620   1.4232   2.8734   0.00    0.0
2158 455822.000   22.307305922  114.184791891    -3.8616   4   2   3.2793   2.1886   6.0456  -1.2060  -0.9234   3.6546   0.00    0.0
2158 455823.000   22.307348073  114.184899335    12.4838   4   2   4.0875   3.0982   7.7084   1.9381   2.8929   4.9832   0.00    0.0
2158 455824.000   22.307445391  114.184995498    36.5337   4   2   4.2748   4.8562  11.5460   2.6167   6.5607   6.2898   0.00    0.0
2158 455825.000   22.307530051  114.185141307    69.6750   4   2   5.3306   7.5043  17.4806   4.9568  10.8945   8.9873   0.00    0.0
2158 455826.000   22.307557757  114.185133403    71.6431   4   2   4.8444   3.2270  10.6223   2.6514   4.9152   6.8599   0.00    0.0
2158 455827.000   22.307550723  114.185170483    74.2329   4   2   5.0485   2.9855  10.7018   2.5088   4.6108   7.0710   0.00    0.0
2158 455833.000   22.306693065  114.185017377  -115.7008   4   3   6.0683   2.2393  11.7115  -1.8189  -2.3209   7.8949   0.00    0.0
2158 455837.000   22.307356710  114.185008271    45.1282   4   0   3.4942   2.3328   5.3888  -1.6246  -2.0282   3.1060   0.00    0.0
2158 455838.000   22.307353978  114.185003423    41.3009   4   0   3.2843   2.2588   4.9038  -1.4754  -1.8053   2.7529   0.00    0.0
2158 455839.000   22.307352917  114.184989589    38.5784   4   2   3.3485   2.2397   5.0861  -1.5011  -1.9246   2.9082   0.00    0.0
2158 455840.000   22.307179258  114.185010173     9.3265   4   2   4.2635   1.8043   6.7241  -1.4030  -2.4111   4.6138   0.00    0.0
2158 455841.000   22.307106822  114.185006075    -5.1194   4   0   4.3388   2.0303   7.0337  -1.3620  -2.0829   4.7962   0.00    0.0
2158 455842.000   22.307060832  114.184986524   -17.4580   4   0   4.2557   2.2361   7.1544  -1.1791  -1.3608   4.7237   0.00    0.0
2158 455846.000   22.307483004  114.184843660     0.3128   4   2   6.4869   2.6584   8.0437  -2.7924  -2.2307   5.8971   0.00    0.0
2158 455847.000   22.307469551  114.184845332    -1.6349   4   2   5.5586   2.1229   6.8390  -2.0682  -2.2006   5.0362   0.00    0.0
2158 455848.000   22.307464222  114.184845227    -2.2340   4   2   5.7996   1.9608   7.2180  -2.0192  -2.5501   5.5356   0.00    0.0
2158 455850.000   22.307384447  114.184828461    -2.0150   4   2   4.0417   1.8953   6.9328  -1.7286  -2.6884   4.5128   0.00    0.0
2158 455851.000   22.307277087  114.184841803    -5.3074   4   2   3.4719   1.6860   6.2797  -1.3514  -2.3947   4.0119   0.00    0.0
2158 455852.000   22.307251103  114.184853614    -5.9273   4   2   3.4030   1.6006   6.1039  -1.2872  -2.3954   3.9116   0.00    0.0
2158 455853.000   22.307253883  114.184861423    -4.7878   4   2   3.3415   1.5429   5.9375  -1.2605  -2.3949   3.8071   0.00    0.0
2158 455854.000   22.307271259  114.184828047     8.9748   4   2   3.4967   2.3481   8.3443  -1.9027  -4.0664   4.5639   0.00    0.0
2158 455855.000   22.307308044  114.184761273    33.6509   4   2   3.7577   2.8907  10.1191  -2.4526  -5.1464   5.3621   0.00    0.0
2158 455856.000   22.307333972  114.184718864    52.9236   4   0   3.9703   3.8025  10.8803  -2.9272  -5.7198   5.8070   0.00    0.0
2158 455857.000   22.307361810  114.184696907    67.5646   4   0   2.1605   3.4659   5.5143  -0.9341  -3.1531   1.5565   0.00    0.0
2158 455858.000   22.307363303  114.184689636    72.5907   4   0   2.1196   3.4006   4.9419  -0.7482  -2.8397   1.1840   0.00    0.0
2158 455859.000   22.307350335  114.184690100    72.2985   4   0   2.1195   3.4029   4.9202  -0.7748  -2.8223   1.2157   0.00    0.0
2158 455860.000   22.307334070  114.184684070    70.6930   4   0   2.1173   3.4181   4.9376  -0.7814  -2.8354   1.2136   0.00    0.0
2158 455861.000   22.307327574  114.184654688    70.7686   4   2   2.0776   1.9015   4.9151   0.7409  -2.7640   1.1864   0.00    0.0
