% program   : RTKPOST demo5 b34k
% inp file  : C:\Users\user\Desktop\AAE6102_Laboratory-main\AAE6102_Laboratory-main\GNSS Data\UrbanNav - Medium\20210521.medium-urban.whampoa.ublox.f9p.obs
% inp file  : C:\Users\user\Desktop\AAE6102_Laboratory-main\AAE6102_Laboratory-main\GNSS Data\UrbanNav - Medium\hksc141g.21o
% inp file  : C:\Users\user\Desktop\AAE6102_Laboratory-main\AAE6102_Laboratory-main\GNSS Data\UrbanNav - Medium\hksc141g.21n
% obs start : 2021/05/21 06:29:02.0 GPST (week2158 455342.0s)
% obs end   : 2021/05/21 06:54:39.0 GPST (week2158 456879.0s)
% pos mode  : Kinematic
% freqs     : L1
% solution  : Forward
% elev mask : 40.0 deg
% dynamics  : on
% tidecorr  : off
% ionos opt : Broadcast
% tropo opt : Saastamoinen
% ephemeris : Broadcast
% navi sys  : GPS GLONASS Galileo QZSS BDS NavIC SBAS
% amb res   : Fix and Hold
% amb glo   : Fix and Hold
% val thres : 3.0
% antenna1  :                       ( 0.0000  0.0000  0.0000)
% antenna2  :                       ( 0.0000  0.0000  0.0000)
% ref pos   : 22.322172082  114.141187963    20.2386
%
% (lat/lon/height=WGS84/ellipsoidal,Q=1:fix,2:float,3:sbas,4:dgps,5:single,6:ppp,ns=# of satellites)
%  GPST          latitude(deg) longitude(deg)  height(m)   Q  ns   sdn(m)   sde(m)   sdu(m)  sdne(m)  sdeu(m)  sdun(m) age(s)  ratio
2158 455342.000   22.301537270  114.190342548    -5.4003   4   3   4.9384   5.9615  13.7264  -4.6294  -8.1848   7.1519   0.00    0.0
2158 455343.000   22.301539252  114.190339638    -4.6282   4   3   3.9445   4.7954  11.4271  -3.8237  -6.8383   6.0059   0.00    0.0
2158 455344.000   22.301539140  114.190340167    -4.4214   4   3   3.9664   4.8085  12.1742  -4.0171  -7.2712   6.4817   0.00    0.0
2158 455345.000   22.301541441  114.190337673    -3.7064   4   3   4.2240   5.0959  13.4334  -4.3927  -8.0032   7.2056   0.00    0.0
2158 455346.000   22.301540418  114.190339265    -4.1689   4   3   4.2469   5.1085  13.6937  -4.4607  -8.1468   7.3656   0.00    0.0
2158 455347.000   22.301540828  114.190339006    -4.1423   4   3   4.1483   4.9807  13.4634  -4.3767  -8.0026   7.2510   0.00    0.0
2158 455348.000   22.301542686  114.190334424    -3.6109   4   3   4.0254   4.8265  13.1175  -4.2583  -7.7916   7.0699   0.00    0.0
2158 455349.000   22.301542327  114.190328327    -3.8787   4   3   3.9082   4.6808  12.7735  -4.1421  -7.5830   6.8881   0.00    0.0
2158 455350.000   22.301544408  114.190316070    -3.4088   4   3   3.8052   4.5531  12.4669  -4.0388  -7.3973   6.7255   0.00    0.0
2158 455351.000   22.301549454  114.190301578    -2.8906   4   3   3.7190   4.4463  12.2110  -3.9525  -7.2421   6.5896   0.00    0.0
2158 455352.000   22.301558374  114.190291840    -2.9711   4   3   3.6510   4.3615  12.0116  -3.8849  -7.1209   6.4839   0.00    0.0
2158 455353.000   22.301570298  114.190284406    -2.9611   2   4   3.5026   4.1828  11.5208  -3.7266  -6.8298   6.2201   0.00    0.0
2158 455354.000   22.301582380  114.190277956    -3.2370   2   4   2.2700   2.7329   7.1789  -2.3450  -4.2700   3.8448   0.00    0.0
2158 455355.000   22.301596546  114.190269755    -3.1529   2   4   1.9712   2.3806   6.1249  -2.0095  -3.6482   3.2675   0.00    0.0
2158 455356.000   22.301611990  114.190261344    -3.2023   2   4   1.8492   2.2349   5.7126  -1.8765  -3.4036   3.0434   0.00    0.0
2158 455357.000   22.301633705  114.190250297    -3.2406   2   4   1.7482   2.1141   5.3735  -1.7670  -3.2022   2.8593   0.00    0.0
2158 455358.000   22.301661992  114.190236776    -3.3143   2   4   1.6628   2.0117   5.0884  -1.6748  -3.0328   2.7048   0.00    0.0
2158 455359.000   22.301696554  114.190220475    -3.2074   2   4   1.5892   1.9234   4.8444  -1.5957  -2.8877   2.5726   0.00    0.0
2158 455360.000   22.301735490  114.190201750    -3.0322   2   4   1.5249   1.8461   4.6325  -1.5268  -2.7616   2.4580   0.00    0.0
2158 455361.000   22.301778642  114.190181178    -2.8513   2   4   1.4680   1.7776   4.4461  -1.4662  -2.6506   2.3572   0.00    0.0
2158 455362.000   22.301826038  114.190158158    -2.7393   2   4   1.4173   1.7164   4.2806  -1.4123  -2.5520   2.2679   0.00    0.0
2158 455363.000   22.301876976  114.190132850    -2.5847   2   4   1.3715   1.6612   4.1322  -1.3639  -2.4635   2.1879   0.00    0.0
2158 455364.000   22.301930149  114.190106068    -2.5517   2   4   1.3301   1.6111   3.9983  -1.3201  -2.3836   2.1157   0.00    0.0
2158 455365.000   22.301983080  114.190079411    -2.4366   2   4   1.2923   1.5653   3.8766  -1.2803  -2.3109   2.0502   0.00    0.0
2158 455366.000   22.302034659  114.190054528    -2.4854   2   4   1.2575   1.5233   3.7653  -1.2439  -2.2444   1.9904   0.00    0.0
2158 455367.000   22.302084834  114.190028795    -2.2054   2   4   1.2255   1.4844   3.6631  -1.2103  -2.1834   1.9354   0.00    0.0
2158 455368.000   22.302132604  114.190000867    -1.3304   4   3   1.2050   1.4936   3.6948  -1.1563  -2.2074   1.8469   0.00    0.0
2158 455369.000   22.302177033  114.189968786     0.0249   4   3   1.2414   1.7525   4.4136  -0.9433  -2.6663   1.4963   0.00    0.0
2158 455370.000   22.302215012  114.189928282     2.5522   4   2   1.5902   2.5805   5.7103   1.0456  -3.0823   1.1951   0.00    0.0
2158 455371.000   22.302252014  114.189884054     3.5093   4   2   2.6097   2.5874   6.8910  -1.3800  -4.1461   2.4616   0.00    0.0
2158 455372.000   22.302266152  114.189828854     6.4948   4   2   3.7606   3.1684   8.8334  -2.5700  -5.2261   4.5185   0.00    0.0
2158 455373.000   22.302280281  114.189777295     8.4682   4   2   4.1719   3.6385  10.2772  -3.1339  -6.0602   5.4659   0.00    0.0
2158 455374.000   22.302284212  114.189731387     9.0235   4   2   4.2774   3.9094  11.0681  -3.3401  -6.5283   5.8079   0.00    0.0
2158 455375.000   22.302250388  114.189675460    12.3460   4   3   1.4452   2.5163   6.4779   1.0480  -3.9726  -1.7122   0.00    0.0
2158 455376.000   22.302228815  114.189631711    13.7144   4   2   3.1206   2.6919   7.3277  -1.6557  -4.3743   3.0247   0.00    0.0
2158 455377.000   22.302209805  114.189595321    13.7513   4   3   1.3073   2.4398   6.3077   0.8806  -3.8599  -1.4548   0.00    0.0
2158 455378.000   22.302197206  114.189585658     6.5044   2   4   1.2670   2.3329   6.0257   0.7950  -3.6852  -1.3189   0.00    0.0
2158 455379.000   22.302182695  114.189571381     0.7771   4   3   1.3289   2.5604   6.8817  -1.2965  -4.1398   2.1417   0.00    0.0
2158 455380.000   22.302163730  114.189538648     0.9366   2   4   1.1837   2.0294   5.2100   0.5190  -3.1814  -0.8818   0.00    0.0
2158 455381.000   22.302134374  114.189518656    -2.2375   4   3   2.3520   2.0581   5.3695  -0.4252  -3.2505   1.1694   0.00    0.0
2158 455382.000   22.302131814  114.189495215    -3.0998   2   4   1.0979   1.8154   4.6431  -0.0656  -2.8284  -0.2409   0.00    0.0
2158 455383.000   22.302115424  114.189472828    -4.1901   4   3   1.0926   1.8267   4.6760   0.2280  -2.8501  -0.4517   0.00    0.0
2158 455384.000   22.302077380  114.189438415    -2.9079   4   3   1.5246   1.9521   5.2705  -1.3504  -3.1391   2.2702   0.00    0.0
2158 455385.000   22.302066244  114.189387424     2.8830   4   3   1.0734   1.7726   4.5319   0.2744  -2.7630  -0.5093   0.00    0.0
2158 455386.000   22.302045948  114.189349532     6.1040   4   2   1.4732   2.5495   5.1963   1.3954  -2.8951  -0.5788   0.00    0.0
2158 455401.000   22.302202397  114.188762181    -4.3622   4   2   4.9791   5.8837  13.6910  -4.6141  -8.0343   7.1119   0.00    0.0
2158 455402.000   22.302196191  114.188744464    -3.3337   4   3   4.0937   4.8204  11.4196  -3.9274  -6.6516   5.9029   0.00    0.0
2158 455403.000   22.302187368  114.188731250    -2.4871   4   3   4.0059   4.7354  12.1483  -4.0040  -7.1324   6.4352   0.00    0.0
2158 455404.000   22.302176649  114.188725479    -2.3741   2   4   4.0171   4.7506  12.8155  -4.1057  -7.5028   6.8223   0.00    0.0
2158 455405.000   22.302172834  114.188723561    -2.2478   4   3   4.1750   4.9148  13.5277  -4.3271  -7.9229   7.2463   0.00    0.0
2158 455406.000   22.302171936  114.188724774    -2.4915   2   4   2.4321   2.9096   7.2454  -2.3610  -4.2608   3.7962   0.00    0.0
2158 455407.000   22.302171702  114.188725310    -2.5034   2   4   2.0951   2.5123   6.0486  -1.9928  -3.5694   3.1557   0.00    0.0
2158 455408.000   22.302172790  114.188724366    -2.1054   4   3   1.9852   2.3790   5.7586  -1.8945  -3.3976   3.0087   0.00    0.0
2158 455409.000   22.302173881  114.188723311    -1.6500   4   3   2.0328   2.4250   6.0690  -1.9797  -3.5722   3.1934   0.00    0.0
2158 455410.000   22.302174959  114.188722283    -1.2477   4   3   2.3710   2.8032   7.4450  -2.3948  -4.3640   3.9608   0.00    0.0
2158 455411.000   22.302173983  114.188723877    -1.6582   2   4   1.6673   1.9993   4.8018  -1.5826  -2.8354   2.5061   0.00    0.0
2158 455412.000   22.302173719  114.188724758    -1.8115   2   4   1.5952   1.9127   4.5923  -1.5135  -2.7116   2.3967   0.00    0.0
2158 455413.000   22.302173320  114.188725435    -1.9627   4   3   1.5591   1.8670   4.5188  -1.4859  -2.6663   2.3625   0.00    0.0
2158 455414.000   22.302172852  114.188726330    -2.1131   4   3   1.7196   2.0435   5.2124  -1.6913  -3.0623   2.7531   0.00    0.0
2158 455415.000   22.302172616  114.188726961    -2.2231   4   3   2.2243   2.6139   7.1434  -2.2811  -4.1753   3.8168   0.00    0.0
2158 455416.000   22.302173612  114.188725947    -1.8479   2   4   1.3808   1.6543   3.9728  -1.3084  -2.3450   2.0737   0.00    0.0
2158 455417.000   22.302173231  114.188726656    -1.9860   2   4   1.3387   1.6035   3.8503  -1.2679  -2.2724   2.0097   0.00    0.0
2158 455418.000   22.302172957  114.188727416    -2.0792   4   3   1.3335   1.5943   3.8738  -1.2714  -2.2835   2.0268   0.00    0.0
2158 455419.000   22.302172854  114.188727806    -2.1390   2   4   1.2657   1.5153   3.6395  -1.1980  -2.1473   1.8996   0.00    0.0
2158 455420.000   22.302172584  114.188728246    -2.1828   2   4   1.2334   1.4762   3.5463  -1.1671  -2.0919   1.8510   0.00    0.0
2158 455421.000   22.302172401  114.188728957    -2.2620   4   3   1.2368   1.4772   3.5954  -1.1789  -2.1181   1.8815   0.00    0.0
2158 455422.000   22.302172266  114.188729511    -2.3296   2   4   1.1756   1.4063   3.3795  -1.1117  -1.9928   1.7639   0.00    0.0
2158 455423.000   22.302172126  114.188730119    -2.4403   2   4   1.1495   1.3747   3.3045  -1.0867  -1.9482   1.7247   0.00    0.0
2158 455424.000   22.302171713  114.188731015    -2.6150   4   3   1.1612   1.3854   3.3809  -1.1072  -1.9902   1.7698   0.00    0.0
2158 455425.000   22.302171640  114.188731640    -2.7125   2   4   1.1022   1.3174   3.1682  -1.0414  -1.8671   1.6535   0.00    0.0
2158 455426.000   22.302171394  114.188732262    -2.8189   2   4   1.0806   1.2913   3.1060  -1.0207  -1.8301   1.6211   0.00    0.0
2158 455427.000   22.302170957  114.188733054    -2.9795   2   4   1.0603   1.2666   3.0474  -1.0012  -1.7952   1.5905   0.00    0.0
2158 455428.000   22.302170582  114.188733663    -3.1415   2   4   1.0410   1.2432   2.9920  -0.9827  -1.7622   1.5615   0.00    0.0
2158 455429.000   22.302170529  114.188734107    -3.1949   4   3   1.0615   1.2642   3.0972  -1.0123  -1.8208   1.6220   0.00    0.0
2158 455430.000   22.302170394  114.188734654    -3.2796   4   3   1.3266   1.5600   4.1454  -1.3276  -2.4201   2.2015   0.00    0.0
2158 455431.000   22.302169732  114.188735781    -3.5575   4   3   1.9655   2.2843   6.4902  -2.0475  -3.7697   3.4801   0.00    0.0
2158 455432.000   22.302167995  114.188738247    -4.2331   4   3   2.6809   3.1009   9.0267  -2.8328  -5.2333   4.8548   0.00    0.0
2158 455433.000   22.302166479  114.188740468    -4.8507   4   3   3.1308   3.6150  10.6060  -3.3224  -6.1443   5.7091   0.00    0.0
2158 455434.000   22.302166389  114.188740811    -4.8586   4   3   3.3058   3.8139  11.2213  -3.5124  -6.4981   6.0416   0.00    0.0
2158 455435.000   22.302167717  114.188739409    -4.3958   4   3   3.3444   3.8564  11.3613  -3.5544  -6.5771   6.1171   0.00    0.0
2158 455436.000   22.302170625  114.188735975    -3.2951   4   3   3.3440   3.8542  11.3656  -3.5542  -6.5776   6.1192   0.00    0.0
2158 455437.000   22.302175154  114.188730768    -1.5957   4   3   3.3461   3.8548  11.3782  -3.5565  -6.5829   6.1258   0.00    0.0
2158 455438.000   22.302178223  114.188727167    -0.4222   4   3   3.3590   3.8679  11.4284  -3.5706  -6.6099   6.1526   0.00    0.0
2158 455439.000   22.302178790  114.188726638    -0.2113   4   3   3.3768   3.8865  11.4954  -3.5899  -6.6465   6.1886   0.00    0.0
2158 455440.000   22.302179811  114.188725635     0.1506   4   3   3.3918   3.9020  11.5527  -3.6061  -6.6776   6.2192   0.00    0.0
2158 455441.000   22.302178893  114.188726907    -0.1570   4   3   3.4007   3.9104  11.5881  -3.6156  -6.6961   6.2381   0.00    0.0
2158 455442.000   22.302178051  114.188726749    -0.1062   4   3   3.4038   3.9123  11.6036  -3.6189  -6.7031   6.2461   0.00    0.0
2158 455443.000   22.302166627  114.188726373    -0.5492   4   3   3.4036   3.9103  11.6073  -3.6186  -6.7033   6.2478   0.00    0.0
2158 455444.000   22.302141326  114.188719020    -0.7570   4   3   3.4022   3.9071  11.6068  -3.6170  -6.7010   6.2473   0.00    0.0
2158 455445.000   22.302119880  114.188682450     5.6161   4   3   3.4009   3.9039  11.6065  -3.6154  -6.6989   6.2468   0.00    0.0
2158 455446.000   22.302073150  114.188657958     6.1659   4   2   3.4001   4.5595  11.6153  -3.6052  -6.7711   6.2462   0.00    0.0
2158 455447.000   22.302006925  114.188636315     2.8079   4   2   3.3997   5.1083  11.6318  -3.6128  -6.8684   6.2482   0.00    0.0
2158 455448.000   22.301955437  114.188581967     7.0293   4   2   3.4002   5.1398  11.6406  -3.6189  -6.8844   6.2517   0.00    0.0
2158 455449.000   22.301889721  114.188539936     4.7942   4   2   3.4008   5.1420  11.6449  -3.6157  -6.8799   6.2540   0.00    0.0
2158 455450.000   22.301831015  114.188487762     4.0072   4   3   3.2854   4.9722  11.2344  -3.4469  -6.5717   6.0356   0.00    0.0
2158 455451.000   22.301772160  114.188434112     2.1061   4   3   3.3484   3.8330  11.4508  -3.5557  -6.5936   6.1599   0.00    0.0
2158 455452.000   22.301720247  114.188377894     1.0432   4   2   3.3794   4.8895  11.5691  -3.5681  -6.7622   6.2165   0.00    0.0
2158 455454.000   22.301635025  114.188256621     1.7680   4   2   3.8811   5.7334  13.3374  -4.1481  -7.8733   7.1622   0.00    0.0
2158 455458.000   22.301452091  114.187884028    32.8488   4   2   2.3468   3.4425   9.3919   0.8686  -4.0194   2.5008   0.00    0.0
2158 455459.000   22.301395914  114.187765523    38.6373   4   3   2.2113   3.2174   8.2603   0.7261  -3.8076   2.4092   0.00    0.0
2158 455460.000   22.301389564  114.187753286    29.4491   4   2   2.1803   3.2784   8.7488   1.0479  -3.7543   2.3729   0.00    0.0
2158 455464.000   22.301376461  114.187726781     6.0746   4   3   4.8504   5.6271  12.5800  -4.3923  -7.4971   6.6976   0.00    0.0
2158 455465.000   22.301377109  114.187719280     5.5694   4   3   4.1438   4.7537  10.3134  -3.9230  -6.3591   5.7592   0.00    0.0
2158 455466.000   22.301379539  114.187718845     4.6368   4   2   4.2630   4.8108  11.3587  -4.1871  -6.5659   5.9835   0.00    0.0
2158 455467.000   22.301390243  114.187728219     1.3647   4   2   4.7038   5.3654  13.2998  -4.5093  -7.6095   6.9260   0.00    0.0
2158 455468.000   22.301360210  114.187749544    -6.8167   4   2   4.7105   5.3057  13.5899  -4.7627  -7.8060   7.1993   0.00    0.0
2158 455469.000   22.301356366  114.187751049    -6.9814   4   3   4.5757   5.1193  12.7946  -4.6488  -7.4391   6.8861   0.00    0.0
2158 455470.000   22.301368098  114.187736090    -1.7764   4   3   4.3617   4.8151   9.9251  -4.4151  -6.5244   6.1245   0.00    0.0
2158 455471.000   22.301359488  114.187745900    -3.7672   4   2   4.1180   4.5102   8.8277  -4.1556  -5.8486   5.4916   0.00    0.0
2158 455472.000   22.301344837  114.187762839    -7.5861   4   3   3.9073   4.2704   7.9971  -3.9424  -5.4980   5.1820   0.00    0.0
2158 455473.000   22.301350069  114.187755810    -7.1922   4   2   3.7716   4.1034   8.0747  -3.8011  -5.1827   4.8544   0.00    0.0
2158 455474.000   22.301343250  114.187758598    -5.9025   4   2   3.7280   4.0696   9.3713  -3.7727  -5.3840   4.9939   0.00    0.0
2158 455475.000   22.301320353  114.187778184    -8.4992   4   2   3.8745   4.2488  10.5640  -3.9499  -5.9306   5.5042   0.00    0.0
2158 455480.000   22.301408851  114.187679494    18.4887   4   2   4.9942   5.6572  13.8227  -4.4087  -7.9739   7.1488   0.00    0.0
2158 455481.000   22.301425002  114.187658700    31.8911   4   3   4.4489   4.7484  11.9600  -3.6873  -6.9894   6.0841   0.00    0.0
2158 455482.000   22.301438549  114.187721933    18.8011   4   2   3.3867   4.2897  11.3257  -2.4987  -5.8900   4.8242   0.00    0.0
2158 455484.000   22.301498184  114.187864216    12.4329   4   2   2.9802   4.0120  10.7243  -1.7635  -5.1568   3.9341   0.00    0.0
2158 455485.000   22.301551704  114.187971424    12.3692   4   2   2.7075   3.6707   9.4967  -1.4647  -4.5837   3.4729   0.00    0.0
2158 455486.000   22.301588743  114.188040509    14.7773   4   2   2.5506   3.5182   8.9737  -1.0675  -4.2379   3.1409   0.00    0.0
2158 455487.000   22.301613125  114.188078143    19.3620   4   2   2.4237   3.3926   8.6595  -0.6960  -3.9916   2.8972   0.00    0.0
2158 455488.000   22.301622030  114.188074300    32.1531   4   2   2.3231   3.3023   8.4155   0.1188  -3.8085   2.7037   0.00    0.0
2158 455494.000   22.301820469  114.188353675    24.7509   4   3   2.2737   3.3034   8.9357   0.9240  -3.6342   2.5344   0.00    0.0
2158 455495.000   22.301825929  114.188283668    23.4645   4   2   3.2961   4.7851  11.0000  -3.0457  -6.1146   5.3234   0.00    0.0
2158 455496.000   22.301794578  114.188238016    12.8148   4   2   4.1625   5.5951  13.3778  -4.1542  -7.7456   7.0809   0.00    0.0
2158 455497.000   22.301774496  114.188231398     5.7812   4   2   4.4710   5.6450  13.5316  -4.2911  -7.8502   7.1774   0.00    0.0
2158 455498.000   22.301771472  114.188240261     3.9726   4   2   4.1128   5.5349  13.2220  -4.1450  -7.6943   7.0688   0.00    0.0
2158 455499.000   22.301764283  114.188232101     1.3102   4   3   3.9621   5.2791  12.9148  -4.0195  -7.4948   6.9010   0.00    0.0
2158 455500.000   22.301760232  114.188262335    -0.7119   4   3   1.8437   2.6879   6.1069   0.3587  -1.7838   2.8668   0.00    0.0
2158 455501.000   22.301774183  114.188264446     5.0895   4   3   1.8296   2.3481   5.8792   0.5986  -0.9660   2.8694   0.00    0.0
2158 455502.000   22.301783220  114.188275174     8.0596   4   3   1.7593   2.2983   5.5385   0.6332  -0.7369   2.7437   0.00    0.0
2158 455503.000   22.301785747  114.188277404     8.7713   4   3   1.7033   2.2655   5.2967   0.6487  -0.5620   2.6533   0.00    0.0
2158 455504.000   22.301784710  114.188272175     8.4028   4   3   1.6596   2.2465   5.1112   0.6849  -0.1651   2.5865   0.00    0.0
2158 455505.000   22.301786567  114.188272195     8.9909   4   3   1.6274   2.2303   4.9781   0.7308   0.5541   2.5430   0.00    0.0
2158 455506.000   22.301782803  114.188257592     7.8040   4   2   1.6920   2.6796   5.2828  -0.4764  -1.5623   2.7233   0.00    0.0
2158 455507.000   22.301787936  114.188267306     9.3182   4   2   2.1460   3.7751   7.0967  -1.9435  -3.8823   3.7126   0.00    0.0
2158 455508.000   22.301802662  114.188313907    13.5643   4   2   2.7289   4.5162   9.2185  -2.8251  -5.4470   4.8782   0.00    0.0
2158 455509.000   22.301814493  114.188287753    18.1370   4   2   3.1394   4.8521  10.6449  -3.2786  -6.2548   5.6692   0.00    0.0
2158 455510.000   22.301821697  114.188263708    21.0420   4   2   3.3182   4.9648  11.2577  -3.4483  -6.5567   6.0122   0.00    0.0
2158 455511.000   22.301822191  114.188234491    21.6518   4   2   3.3602   4.9894  11.4104  -3.4875  -6.6278   6.0989   0.00    0.0
2158 455512.000   22.301822020  114.188219803    21.7178   4   2   3.3570   4.9882  11.4160  -3.4865  -6.6285   6.1019   0.00    0.0
2158 455513.000   22.301825795  114.188231288    22.6991   4   2   3.3511   4.9856  11.4176  -3.4832  -6.6264   6.1009   0.00    0.0
2158 455514.000   22.301829720  114.188239662    23.8579   4   2   3.3536   4.9900  11.4508  -3.4887  -6.6411   6.1161   0.00    0.0
2158 455515.000   22.301830548  114.188233869    24.1931   4   2   3.3614   5.0000  11.5022  -3.5004  -6.6674   6.1409   0.00    0.0
2158 455516.000   22.301834177  114.188233708    25.4177   4   2   3.3689   5.0100  11.5495  -3.5119  -6.6926   6.1639   0.00    0.0
2158 455517.000   22.301834345  114.188238727    25.3085   4   2   3.3728   5.0162  11.5805  -3.5190  -6.7088   6.1788   0.00    0.0
2158 455518.000   22.301806224  114.188285395    14.1977   4   3   1.5521   2.2573   4.7762   1.0113   1.5022   2.5729   0.00    0.0
2158 455519.000   22.301799656  114.188288643    11.7777   4   2   2.0662   3.5907   6.9861  -1.7493  -3.5575   3.6903   0.00    0.0
2158 455520.000   22.301807077  114.188274359    14.8007   4   3   1.5454   2.0636   4.7469   1.0431   1.6615   2.5718   0.00    0.0
2158 455521.000   22.301809863  114.188276115    15.7356   4   3   1.4676   2.0527   4.4758   0.9923   1.5552   2.4237   0.00    0.0
2158 455522.000   22.301810931  114.188275665    16.1459   4   3   1.4347   2.0577   4.3568   0.9933   1.5565   2.3624   0.00    0.0
2158 455523.000   22.301812246  114.188275349    16.5959   4   3   1.4175   2.0572   4.2929   1.0072   1.5882   2.3321   0.00    0.0
2158 455524.000   22.301815373  114.188277639    16.9703   4   3   1.4087   2.0465   4.2613   1.0215   1.6243   2.3192   0.00    0.0
2158 455525.000   22.301822910  114.188284840    17.1905   4   3   1.4034   2.0294   4.2442   1.0329   1.6557   2.3135   0.00    0.0
2158 455526.000   22.301839970  114.188298791    17.7640   4   2   1.5057   2.5366   4.7279   0.4767  -0.6509   2.5513   0.00    0.0
2158 455527.000   22.301864902  114.188316461    18.5794   4   2   2.0325   3.7177   6.8657  -1.8682  -3.7352   3.6502   0.00    0.0
2158 455528.000   22.301897715  114.188342601    19.5338   4   2   2.6541   4.4807   9.1533  -2.7863  -5.3935   4.8655   0.00    0.0
2158 455529.000   22.301937520  114.188372788    20.7431   4   2   3.0714   4.8133  10.6206  -3.2381  -6.2100   5.6582   0.00    0.0
2158 455530.000   22.301976515  114.188389526    19.4984   4   2   3.2479   4.9210  11.2299  -3.4017  -6.5045   5.9903   0.00    0.0
2158 455531.000   22.302023502  114.188415004    18.5818   4   2   3.2902   4.9443  11.3776  -3.4392  -6.5721   6.0711   0.00    0.0
2158 455533.000   22.302130124  114.188476988    17.0854   4   2   3.7659   5.5034  13.0722  -3.9605  -7.5488   6.9756   0.00    0.0
2158 455571.000   22.302679793  114.188600842   -15.5104   4   2   4.9036   5.5056  13.6004  -4.3580  -7.6442   7.0325   0.00    0.0
2158 455572.000   22.302752557  114.188562740    -8.8266   4   2   4.3201   4.8028  11.3421  -3.6599  -6.3052   5.7950   0.00    0.0
2158 455574.000   22.302890946  114.188458215    -5.7036   4   2   5.0091   5.7930  14.3658  -4.5007  -8.1260   7.4574   0.00    0.0
2158 455575.004   22.302931366  114.188392203    -4.7603   4   3   5.2670   8.0051  16.1442   1.5802   1.2917   8.7576   0.00    0.0
2158 455580.000   22.303158333  114.188164724    -7.2637   4   2   4.7607   5.4068  13.2735  -4.0775  -7.3862   6.7333   0.00    0.0
2158 455581.000   22.303250258  114.188019769     4.9727   4   2   3.7012   4.4488  10.9751  -2.8621  -5.8551   5.2162   0.00    0.0
2158 455582.000   22.303324906  114.187916790    12.7300   4   3   3.1883   4.0153  10.3358  -2.1726  -5.2643   4.3127   0.00    0.0
2158 455583.000   22.303360097  114.187801344    13.7490   4   2   2.9003   3.7858  10.0956  -1.6197  -4.7554   3.7885   0.00    0.0
2158 455585.000   22.303499477  114.187648403     6.7616   4   2   2.7151   3.6681  10.1071  -1.0883  -4.4962   3.3491   0.00    0.0
2158 455593.000   22.303906877  114.187023461     9.7743   4   2   4.7545   5.3804  13.2667  -4.0578  -7.3565   6.7270   0.00    0.0
2158 455597.000   22.304077616  114.186744490    -2.0307   4   2   4.7526   5.3723  13.2647  -4.0518  -7.3475   6.7250   0.00    0.0
2158 455598.000   22.304162943  114.186665111     4.7472   4   3   3.6817   4.3914  10.8808  -2.8678  -5.8815   5.1664   0.00    0.0
2158 455599.000   22.304169882  114.186590115    20.6428   4   2   4.2052   4.1101  11.4829  -3.1372  -6.2698   5.7262   0.00    0.0
2158 455600.000   22.304178149  114.186630399    18.2783   4   2   4.7347   4.9266  13.2031  -3.9407  -7.4273   6.8527   0.00    0.0
2158 455601.000   22.304207230  114.186628602     9.9255   4   2   4.6656   5.3822  13.5508  -4.1680  -7.6044   7.0246   0.00    0.0
2158 455602.000   22.304235345  114.186604288     4.5010   4   3   4.5044   4.4171  13.2461  -3.7705  -7.3853   6.8428   0.00    0.0
2158 455603.000   22.304263491  114.186568217     6.8109   4   3   2.5260   3.3112   8.1886  -1.2406  -3.9775   2.8032   0.00    0.0
2158 455604.000   22.304266086  114.186566862     2.7036   4   3   2.7247   3.3016   9.5788  -2.5189  -5.3702   4.4640   0.00    0.0
2158 455606.000   22.304305195  114.186528083     1.5217   4   2   4.7960   5.3003  13.3043  -4.1276  -7.4696   6.9153   0.00    0.0
2158 455607.000   22.304318214  114.186481726     8.9816   4   3   4.3220   4.3246  11.9381  -3.4720  -6.6979   6.1083   0.00    0.0
2158 455608.000   22.304346843  114.186435565    16.7173   4   3   2.8112   3.7467  10.0653  -2.4367  -5.7611   4.1342   0.00    0.0
2158 455609.000   22.304359360  114.186401969    20.6733   4   3   2.4245   3.3430   8.8148  -1.9055  -5.0870   3.2110   0.00    0.0
2158 455610.000   22.304367675  114.186374428    24.1722   4   3   2.2841   3.0857   8.0734  -1.6002  -4.6816   2.7202   0.00    0.0
2158 455611.000   22.304370159  114.186345887    28.4302   4   3   2.2890   3.0942   7.7207  -1.0442  -4.1543   2.5739   0.00    0.0
2158 455612.000   22.304370477  114.186319521    32.9284   4   3   2.1117   2.7686   7.2545  -1.1155  -4.1211   2.0720   0.00    0.0
2158 455613.000   22.304373009  114.186303205    35.1710   4   3   2.0230   2.6607   6.9947  -0.9476  -4.0078   1.7639   0.00    0.0
2158 455614.000   22.304383684  114.186308312    32.1513   4   3   1.9434   2.5937   6.8121  -0.7846  -3.9291   1.5054   0.00    0.0
2158 455615.000   22.304390103  114.186314747    29.5718   4   3   1.8708   2.5478   6.6722  -0.6285  -3.8751   1.2743   0.00    0.0
2158 455616.000   22.304389151  114.186311555    30.1193   4   3   1.8062   2.5133   6.5637  -0.4658  -3.8355   1.0533   0.00    0.0
2158 455617.000   22.304385325  114.186304407    31.9113   4   3   1.7496   2.4843   6.4759  -0.2595  -3.8032   0.8217   0.00    0.0
2158 455618.000   22.304376306  114.186283430    37.4895   4   3   1.7007   2.4574   6.4002   0.2498  -3.7734   0.5442   0.00    0.0
2158 455619.000   22.304374411  114.186274171    39.9512   4   2   2.4690   2.5219   6.9196  -1.0246  -3.9862   2.2508   0.00    0.0
2158 455620.000   22.304371885  114.186269722    40.9219   2   4   1.6033   2.3405   6.1045   0.3722  -3.6070   0.1328   0.00    0.0
2158 455621.000   22.304377816  114.186262913    43.0916   4   3   1.5444   2.4648   6.9281  -1.3529  -3.9792   2.3627   0.00    0.0
2158 455622.000   22.304381916  114.186265157    42.3707   4   3   2.1819   2.8772   8.6692  -2.1877  -4.8691   3.9013   0.00    0.0
2158 455623.000   22.304385681  114.186289322    35.2426   2   4   1.4852   2.0897   5.4284   0.3084  -3.2080   0.2902   0.00    0.0
2158 455624.000   22.304393531  114.186299645    32.0048   4   3   1.4362   2.0604   5.3688   0.2892  -3.1729   0.2802   0.00    0.0
2158 455625.000   22.304408196  114.186320644    25.4331   4   2   2.4128   2.3305   6.4892  -0.8680  -3.7382   2.0906   0.00    0.0
2158 455626.000   22.304424772  114.186340951    18.4173   4   2   3.6245   2.7970   8.6388  -2.1404  -4.7758   4.3576   0.00    0.0
2158 455627.000   22.304433012  114.186345542    15.8302   4   3   1.4923   2.3141   6.0301   0.9539  -3.6195  -1.4522   0.00    0.0
2158 455628.000   22.304438502  114.186353074    13.2948   4   3   1.4378   2.2513   5.8769   0.8925  -3.5235  -1.3567   0.00    0.0
2158 455629.000   22.304442885  114.186354571    12.2156   2   4   1.3886   2.1574   5.6375   0.8106  -3.3738  -1.2217   0.00    0.0
2158 455630.000   22.304447138  114.186342476    13.5948   4   3   1.3966   2.2073   5.7667   0.9102  -3.4614  -1.3956   0.00    0.0
2158 455631.000   22.304456073  114.186324462    14.0289   4   2   2.3329   2.3245   6.4901  -0.6028  -3.7633   1.8034   0.00    0.0
2158 455632.000   22.304481079  114.186301560    13.9859   4   3   1.3892   2.2250   5.8084   0.9977  -3.4976  -1.5473   0.00    0.0
2158 455633.000   22.304505873  114.186266340    15.1929   4   2   2.6570   2.3436   6.7014  -0.8967  -3.8409   2.3208   0.00    0.0
2158 455634.000   22.304540682  114.186230589    18.6517   4   2   1.5626   2.5460   6.3769   1.4219  -2.9308  -0.7074   0.00    0.0
2158 455636.000   22.304607438  114.186119185    29.4731   4   2   1.7605   2.9077   7.8410   1.7932  -2.6727   0.8382   0.00    0.0
2158 455637.000   22.304623122  114.186032284    34.0210   4   2   1.6818   2.7518   7.2573   1.6706  -2.4890   0.9629   0.00    0.0
2158 455640.004   22.304824818  114.186102510    40.4400   4   3   7.5508  12.6465  22.7172   9.6801  16.0025  12.5504   0.00    0.0
2158 455642.000   22.304860930  114.185971523    36.0698   4   2   1.7484   2.9096   8.3633   1.8304  -2.6464   0.8043   0.00    0.0
2158 455644.000   22.304847929  114.185759930    77.9118   4   2   1.7436   2.9125   8.0328   1.8423  -2.6742   0.5798   0.00    0.0
2158 455645.000   22.304849381  114.185708299    91.0716   4   2   1.6626   2.7526   7.2951   1.7165  -2.4714   0.7603   0.00    0.0
2158 455646.000   22.304897844  114.185769521    84.8976   4   2   1.6610   2.7560   7.1456   1.7299  -2.4367   0.7356   0.00    0.0
2158 455661.000   22.305476898  114.186190056    86.7565   4   2   4.6036   5.1412  13.0049  -3.8149  -7.0238   6.4992   0.00    0.0
2158 455662.000   22.305485550  114.186157318    83.0340   4   2   3.6164   4.2821  10.8240  -2.6835  -5.6097   5.0803   0.00    0.0
2158 455663.000   22.305498223  114.186117635    88.7962   4   2   3.1461   3.9158  10.3187  -1.9765  -4.9666   4.2582   0.00    0.0
2158 455664.000   22.305521833  114.186097102    91.4271   4   2   3.2579   3.9570  10.4246  -2.1061  -5.0027   4.2867   0.00    0.0
2158 455665.000   22.305529466  114.186039724    86.0922   4   2   4.0672   4.6013  11.7609  -3.2367  -6.1915   5.6611   0.00    0.0
2158 455668.000   22.305508449  114.185927939    59.6590   4   2   5.1843   5.5677  15.0046  -4.4810  -8.2773   7.7561   0.00    0.0
2158 455692.000   22.306095836  114.185292215    41.8656   4   2   4.8561   5.2084  13.5538  -4.0460  -7.3848   6.9557   0.00    0.0
2158 455693.000   22.306092219  114.185255495    43.7323   4   2   4.2632   4.1688  11.2865  -3.2051  -6.1736   5.7641   0.00    0.0
2158 455694.000   22.306093207  114.185220901    46.7483   4   3   4.2754   4.0722  11.7532  -3.1991  -6.4339   5.9345   0.00    0.0
2158 455696.000   22.306118322  114.185129088    50.5125   4   2   5.1109   5.4056  14.7750  -4.3543  -8.0963   7.6260   0.00    0.0
2158 455697.000   22.306123350  114.185054492    59.6370   4   2   2.7789   3.5994   9.7462  -1.4908  -4.4875   3.5633   0.00    0.0
2158 455703.000   22.306344063  114.184999977    68.8237   4   2   2.6361   3.4861   9.5341  -0.5641  -3.9582   2.9866   0.00    0.0
2158 455704.000   22.306327958  114.184929329    65.0406   4   2   2.4558   3.3086   8.5786  -0.0348  -3.6507   2.8817   0.00    0.0
2158 455706.000   22.306320004  114.184879094    60.6648   4   2   2.3858   3.3358   9.4286   0.9179  -3.7122   2.5704   0.00    0.0
2158 455707.000   22.306320917  114.184877430    55.3073   4   2   2.2588   3.1695   8.8163   0.9288  -3.4774   2.4213   0.00    0.0
2158 455708.000   22.306308787  114.184853994    55.9532   4   3   2.1598   3.0512   8.4159   0.9696  -3.4674   2.1462   0.00    0.0
2158 455709.000   22.306304145  114.184845659    55.1931   4   3   1.9570   2.6975   7.6835   0.4171  -3.8233   1.4271   0.00    0.0
2158 455710.000   22.306305099  114.184848210    54.1431   4   3   1.8738   2.5901   7.1755   0.4302  -3.7704   1.1599   0.00    0.0
2158 455711.000   22.306303905  114.184846365    52.8331   4   3   1.8072   2.5092   6.8244   0.4831  -3.6851   0.9748   0.00    0.0
2158 455712.000   22.306304887  114.184849305    51.2949   4   3   1.7523   2.4485   6.5645   0.5493  -3.6181   0.7707   0.00    0.0
2158 455713.000   22.306305204  114.184850370    50.4729   4   3   1.7072   2.4048   6.3852   0.6205  -3.5750   0.4842   0.00    0.0
2158 455714.000   22.306313626  114.184868324    45.1926   4   3   1.7881   2.6247   6.5064   1.0924  -3.2574   1.0072   0.00    0.0
2158 455715.000   22.306321091  114.184884154    40.4562   4   3   1.6454   2.3635   6.3235   0.7794  -3.4678  -0.4279   0.00    0.0
2158 455716.000   22.306327218  114.184897626    36.4501   4   3   1.6072   2.3223   6.2463   0.7966  -3.4775  -0.7590   0.00    0.0
2158 455717.000   22.306329985  114.184903706    34.4945   4   3   1.5778   2.2957   6.1632   0.8298  -3.4667  -0.9249   0.00    0.0
2158 455718.000   22.306333782  114.184912802    31.7920   4   3   1.5526   2.2743   6.0754   0.8631  -3.4507  -1.0417   0.00    0.0
2158 455719.000   22.306332843  114.184911911    31.8997   4   3   1.5304   2.2564   5.9966   0.8948  -3.4350  -1.1353   0.00    0.0
2158 455720.000   22.306330185  114.184907194    33.0308   4   3   1.5104   2.2407   5.9306   0.9236  -3.4212  -1.2150   0.00    0.0
2158 455721.000   22.306336650  114.184921180    29.2551   4   3   1.4919   2.2260   5.8758   0.9489  -3.4089  -1.2836   0.00    0.0
2158 455722.000   22.306344251  114.184937256    24.8573   4   3   1.4745   2.2119   5.8293   0.9707  -3.3972  -1.3428   0.00    0.0
2158 455723.000   22.306350439  114.184950079    21.0688   4   2   1.6086   2.5015   6.1131   1.3382  -3.0199  -0.7809   0.00    0.0
2158 455724.000   22.306358979  114.184960367    17.5198   4   3   1.4462   2.1932   5.7633   1.0160  -3.3848  -1.4517   0.00    0.0
2158 455725.000   22.306361314  114.184943109    19.4731   4   3   1.4289   2.1743   5.7205   1.0235  -3.3656  -1.4810   0.00    0.0
2158 455726.000   22.306363752  114.184912203    21.6235   4   2   2.3138   2.2474   6.3834  -0.2106  -3.6093   1.7312   0.00    0.0
2158 455727.000   22.306387239  114.184873467    23.7399   4   3   1.4097   2.1623   5.6848   1.0641  -3.3616  -1.5718   0.00    0.0
2158 455728.000   22.306421009  114.184854178    18.4537   4   3   1.3923   2.1438   5.6368   1.0646  -3.3380  -1.5811   0.00    0.0
2158 455729.000   22.306469793  114.184859381     6.0263   4   3   1.3808   2.1345   5.6101   1.0752  -3.3285  -1.6063   0.00    0.0
2158 455730.000   22.306505905  114.184837444     0.4089   4   2   1.5333   2.4476   5.9429   1.4188  -2.9276  -1.1263   0.00    0.0
2158 455731.000   22.306525810  114.184787323     0.7433   4   2   1.6613   2.6982   6.6197   1.6714  -2.2623   0.7793   0.00    0.0
2158 455732.000   22.306558909  114.184769887    -2.2001   4   2   1.6575   2.6984   6.8791   1.6835  -2.1761   0.8638   0.00    0.0
2158 455733.000   22.306596215  114.184769124    -8.5356   4   2   1.6568   2.7073   6.9356   1.7012  -2.2201   0.7413   0.00    0.0
2158 455734.000   22.306632310  114.184777426    -9.3632   4   2   1.6554   2.7133   6.9288   1.7161  -2.2196   0.6781   0.00    0.0
2158 455735.000   22.306654096  114.184768854    -6.9169   4   2   1.6498   2.7102   6.9202   1.7226  -2.2034   0.6427   0.00    0.0
2158 455736.000   22.306669716  114.184760508    -3.2209   4   2   1.6443   2.7070   6.9202   1.7285  -2.1946   0.5943   0.00    0.0
2158 455737.000   22.306672131  114.184733539    -0.3265   4   2   1.6394   2.7046   6.9220   1.7345  -2.1891   0.5381   0.00    0.0
2158 455738.000   22.306670974  114.184709273     8.2271   4   2   1.6344   2.7018   6.9202   1.7398  -2.1811   0.4848   0.00    0.0
2158 455739.000   22.306658946  114.184669707    23.2810   4   2   1.6296   2.6987   6.9144   1.7445  -2.1707   0.4350   0.00    0.0
2158 455740.000   22.306641398  114.184627959    34.4943   4   2   1.6249   2.6957   6.9064   1.7489  -2.1597   0.3841   0.00    0.0
2158 455741.000   22.306626231  114.184597754    43.2168   4   2   1.6204   2.6928   6.8983   1.7531  -2.1490   0.3282   0.00    0.0
2158 455744.000   22.306629000  114.184603077    50.6554   4   2   1.7069   2.8714   8.1542   1.9079  -2.4316  -0.7616   0.00    0.0
2158 455745.000   22.306633063  114.184610701    51.4375   4   3   1.5962   2.6539   6.8393   1.7340  -1.9133   0.7075   0.00    0.0
2158 455746.000   22.306639718  114.184623704    52.7818   4   2   1.6175   2.7026   6.8102   1.7801  -2.0718   0.2997   0.00    0.0
2158 455747.000   22.306646398  114.184636627    56.9305   4   3   1.3423   2.1343   5.5409   1.3036   1.4913   1.8872   0.00    0.0
2158 455748.000   22.306646225  114.184635545    56.6078   4   3   1.3218   2.0987   5.0905   1.2782   1.5274   1.8834   0.00    0.0
2158 455749.000   22.306642703  114.184628888    55.9755   4   2   1.4310   2.3328   5.1651   1.4890   0.7964   1.6005   0.00    0.0
2158 455750.000   22.306638458  114.184619959    54.6822   4   3   1.5483   2.5815   5.8378   1.7014  -1.5760   0.9086   0.00    0.0
2158 455751.000   22.306635855  114.184614624    53.6871   4   2   1.5849   2.6622   6.5053   1.7714  -2.0565  -0.3879   0.00    0.0
2158 455752.000   22.306627220  114.184597805    50.3539   4   2   1.5854   2.6675   6.7628   1.7800  -2.0842  -0.4956   0.00    0.0
2158 455754.000   22.306607966  114.184560467    39.8142   4   2   1.6605   2.8181   7.6571   1.9076  -2.2494  -0.8020   0.00    0.0
2158 455755.000   22.306601453  114.184547449    37.1143   4   2   1.5835   2.6714   6.9667   1.7918  -2.0843  -0.5754   0.00    0.0
2158 455756.000   22.306598438  114.184541251    36.1637   4   2   1.5854   2.6782   6.8019   1.8016  -2.0378  -0.5249   0.00    0.0
2158 455757.000   22.306594236  114.184532225    37.4844   4   2   1.5776   2.6666   6.8056   1.7959  -2.0292  -0.5448   0.00    0.0
2158 455758.000   22.306586231  114.184516034    42.7790   4   2   1.5736   2.6622   6.8269   1.7959  -2.0268  -0.5744   0.00    0.0
2158 455759.000   22.306577532  114.184498031    47.6682   4   2   1.5715   2.6612   6.8261   1.7986  -2.0207  -0.5957   0.00    0.0
2158 455760.000   22.306569027  114.184480932    49.4325   4   2   1.5689   2.6593   6.8117   1.8005  -2.0118  -0.6106   0.00    0.0
2158 455761.000   22.306562388  114.184467396    48.8428   4   3   1.5360   2.5975   6.5632   1.7538  -1.7374   0.3906   0.00    0.0
2158 455762.000   22.306566262  114.184474081    47.8414   4   2   1.5603   2.6485   6.7082   1.7982  -1.9428  -0.5444   0.00    0.0
2158 455763.000   22.306568761  114.184478322    46.3377   4   2   1.5618   2.6544   6.7668   1.8060  -1.9865  -0.6514   0.00    0.0
2158 455764.000   22.306567901  114.184476536    45.1980   4   2   1.5596   2.6528   6.7793   1.8078  -1.9832  -0.6713   0.00    0.0
2158 455765.000   22.306563671  114.184468116    42.6806   4   2   1.5576   2.6515   6.7757   1.8096  -1.9755  -0.6834   0.00    0.0
2158 455766.000   22.306561397  114.184463018    40.3637   4   2   1.5557   2.6503   6.7697   1.8114  -1.9695  -0.6973   0.00    0.0
2158 455768.000   22.306556934  114.184454296    36.7370   4   2   1.6315   2.7986   7.6221   1.9332  -2.1623  -0.9720   0.00    0.0
2158 455769.000   22.306554344  114.184448909    35.3948   4   2   1.5539   2.6517   6.9308   1.8180  -1.9952  -0.7799   0.00    0.0
2158 455775.000   22.306546203  114.184433587    27.2255   4   2   1.6467   2.8262   8.1332   1.9635  -2.2421  -1.1606   0.00    0.0
2158 455776.000   22.306542055  114.184425435    25.2420   4   2   1.6130   2.7695   7.5396   1.9185  -2.0926  -0.9588   0.00    0.0
2158 455777.000   22.306540326  114.184421553    25.2664   4   2   1.5987   2.7444   7.8030   1.9007  -2.1658  -1.0555   0.00    0.0
2158 455778.000   22.306568983  114.184477520    27.9655   4   2   1.5826   2.7148   7.6780   1.8797  -2.1314  -1.0379   0.00    0.0
2158 455779.000   22.306594422  114.184526374    30.8871   4   2   1.5622   2.6772   7.4962   1.8521  -2.0852  -1.0056   0.00    0.0
2158 455780.000   22.306606001  114.184549122    37.3986   4   2   1.5485   2.6525   7.3191   1.8347  -2.0422  -0.9736   0.00    0.0
2158 455781.000   22.306616456  114.184569848    44.4226   4   2   1.5431   2.6441   7.1528   1.8301  -2.0008  -0.9404   0.00    0.0
2158 455782.000   22.306618418  114.184574571    48.9137   4   2   1.5405   2.6411   7.0051   1.8297  -1.9623  -0.9083   0.00    0.0
2158 455783.000   22.306622111  114.184582104    52.3160   4   2   1.5382   2.6386   6.8857   1.8297  -1.9301  -0.8819   0.00    0.0
2158 455784.000   22.306618172  114.184575146    57.3417   4   2   1.5361   2.6366   6.8012   1.8299  -1.9063  -0.8645   0.00    0.0
2158 455785.000   22.306618369  114.184576793    61.1229   4   2   1.5343   2.6351   6.7504   1.8306  -1.8907  -0.8567   0.00    0.0
2158 455786.000   22.306618977  114.184578783    63.4224   4   2   1.5328   2.6340   6.7255   1.8315  -1.8812  -0.8565   0.00    0.0
2158 455799.000   22.306639528  114.184516486    93.7830   4   2   1.6288   2.8096   8.0472   1.9767  -2.1362  -1.2503   0.00    0.0
2158 455800.000   22.306648382  114.184465146    96.1736   4   2   1.5682   2.7016   7.0553   1.8913  -1.8840  -0.9558   0.00    0.0
2158 455802.000   22.306643240  114.184298987    70.8772   4   2   1.6264   2.8121   8.1426   1.9805  -2.1620  -1.2654   0.00    0.0
2158 455803.000   22.306667898  114.184260807    59.4789   4   2   1.5608   2.6898   7.6189   1.8856  -2.0367  -1.1425   0.00    0.0
2158 455815.000   22.307168779  114.184264159    84.3541   4   2   4.5231   4.8605  12.9285  -3.5828  -6.6785   6.4150   0.00    0.0
2158 455816.000   22.307212088  114.184314880    78.0225   4   3   3.5534   3.9621  10.7159  -2.4735  -5.3678   4.9916   0.00    0.0
2158 455817.000   22.307253091  114.184353232    76.0597   4   3   3.0024   3.4689   9.6669  -2.0141  -5.0923   3.8619   0.00    0.0
2158 455818.000   22.307293388  114.184403699    67.2040   4   2   2.7551   3.4078   9.0954  -1.4061  -4.5646   3.2810   0.00    0.0
2158 455833.000   22.307523662  114.184507827   109.0350   4   2   4.7975   4.8840  13.6651  -3.8210  -7.1478   6.9671   0.00    0.0
2158 455835.000   22.307494247  114.184499386   111.8873   4   2   4.9207   5.0136  14.2276  -3.9777  -7.4537   7.2694   0.00    0.0
2158 455838.000   22.307401136  114.184591419    73.5464   4   2   4.6825   4.3564  13.5027  -3.5221  -7.0153   6.8649   0.00    0.0
2158 455839.000   22.307406307  114.184584145    75.4441   4   2   4.1451   3.6687  11.2417  -2.8390  -5.8677   5.6910   0.00    0.0
2158 455840.000   22.307401064  114.184571239    78.3967   4   2   4.2958   3.7249  12.0164  -2.9902  -6.2571   6.0939   0.00    0.0
2158 455844.000   22.307461308  114.184702079    42.5848   4   2   4.6577   4.0121  13.6578  -3.3734  -7.0599   6.9350   0.00    0.0
2158 455848.000   22.307423845  114.184755890    22.4072   4   2   4.6480   3.9565  13.6551  -3.3426  -7.0465   6.9306   0.00    0.0
2158 455850.000   22.307426903  114.184764334    20.1900   4   2   4.7636   4.0643  14.2101  -3.4899  -7.3350   7.2238   0.00    0.0
2158 455851.000   22.307404978  114.184772937    15.7556   4   2   4.5534   3.8524  13.4746  -3.2929  -6.9547   6.8495   0.00    0.0
2158 455852.000   22.307393032  114.184748072    22.4637   4   2   4.4792   3.7679  13.2402  -3.2252  -6.8289   6.7318   0.00    0.0
2158 455853.000   22.307396198  114.184734123    27.1566   4   2   4.3934   3.6719  12.9487  -3.1451  -6.6732   6.5879   0.00    0.0
2158 455854.000   22.307398841  114.184721346    31.4340   4   2   4.3217   3.5715  12.6182  -3.0461  -6.4985   6.4223   0.00    0.0
2158 455855.000   22.307404238  114.184701324    38.2071   4   2   4.2587   3.4787  12.3038  -2.9484  -6.3334   6.2619   0.00    0.0
2158 455861.000   22.307327421  114.184724296    24.0503   4   2   4.5867   3.7587  13.4941  -3.2080  -6.9266   6.8374   0.00    0.0
2158 455863.000   22.307324723  114.184736674    19.8246   4   2   4.4961   3.6523  13.0903  -3.0903  -6.7222   6.6282   0.00    0.0
2158 455864.000   22.307314831  114.184745929    16.0581   4   2   4.4984   3.6688  13.2013  -3.1285  -6.7768   6.6899   0.00    0.0
2158 455865.000   22.307324296  114.184740374    18.6172   4   2   4.5138   3.7205  13.4720  -3.2223  -6.9094   6.8385   0.00    0.0
2158 455866.000   22.307337524  114.184760880    13.3859   4   2   4.4413   3.6582  13.2759  -3.1792  -6.8041   6.7457   0.00    0.0
2158 455867.000   22.307336766  114.184787826     4.8430   4   2   4.3625   3.5586  12.9124  -3.0759  -6.6147   6.5636   0.00    0.0
2158 455868.000   22.307391067  114.184761277    18.0298   4   2   4.2886   3.4588  12.5390  -2.9651  -6.4211   6.3735   0.00    0.0
2158 455869.000   22.307430652  114.184728789    31.7981   4   2   4.2220   3.3707  12.2095  -2.8664  -6.2504   6.2045   0.00    0.0
2158 455870.000   22.307485633  114.184681082    51.7018   4   2   4.1682   3.2985  11.9418  -2.7850  -6.1115   6.0669   0.00    0.0
2158 455871.000   22.307531753  114.184639644    68.9560   4   2   4.1282   3.2432  11.7407  -2.7227  -6.0066   5.9635   0.00    0.0
2158 455872.000   22.307572423  114.184593815    87.1565   4   2   4.1009   3.2039  11.6029  -2.6788  -5.9341   5.8927   0.00    0.0
2158 455873.000   22.307590830  114.184554227   101.3826   4   2   4.0838   3.1780  11.5188  -2.6507  -5.8889   5.8493   0.00    0.0
2158 455874.000   22.307601792  114.184545742   105.2205   4   2   4.0743   3.1622  11.4740  -2.6341  -5.8639   5.8260   0.00    0.0
2158 455875.000   22.307601445  114.184570789    97.5375   4   2   4.0695   3.1525  11.4535  -2.6249  -5.8513   5.8150   0.00    0.0
2158 455876.000   22.307575545  114.184592351    88.5974   4   2   4.0669   3.1461  11.4451  -2.6193  -5.8449   5.8103   0.00    0.0
2158 455877.000   22.307530621  114.184629691    72.9968   4   2   4.0652   3.1409  11.4411  -2.6150  -5.8408   5.8078   0.00    0.0
2158 455878.000   22.307519708  114.184664461    61.1980   4   2   4.0637   3.1361  11.4379  -2.6111  -5.8370   5.8056   0.00    0.0
2158 455879.000   22.307521282  114.184689642    53.5813   4   2   4.0621   3.1314  11.4345  -2.6072  -5.8332   5.8034   0.00    0.0
2158 455880.000   22.307519836  114.184711637    46.6299   4   2   4.0606   3.1269  11.4313  -2.6034  -5.8295   5.8013   0.00    0.0
2158 455881.000   22.307510505  114.184720662    43.0043   4   2   4.0593   3.1226  11.4287  -2.5999  -5.8260   5.7995   0.00    0.0
2158 455882.000   22.307474881  114.184753126    29.6317   4   2   4.0580   3.1187  11.4269  -2.5966  -5.8230   5.7981   0.00    0.0
2158 455883.000   22.307476088  114.184760697    27.3932   4   2   4.0570   3.1150  11.4256  -2.5936  -5.8203   5.7970   0.00    0.0
2158 455884.000   22.307507477  114.184741147    36.4272   4   2   4.0560   3.1115  11.4249  -2.5907  -5.8178   5.7961   0.00    0.0
2158 455891.000   22.307732900  114.184837668    51.7295   4   2   4.5018   4.7548  13.0174  -3.4961  -6.5732   6.4313   0.00    0.0
2158 455892.000   22.307804010  114.184882743    54.5674   4   2   4.4015   4.5599  11.8772  -3.4100  -6.0520   6.1161   0.00    0.0
2158 455893.000   22.307821222  114.184948080    44.6302   4   2   3.1018   3.6800  10.3631  -1.7202  -4.5450   4.1102   0.00    0.0
2158 455895.000   22.307822109  114.184996466    61.5431   4   2   4.5510   4.8012  13.3433  -3.5688  -6.7348   6.5933   0.00    0.0
2158 455896.000   22.307811113  114.184962495    78.4822   4   2   4.2611   4.4874  12.2414  -3.3167  -6.2257   6.1095   0.00    0.0
2158 455897.000   22.307803782  114.184950619    85.9793   4   2   4.1541   4.3845  11.7655  -3.1714  -5.9527   5.8276   0.00    0.0
2158 455898.000   22.307829273  114.184902812    91.9520   4   2   3.0100   3.6307  10.4145  -1.7617  -4.7207   4.3289   0.00    0.0
2158 455899.000   22.307850142  114.184880291   103.6201   4   2   3.0815   3.5605   9.6186  -1.7416  -4.3024   3.9582   0.00    0.0
2158 455900.000   22.307814809  114.184888901   100.3421   4   2   2.5877   3.2816   8.9841  -0.8638  -3.7998   3.3542   0.00    0.0
2158 455901.000   22.307802955  114.184922208    96.0794   4   2   2.4307   3.1659   8.5105   0.1212  -3.4742   2.9836   0.00    0.0
2158 455902.000   22.307799285  114.184974597    79.9549   4   2   2.3256   3.0862   8.1478   0.7143  -3.2196   2.6886   0.00    0.0
2158 455903.000   22.307793411  114.185029334    58.4492   4   2   2.2419   3.0255   7.8760   0.9411  -3.0168   2.4416   0.00    0.0
2158 455904.000   22.307757360  114.185036876    48.6788   4   2   2.1722   2.9778   7.6803   1.0871  -2.8585   2.2375   0.00    0.0
2158 455911.000   22.307496065  114.185530076    40.2149   4   2   4.5891   4.7923  13.1381  -3.5778  -6.6502   6.5655   0.00    0.0
2158 455913.000   22.307488258  114.185697815    17.1013   4   2   3.5823   4.0567  11.4260  -2.3593  -5.2924   5.0002   0.00    0.0
2158 455914.000   22.307432789  114.185675873    26.2525   4   2   3.0998   3.6887  10.3649  -1.6598  -4.5241   4.1291   0.00    0.0
2158 455916.000   22.307343669  114.185732449    32.0438   4   2   2.8273   3.5110  10.0842  -1.0362  -4.0675   3.4904   0.00    0.0
2158 455917.000   22.307324266  114.185772135    28.8289   4   2   3.2842   3.6552   9.7005  -1.9954  -4.4004   4.1494   0.00    0.0
2158 455918.000   22.307269965  114.185827756    24.7123   4   2   2.5355   3.2335   8.7851  -0.5944  -3.5848   3.0996   0.00    0.0
2158 455921.000   22.307170791  114.186073294    14.9801   4   2   2.4464   3.2662   9.2932   0.9117  -3.4074   2.6519   0.00    0.0
2158 455922.000   22.307128617  114.186124188     8.0651   4   3   2.2718   3.0249   8.0046   0.8114  -3.2243   2.4458   0.00    0.0
2158 455923.000   22.307108231  114.186205376     2.0355   4   3   2.0472   2.5427   7.4359  -0.4533  -3.4915   1.9074   0.00    0.0
2158 455924.000   22.307078423  114.186257684     3.8388   4   3   1.9721   2.4614   7.0157   0.0890  -3.5251   1.5565   0.00    0.0
2158 455925.000   22.307044138  114.186286316     8.6873   4   3   1.9082   2.4048   6.6916   0.4411  -3.4896   1.2962   0.00    0.0
2158 455926.000   22.307009814  114.186295853    12.8246   4   2   1.9414   2.6225   6.6603   1.0071  -3.1417   1.4620   0.00    0.0
2158 455927.000   22.307002054  114.186336669    20.3996   4   2   1.9780   2.8366   7.0202   1.3424  -2.5376   1.7916   0.00    0.0
2158 455929.000   22.306966479  114.186319879    32.3985   4   2   2.0143   2.9725   8.0000   1.5605  -2.5087   1.5322   0.00    0.0
2158 455930.000   22.306956163  114.186304278    40.0742   4   2   1.9230   2.8252   7.3718   1.4592  -2.3935   1.5486   0.00    0.0
2158 455931.000   22.306948619  114.186292184    45.9068   4   3   1.8731   2.7705   6.9838   1.4468  -2.1250   1.6540   0.00    0.0
2158 456000.000   22.306858244  114.186373979    53.2478   4   2   4.5374   4.6461  13.1130  -3.4423  -6.4562   6.5164   0.00    0.0
2158 456001.000   22.306859515  114.186385783    62.2191   4   3   3.5029   3.8541  10.6534  -2.3296  -4.9513   5.0241   0.00    0.0
2158 456002.000   22.306868283  114.186407287    69.0283   4   3   2.9416   3.3057   9.2021  -1.8884  -3.5944   4.4782   0.00    0.0
2158 456003.000   22.306875632  114.186419811    71.4953   4   3   2.6183   3.0733   8.1040  -1.5068  -2.7331   4.0820   0.00    0.0
2158 456004.000   22.306884180  114.186435207    74.5960   4   3   2.3886   2.8927   7.4378  -1.2359  -2.2113   3.7571   0.00    0.0
2158 456005.000   22.306889030  114.186439946    75.7980   4   3   2.2126   2.7388   6.9263  -1.0371  -1.8196   3.5041   0.00    0.0
2158 456006.000   22.306895260  114.186449792    77.3565   4   3   2.0733   2.6113   6.5244  -0.8766  -1.4930   3.3030   0.00    0.0
2158 456007.000   22.306906252  114.186470199    79.6539   4   3   2.0557   2.7025   6.4767   0.2887  -1.8013   2.9561   0.00    0.0
2158 456008.000   22.306916211  114.186489593    84.3722   4   3   1.8769   2.4402   6.0924  -0.5527  -0.9647   2.9826   0.00    0.0
2158 456009.000   22.306927872  114.186511750    88.8712   4   2   1.8875   2.7549   6.1410  -0.9759  -1.6130   3.0673   0.00    0.0
2158 456011.000   22.306940111  114.186535512    93.8568   4   3   1.7916   2.5190   5.9357   0.6500   1.4193   2.9445   0.00    0.0
2158 456012.000   22.306945390  114.186543983    96.0089   4   3   1.6898   2.3193   5.5457   0.4308   1.0280   2.7579   0.00    0.0
2158 456013.000   22.306948552  114.186550287    97.6693   4   2   1.7728   2.5248   5.7062   1.0045  -0.8320   2.4406   0.00    0.0
2158 456014.000   22.306946526  114.186553824    98.1161   4   2   1.9026   2.7784   6.5181   1.4321  -2.0720   1.7563   0.00    0.0
2158 456015.000   22.306931646  114.186556200    98.2405   4   2   1.8949   2.7837   6.9410   1.4976  -2.2359   1.4215   0.00    0.0
2158 456041.005   22.306178042  114.187869999     0.7493   4   3   7.5180  17.1318  27.5461   9.3449  18.9497  13.7695   0.00    0.0
2158 456042.005   22.306192157  114.187917521    -1.9167   4   3   8.3880  18.5482  32.3301  11.5305  23.1552  16.1758   0.00    0.0
2158 456043.005   22.306209718  114.187955989    -4.2603   4   3  11.3577  24.7128  44.7685  16.2822  32.5896  22.4031   0.00    0.0
2158 456044.005   22.306212229  114.187964190    -4.7857   4   3   6.6661  14.6797  25.8945   9.2900  18.6441  12.9492   0.00    0.0
2158 456045.005   22.306213770  114.187971200    -5.0155   4   3   6.9630  15.2617  27.2648   9.8428  19.7367  13.6326   0.00    0.0
2158 456046.005   22.306214538  114.187976726    -5.1390   4   3   8.1579  17.7802  32.2209  11.7109  23.4606  16.1087   0.00    0.0
2158 456047.005   22.306215308  114.187980371    -5.1872   4   3  11.2373  24.3723  44.7127  16.3418  32.7145  22.3505   0.00    0.0
2158 456048.005   22.306215655  114.187982356    -5.3072   4   3   6.5488  14.3142  25.8430   9.3712  18.7908  12.9112   0.00    0.0
2158 456049.005   22.306219428  114.187990152    -5.6993   4   3   7.0826  15.2994  27.3049  10.1464  19.6870  13.4738   0.00    0.0
2158 456050.005   22.306218857  114.187989050    -5.4770   4   3   8.1746  17.7335  32.2287  11.8375  23.4691  16.0297   0.00    0.0
2158 456051.005   22.306218146  114.187989269    -5.0893   4   3  11.2143  24.3316  44.7006  16.3853  32.7588  22.3196   0.00    0.0
2158 456052.005   22.306218161  114.187990016    -5.1312   4   3   6.5201  14.2197  25.8341   9.4192  18.8277  12.8745   0.00    0.0
2158 456053.005   22.306219072  114.187993087    -4.7125   4   3   6.8493  14.9340  27.2230   9.9294  19.8695  13.5679   0.00    0.0
2158 456054.005   22.306219800  114.187995820    -4.2700   4   3   8.0656  17.5660  32.1949  11.7576  23.5522  16.0483   0.00    0.0
2158 456055.005   22.306220388  114.187997451    -3.7946   4   3  11.1513  24.2546  44.6993  16.3479  32.7736  22.2830   0.00    0.0
2158 456056.005   22.306219820  114.187996790    -3.7422   4   3   6.4746  14.1411  25.8220   9.4105  18.8649  12.8622   0.00    0.0
2158 456057.005   22.306220401  114.187998778    -3.3189   4   3   6.8093  14.8714  27.2137   9.9214  19.9002  13.5534   0.00    0.0
2158 456058.005   22.306221068  114.187999675    -2.8371   4   3   8.0292  17.5222  32.1890  11.7479  23.5762  16.0299   0.00    0.0
2158 456059.005   22.306221519  114.188001839    -2.3320   4   3  11.1136  24.2312  44.6969  16.3327  32.7921  22.2564   0.00    0.0
2158 456060.005   22.306220863  114.188001607    -2.3011   4   3   6.4435  14.0989  25.8162   9.4044  18.8869  12.8469   0.00    0.0
2158 456061.000   22.306223187  114.188013638    -0.2922   4   3   1.4729   2.4375   5.2049   1.2019   2.4349   2.5504   0.00    0.0
2158 456102.000   22.305824422  114.188063733    87.9157   4   2   4.4752   4.4885  13.0890  -3.2865  -6.2351   6.4575   0.00    0.0
2158 456103.000   22.305825340  114.188062969    94.7781   4   3   3.4671   3.7268  10.6430  -2.1831  -4.9106   4.8780   0.00    0.0
2158 456104.000   22.305810977  114.188035521   100.7719   4   2   4.0351   3.9631  11.2615  -2.7249  -5.3203   5.4859   0.00    0.0
2158 456110.000   22.305824626  114.188028554   101.6575   4   2   4.5241   3.8908  13.5946  -3.0680  -6.4653   6.7823   0.00    0.0
2158 456111.000   22.305825574  114.188020211   103.2904   4   2   4.1815   3.4432  12.1030  -2.6069  -5.7800   6.0271   0.00    0.0
2158 456112.000   22.305839394  114.188034151   100.0386   4   2   4.3436   3.5058  13.1506  -2.8243  -6.2502   6.5605   0.00    0.0
2158 456113.000   22.305837290  114.188043613    96.6445   4   2   4.3547   3.4621  13.3572  -2.8444  -6.3308   6.6648   0.00    0.0
2158 456114.000   22.305836976  114.188061386    91.3744   4   2   2.7750   2.9705   9.1143  -0.9817  -3.9817   3.3702   0.00    0.0
2158 456115.000   22.305847931  114.188069232    90.0686   4   2   2.3259   3.0113   8.9553   0.8305  -3.2341   2.8298   0.00    0.0
2158 456120.000   22.305893692  114.188142505    75.7832   4   2   2.3257   3.1029   8.6839   1.2632  -2.6477   2.0650   0.00    0.0
2158 456123.000   22.305899311  114.188151122    75.7329   4   2   2.2422   3.0726   8.7861   1.3871  -2.5794   1.8980   0.00    0.0
2158 456124.000   22.305907570  114.188163870    73.0980   4   2   2.1590   3.0012   8.3231   1.4205  -2.4440   1.8148   0.00    0.0
2158 456126.000   22.305905491  114.188159596    74.6406   4   2   2.1220   2.9934   8.5160   1.5063  -2.3449   1.5308   0.00    0.0
2158 456127.000   22.305901325  114.188146513    72.4191   4   3   1.9459   2.3087   6.5194   1.0723  -3.3955   0.7599   0.00    0.0
2158 456128.000   22.305908643  114.188157019    70.9001   4   3   1.8304   2.1600   6.3176   0.9334  -3.3016   0.5377   0.00    0.0
2158 456129.000   22.305910787  114.188160009    70.8959   4   3   1.7853   2.1243   6.0967   0.9635  -3.2466  -0.2742   0.00    0.0
2158 456130.000   22.305912805  114.188163592    71.5934   4   2   1.8230   2.4214   6.1744   1.2719  -2.8250   0.7767   0.00    0.0
2158 456132.000   22.305897124  114.188140085    78.9406   4   2   1.9370   2.8925   7.5361   1.6709  -1.9495   1.0300   0.00    0.0
2158 456133.000   22.305897229  114.188142649    80.7886   4   2   1.8440   2.7406   7.0274   1.5541  -1.8216   1.1368   0.00    0.0
2158 456134.000   22.305900800  114.188148762    80.5154   4   2   1.8336   2.7468   6.8590   1.5937  -1.7946   1.0559   0.00    0.0
2158 456135.000   22.305902691  114.188151895    80.1857   4   2   1.8131   2.7314   6.8176   1.6068  -1.7457   0.9717   0.00    0.0
2158 456136.000   22.305900600  114.188149251    81.0335   4   2   1.7947   2.7203   6.8056   1.6199  -1.7029   0.8835   0.00    0.0
2158 456137.000   22.305895497  114.188141665    82.6959   4   2   1.7793   2.7140   6.7875   1.6351  -1.6714   0.7911   0.00    0.0
2158 456138.000   22.305881221  114.188118298    87.7863   4   2   1.7650   2.7077   6.7610   1.6483  -1.6417   0.6997   0.00    0.0
2158 456139.000   22.305883111  114.188123241    88.8085   4   2   1.7518   2.7015   6.7326   1.6598  -1.6102   0.6073   0.00    0.0
2158 456140.000   22.305883892  114.188123598    86.9035   4   2   1.7399   2.6959   6.7065   1.6704  -1.5781   0.5063   0.00    0.0
2158 456141.000   22.305881487  114.188125619    87.1225   4   2   1.7290   2.6907   6.6832   1.6801  -1.5470   0.3860   0.00    0.0
2158 456142.000   22.305876219  114.188131844    81.9735   4   2   1.7190   2.6859   6.6619   1.6889  -1.5173   0.2179   0.00    0.0
2158 456149.000   22.305673274  114.188283501    59.6142   4   2   1.8109   2.8472   7.7945   1.8412  -1.4560  -1.1438   0.00    0.0
