% program   : RTKPOST demo5 b34k
% inp file  : C:\Users\user\Desktop\AAE6102_Laboratory-main\AAE6102_Laboratory-main\GNSS Data\UrbanNav - Medium\20210521.medium-urban.whampoa.ublox.f9p.obs
% inp file  : C:\Users\user\Desktop\AAE6102_Laboratory-main\AAE6102_Laboratory-main\GNSS Data\UrbanNav - Medium\hksc141g.21o
% inp file  : C:\Users\user\Desktop\AAE6102_Laboratory-main\AAE6102_Laboratory-main\GNSS Data\UrbanNav - Medium\hksc141g.21n
% obs start : 2021/05/21 06:29:02.0 GPST (week2158 455342.0s)
% obs end   : 2021/05/21 06:54:39.0 GPST (week2158 456879.0s)
% pos mode  : Kinematic
% freqs     : L1
% solution  : Forward
% elev mask : 10.0 deg
% dynamics  : on
% tidecorr  : off
% ionos opt : Broadcast
% tropo opt : Saastamoinen
% ephemeris : Broadcast
% navi sys  : GPS GLONASS Galileo QZSS BDS NavIC SBAS
% amb res   : Fix and Hold
% amb glo   : Fix and Hold
% val thres : 3.0
% antenna1  :                       ( 0.0000  0.0000  0.0000)
% antenna2  :                       ( 0.0000  0.0000  0.0000)
% ref pos   : 22.322172082  114.141187963    20.2386
%
% (lat/lon/height=WGS84/ellipsoidal,Q=1:fix,2:float,3:sbas,4:dgps,5:single,6:ppp,ns=# of satellites)
%  GPST          latitude(deg) longitude(deg)  height(m)   Q  ns   sdn(m)   sde(m)   sdu(m)  sdne(m)  sdeu(m)  sdun(m) age(s)  ratio
2158 455342.000   22.301565318  114.190306585     3.5893   2   6   2.0701   2.0565   3.9311  -1.1458  -1.4583   0.6605   0.00    0.0
2158 455343.000   22.301565627  114.190306458     3.5575   2   5   1.5032   1.5152   2.8734  -0.8219  -1.0429   0.4899   0.00    0.0
2158 455344.000   22.301565789  114.190306808     3.5941   2   6   1.2379   1.2553   2.3735  -0.6735  -0.8540   0.4072   0.00    0.0
2158 455345.000   22.301566603  114.190306305     3.5909   2   6   1.0584   1.0934   2.0565  -0.5733  -0.7311   0.2902   0.00    0.0
2158 455346.000   22.301566649  114.190306063     3.5205   2   5   0.9527   0.9829   1.8479  -0.5156  -0.6561   0.2744   0.00    0.0
2158 455347.000   22.301566754  114.190305720     3.4719   2   5   0.8734   0.9002   1.6922  -0.4724  -0.6002   0.2596   0.00    0.0
2158 455348.000   22.301567193  114.190302642     3.4860   2   5   0.8111   0.8355   1.5701  -0.4385  -0.5566   0.2466   0.00    0.0
2158 455349.000   22.301567265  114.190295536     3.5377   2   5   0.7606   0.7838   1.4950  -0.4117  -0.5304   0.2444   0.00    0.0
2158 455350.000   22.301567834  114.190284958     3.6050   2   4   0.7303   0.7468   1.4313  -0.4050  -0.5013   0.2226   0.00    0.0
2158 455351.000   22.301571305  114.190272240     3.6646   2   4   0.7037   0.7148   1.3751  -0.3978  -0.4763   0.2038   0.00    0.0
2158 455352.000   22.301580498  114.190261851     3.7548   2   4   0.7021   0.7221   1.4769  -0.4390  -0.6089   0.4288   0.00    0.0
2158 455353.000   22.301591971  114.190254981     3.5570   2   6   0.6401   0.6517   1.2453  -0.3592  -0.4334   0.1901   0.00    0.0
2158 455354.000   22.301604825  114.190247449     3.5539   2   6   0.6141   0.6258   1.1940  -0.3436  -0.4160   0.1849   0.00    0.0
2158 455355.000   22.301618803  114.190239553     3.5277   2   7   0.5865   0.6020   1.1486  -0.3265  -0.4006   0.1804   0.00    0.0
2158 455356.000   22.301634513  114.190231077     3.4689   2   6   0.5651   0.5810   1.1086  -0.3131  -0.3870   0.1744   0.00    0.0
2158 455357.000   22.301655774  114.190220205     3.3460   2   5   0.5476   0.5735   1.0808  -0.3035  -0.3946   0.1742   0.00    0.0
2158 455358.000   22.301684133  114.190206605     3.2949   2   5   0.5309   0.5661   1.0550  -0.2939  -0.3996   0.1700   0.00    0.0
2158 455359.000   22.301717749  114.190191107     3.1520   2   5   0.5157   0.5592   1.0313  -0.2851  -0.4034   0.1660   0.00    0.0
2158 455360.000   22.301756057  114.190173158     3.1101   2   5   0.5016   0.5526   1.0095  -0.2770  -0.4063   0.1622   0.00    0.0
2158 455361.000   22.301798551  114.190152885     3.1509   2   5   0.4886   0.5364   0.9813  -0.2694  -0.3922   0.1583   0.00    0.0
2158 455362.000   22.301845236  114.190130745     3.0909   2   5   0.4766   0.5307   0.9627  -0.2625  -0.3944   0.1550   0.00    0.0
2158 455363.000   22.301895747  114.190106081     3.1744   2   5   0.4654   0.5252   0.9453  -0.2560  -0.3960   0.1517   0.00    0.0
2158 455364.000   22.301948591  114.190080038     3.1595   2   5   0.4549   0.5199   0.9289  -0.2500  -0.3970   0.1486   0.00    0.0
2158 455365.000   22.302000968  114.190053911     3.1253   2   6   0.4452   0.5053   0.9085  -0.2439  -0.3815   0.1488   0.00    0.0
2158 455366.000   22.302052175  114.190029490     2.9699   2   5   0.4362   0.5008   0.8966  -0.2383  -0.3813   0.1489   0.00    0.0
2158 455367.000   22.302102103  114.190004964     2.9153   2   4   0.4301   0.4969   0.8862  -0.2310  -0.3820   0.1419   0.00    0.0
2158 455368.000   22.302150141  114.189980329     2.8925   2   4   0.4242   0.4930   0.8761  -0.2246  -0.3824   0.1368   0.00    0.0
2158 455369.000   22.302195776  114.189953388     2.8657   4   3   0.4493   0.6224   1.3287   0.1058  -0.7292  -0.3771   0.00    0.0
2158 455370.000   22.302237169  114.189923558     2.5662   4   2   1.3176   2.4066   3.1338   1.6954  -2.0166  -1.2880   0.00    0.0
2158 455371.000   22.302266806  114.189884812     1.8020   4   2   3.1059   2.3305   5.8414   2.0957  -3.6436  -3.1791   0.00    0.0
2158 455372.000   22.302281314  114.189840638     1.7359   4   3   2.4886   2.1473   5.5031   1.2348  -3.3866  -1.6684   0.00    0.0
2158 455373.000   22.302294943  114.189800698     0.4442   4   3   1.7013   2.0147   5.2590   0.2275  -3.2055   0.6656   0.00    0.0
2158 455374.000   22.302293007  114.189754081     1.0813   4   3   1.5401   1.8825   4.9482  -0.6806  -3.0003   1.3153   0.00    0.0
2158 455375.000   22.302286891  114.189712298     1.1172   2   4   0.6342   1.4912   3.6518   0.8105  -2.2757  -1.3166   0.00    0.0
2158 455376.000   22.302269673  114.189674064     1.0692   4   3   0.9277   1.6324   4.2043  -0.4526  -2.5648   0.8402   0.00    0.0
2158 455377.000   22.302240599  114.189621637     5.2538   2   4   0.6666   1.5649   3.8996   0.8807  -2.4167  -1.4356   0.00    0.0
2158 455378.000   22.302219769  114.189591154     3.6111   2   5   0.5166   1.1332   2.6763   0.5729  -1.6689  -0.9391   0.00    0.0
2158 455379.000   22.302194343  114.189559336     2.6057   2   5   0.6233   1.0282   2.4041   0.4111  -1.4923  -0.6516   0.00    0.0
2158 455380.000   22.302176571  114.189522721     3.8530   2   5   0.4564   0.9464   2.1506   0.4380  -1.3424  -0.7267   0.00    0.0
2158 455381.000   22.302157150  114.189491150     4.1912   2   4   0.5733   0.9994   2.3875  -0.0941  -1.4642   0.2095   0.00    0.0
2158 455382.000   22.302139272  114.189470831     2.4520   2   5   0.4144   0.7836   1.7419   0.3226  -1.0692  -0.5596   0.00    0.0
2158 455383.000   22.302120559  114.189443326     2.7331   2   5   0.3976   0.7015   1.5512   0.2650  -0.9338  -0.4829   0.00    0.0
2158 455384.000   22.302100050  114.189413199     3.1742   2   5   0.3963   0.6557   1.4534   0.2077  -0.8606  -0.4025   0.00    0.0
2158 455385.000   22.302079009  114.189381876     3.2472   2   5   0.3763   0.6095   1.3319   0.1947  -0.7782  -0.3917   0.00    0.0
2158 455386.000   22.302057138  114.189345478     3.2131   2   4   0.3748   0.5874   1.2548   0.1893  -0.7216  -0.3571   0.00    0.0
2158 455387.000   22.302036598  114.189301243     3.0915   4   2   1.3339   2.1582   1.5657   1.5830  -0.9782   0.2710   0.00    0.0
2158 455388.000   22.302009590  114.189236757     2.0948   4   2   1.8948   3.6702   2.9919   2.3174  -2.4776   0.3867   0.00    0.0
2158 455389.000   22.302001663  114.189193283     0.2869   4   2   3.1218   4.9753   5.5208   3.0757  -3.4357   2.7304   0.00    0.0
2158 455390.000   22.302014229  114.189148175     0.8885   4   2   4.2173   2.7122   7.0377   2.5737   2.0888   5.2080   0.00    0.0
2158 455391.000   22.302057507  114.189097015     5.2238   4   2   4.8833   2.8703   8.1729   2.6372   3.2020   5.9284   0.00    0.0
2158 455392.000   22.302072678  114.189039800     2.5416   4   0   3.3269   2.1957   5.9901  -1.2210  -1.3567   3.5534   0.00    0.0
2158 455393.000   22.302102730  114.188980321     1.0914   4   0   3.1878   2.1919   5.6220  -1.2932  -1.5104   3.2487   0.00    0.0
2158 455395.000   22.302156672  114.188888672     1.9447   4   0   3.7256   2.3290   7.8260  -1.6041  -2.1343   4.4498   0.00    0.0
2158 455396.000   22.302187457  114.188851194     1.8615   4   0   3.3113   2.2012   6.0853  -1.3564  -1.6004   3.5373   0.00    0.0
2158 455397.000   22.302201198  114.188815185     2.9641   4   0   3.3962   2.2210   6.7123  -1.4346  -1.8244   3.8191   0.00    0.0
2158 455398.000   22.302215032  114.188789496     4.4590   4   0   3.4546   2.2200   7.0674  -1.4727  -1.9275   4.0096   0.00    0.0
2158 455399.000   22.302217945  114.188772039     4.7407   4   0   3.4818   2.2216   7.1921  -1.4855  -1.9594   4.0833   0.00    0.0
2158 455400.000   22.302230447  114.188754776     5.9001   4   0   3.4873   2.2221   7.2129  -1.4881  -1.9643   4.0962   0.00    0.0
2158 455401.000   22.302245275  114.188717342    15.2445   4   2   3.2895   2.1102   6.2990  -1.3888  -1.3971   3.6437   0.00    0.0
2158 455402.000   22.302247019  114.188694136    18.4758   2   4   2.6692   1.8884   5.7916  -1.6166  -1.8460   3.2131   0.00    0.0
2158 455403.000   22.302219372  114.188696940    12.2561   2   4   2.0253   1.3991   4.0621  -1.0748  -1.2912   2.3432   0.00    0.0
2158 455404.000   22.302203304  114.188696761    10.5207   2   6   1.7442   1.1808   3.3744  -0.8617  -0.9989   1.9817   0.00    0.0
2158 455405.000   22.302198344  114.188694516    10.3280   2   4   1.5642   1.0327   2.9583  -0.7355  -0.8067   1.7504   0.00    0.0
2158 455406.000   22.302198184  114.188694429    10.2728   2   6   1.4257   0.9253   2.6292  -0.6379  -0.6431   1.5682   0.00    0.0
2158 455407.000   22.302184292  114.188692608     6.9320   2   6   1.2764   0.8489   2.2856  -0.5899  -0.5806   1.3510   0.00    0.0
2158 455408.000   22.302178642  114.188690718     5.7036   2   5   1.1692   0.7919   2.0583  -0.5532  -0.5457   1.2053   0.00    0.0
2158 455409.000   22.302175177  114.188691972     4.5514   2   5   1.0877   0.7488   1.9090  -0.5262  -0.5359   1.1046   0.00    0.0
2158 455410.000   22.302174580  114.188693336     4.1033   2   5   1.0216   0.7123   1.7897  -0.5023  -0.5238   1.0253   0.00    0.0
2158 455411.000   22.302175792  114.188694293     4.1364   2   6   0.9659   0.6803   1.6899  -0.4802  -0.5095   0.9595   0.00    0.0
2158 455412.000   22.302177017  114.188695777     4.2090   2   6   0.9188   0.6525   1.6065  -0.4610  -0.4963   0.9053   0.00    0.0
2158 455413.000   22.302178461  114.188696964     4.3916   2   5   0.8783   0.6281   1.5355  -0.4442  -0.4843   0.8599   0.00    0.0
2158 455414.000   22.302180132  114.188698279     4.6942   2   5   0.8426   0.6062   1.4730  -0.4289  -0.4726   0.8203   0.00    0.0
2158 455415.000   22.302182460  114.188699542     5.1568   2   5   0.8109   0.5865   1.4178  -0.4149  -0.4613   0.7856   0.00    0.0
2158 455416.000   22.302184434  114.188700860     5.5405   2   6   0.7816   0.5681   1.3670  -0.4012  -0.4491   0.7534   0.00    0.0
2158 455417.000   22.302186940  114.188701980     6.0634   2   6   0.7555   0.5515   1.3221  -0.3890  -0.4382   0.7252   0.00    0.0
2158 455418.000   22.302189554  114.188703176     6.6547   2   5   0.7324   0.5366   1.2825  -0.3785  -0.4293   0.7011   0.00    0.0
2158 455419.000   22.302192334  114.188704261     7.2468   2   6   0.7103   0.5224   1.2444  -0.3677  -0.4189   0.6772   0.00    0.0
2158 455420.000   22.302194861  114.188705345     7.8440   2   6   0.6902   0.5093   1.2101  -0.3579  -0.4096   0.6560   0.00    0.0
2158 455421.000   22.302198015  114.188706394     8.5860   2   5   0.6723   0.4975   1.1798  -0.3495  -0.4022   0.6379   0.00    0.0
2158 455422.000   22.302200961  114.188707498     9.2739   2   6   0.6547   0.4860   1.1495  -0.3406  -0.3931   0.6190   0.00    0.0
2158 455423.000   22.302200464  114.188708001     9.0821   2   6   0.6422   0.4753   1.1329  -0.3316  -0.3835   0.6111   0.00    0.0
2158 455424.000   22.302199866  114.188708436     8.8921   2   5   0.6312   0.4657   1.1184  -0.3241  -0.3760   0.6049   0.00    0.0
2158 455425.000   22.302199288  114.188709024     8.6786   2   6   0.6196   0.4561   1.1020  -0.3157  -0.3665   0.5963   0.00    0.0
2158 455426.000   22.302198708  114.188709423     8.4938   2   6   0.6087   0.4472   1.0870  -0.3081  -0.3581   0.5887   0.00    0.0
2158 455427.000   22.302197950  114.188709884     8.3017   2   6   0.5983   0.4387   1.0726  -0.3008  -0.3501   0.5812   0.00    0.0
2158 455428.000   22.302197395  114.188710116     8.1198   2   6   0.5883   0.4307   1.0586  -0.2939  -0.3424   0.5739   0.00    0.0
2158 455429.000   22.302197227  114.188710168     8.0489   2   5   0.5797   0.4235   1.0470  -0.2885  -0.3370   0.5685   0.00    0.0
2158 455430.000   22.302196896  114.188710307     7.9326   2   5   0.5711   0.4166   1.0347  -0.2830  -0.3311   0.5625   0.00    0.0
2158 455431.000   22.302196557  114.188710328     7.8396   2   5   0.5627   0.4101   1.0229  -0.2779  -0.3255   0.5565   0.00    0.0
2158 455432.000   22.302196150  114.188710424     7.7366   2   5   0.5547   0.4038   1.0114  -0.2729  -0.3201   0.5506   0.00    0.0
2158 455433.000   22.302195847  114.188710418     7.6503   2   5   0.5470   0.3978   1.0002  -0.2681  -0.3149   0.5448   0.00    0.0
2158 455434.000   22.302195375  114.188710453     7.5828   2   5   0.5394   0.3921   0.9893  -0.2636  -0.3099   0.5391   0.00    0.0
2158 455435.000   22.302195248  114.188710412     7.5212   2   5   0.5322   0.3866   0.9788  -0.2592  -0.3051   0.5335   0.00    0.0
2158 455436.000   22.302195048  114.188710313     7.4775   2   5   0.5251   0.3813   0.9685  -0.2550  -0.3004   0.5279   0.00    0.0
2158 455437.000   22.302195010  114.188710356     7.4674   2   5   0.5182   0.3763   0.9584  -0.2509  -0.2959   0.5225   0.00    0.0
2158 455438.000   22.302194858  114.188710289     7.4449   2   5   0.5115   0.3714   0.9487  -0.2470  -0.2915   0.5171   0.00    0.0
2158 455439.000   22.302194707  114.188710326     7.3901   2   5   0.5050   0.3667   0.9391  -0.2432  -0.2873   0.5117   0.00    0.0
2158 455440.000   22.302194772  114.188710293     7.3777   2   5   0.4987   0.3622   0.9298  -0.2395  -0.2832   0.5065   0.00    0.0
2158 455441.000   22.302196827  114.188710648     7.9632   2   5   0.4903   0.3578   0.9144  -0.2365  -0.2803   0.4964   0.00    0.0
2158 455442.000   22.302195710  114.188710487     7.9418   2   5   0.4844   0.3536   0.9057  -0.2330  -0.2764   0.4914   0.00    0.0
2158 455443.000   22.302185601  114.188708488     7.9564   2   5   0.4785   0.3495   0.8972  -0.2297  -0.2726   0.4865   0.00    0.0
2158 455444.000   22.302161128  114.188700161     7.9921   2   5   0.4728   0.3455   0.8888  -0.2264  -0.2690   0.4816   0.00    0.0
2158 455445.000   22.302123096  114.188683893     8.0308   2   5   0.4673   0.3417   0.8806  -0.2233  -0.2654   0.4768   0.00    0.0
2158 455446.000   22.302076825  114.188658501     8.5684   2   4   0.4604   0.3385   0.8673  -0.2214  -0.2632   0.4681   0.00    0.0
2158 455447.000   22.302022724  114.188626857     9.5270   4   3   0.5494   0.4623   1.2585   0.2241   0.4772   0.7052   0.00    0.0
2158 455448.000   22.301972386  114.188606011    13.2763   4   2   0.8764   1.6799   2.5214   0.4026   0.1864   1.4057   0.00    0.0
2158 455449.000   22.301931620  114.188568335    19.5894   4   2   1.1599   1.9436   3.5857  -0.4817  -1.1937   1.9782   0.00    0.0
2158 455450.000   22.301889753  114.188511187    24.6979   4   3   1.2472   1.9512   3.8928  -0.5663  -1.3106   2.1477   0.00    0.0
2158 455451.000   22.301830634  114.188465901    22.3641   4   3   1.0347   1.0368   2.9128   0.9375   1.6404   1.6785   0.00    0.0
2158 455452.000   22.301798504  114.188417000    27.9449   4   2   1.2108   2.3118   3.6534   0.6605   0.5625   2.0446   0.00    0.0
2158 455453.000   22.301767385  114.188337472    27.6722   4   0   2.4107   2.5190   4.2987  -0.7475  -1.2587   2.3451   0.00    0.0
2158 455454.000   22.301687747  114.188247816    20.4522   4   2   1.4199   2.5017   4.4546  -0.3398  -1.2862   2.4648   0.00    0.0
2158 455455.000   22.301614231  114.188159653    11.6554   4   0   2.8194   2.9107   4.5037  -1.4555  -0.8066   2.2913   0.00    0.0
2158 455456.000   22.301559294  114.188084741     6.4536   4   2   3.2484   2.8374   3.9973  -1.9414  -1.6174   1.9964   0.00    0.0
2158 455457.000   22.301490808  114.188018017     2.5848   4   2   3.2377   2.8372   3.9190  -1.9463  -1.6585   1.9762   0.00    0.0
2158 455458.000   22.301484543  114.187928778     5.3302   4   2   1.1244   1.7132   4.1209   1.1820  -0.6685   0.9229   0.00    0.0
2158 455459.000   22.301442287  114.187849034     8.3006   4   3   1.0966   1.6680   4.1545   1.1458  -0.8417   0.8952   0.00    0.0
2158 455460.000   22.301420223  114.187804060     9.1120   4   2   1.1073   1.6964   4.2104   1.1733  -0.7070   0.9608   0.00    0.0
2158 455461.000   22.301390170  114.187774712     7.5497   4   0   2.3189   2.0487   4.2648  -0.9812  -1.0857   1.4859   0.00    0.0
2158 455462.000   22.301374555  114.187746337     5.7199   4   2   3.1905   2.3911   4.3541  -1.9144  -1.5012   2.0288   0.00    0.0
2158 455463.000   22.301395551  114.187707877     3.3136   4   2   3.0547   1.6597   4.1295  -1.3894  -2.2390   2.4620   0.00    0.0
2158 455464.000   22.301374158  114.187714921     0.5709   4   3   2.9390   2.2474   3.4717  -2.1245  -2.1807   1.4713   0.00    0.0
2158 455465.000   22.301368491  114.187713363     1.0207   4   3   2.4980   2.1891   3.3823  -2.0905  -2.2691   2.0729   0.00    0.0
2158 455466.000   22.301370084  114.187713278     2.4505   4   2   2.7537   2.5022   3.8462  -2.4453  -2.2014   2.1494   0.00    0.0
2158 455467.000   22.301396807  114.187707146     5.0590   4   2   4.1205   2.9690   5.6831  -3.0316   1.2763  -1.9353   0.00    0.0
2158 455468.000   22.301379389  114.187708558     7.0646   4   2   4.0488   3.2715   7.6918  -3.4586   2.9762  -3.5634   0.00    0.0
2158 455469.000   22.301385308  114.187703754     2.7405   2   4   3.4164   2.8599   5.1897  -2.9612   1.5338  -1.9062   0.00    0.0
2158 455470.000   22.301384371  114.187705979     2.9761   4   3   2.8591   2.3932   4.2896  -2.4427  -1.6819   1.3953   0.00    0.0
2158 455471.000   22.301386091  114.187706115     1.8206   4   2   2.8897   2.5428   3.9149  -2.5593  -1.8321   1.6335   0.00    0.0
2158 455472.000   22.301384328  114.187709918    -0.0460   4   3   2.6957   2.3714   3.6420  -2.3840  -2.0651   1.9049   0.00    0.0
2158 455473.000   22.301389065  114.187703969     0.0239   4   2   2.9444   2.6671   3.7935  -2.6841  -1.6319   1.4136   0.00    0.0
2158 455474.000   22.301390116  114.187698387     1.8036   4   2   3.2304   2.9705   4.4414  -3.0003   0.6672  -1.1294   0.00    0.0
2158 455475.000   22.301391915  114.187690583     2.3368   4   2   3.4768   3.1514   6.7041  -3.2235   2.4015  -2.8321   0.00    0.0
2158 455476.000   22.301367996  114.187696404     6.8113   4   2   2.9342   2.3098   4.6009  -1.9500  -1.3166   1.6676   0.00    0.0
2158 455477.000   22.301359509  114.187676368    10.8819   4   2   2.7262   1.6587   3.9560  -0.9822   0.5171   1.5874   0.00    0.0
2158 455478.000   22.301403782  114.187671180     9.2717   4   2   2.7508   1.9750   3.9860  -1.3177  -0.3324   1.4961   0.00    0.0
2158 455479.000   22.301436898  114.187692302    10.8915   4   0   3.2077   2.3992   4.2630  -1.9381  -1.4275   1.9558   0.00    0.0
2158 455480.000   22.301476465  114.187713429    13.2306   4   2   4.7911   2.4971   4.3831  -2.6067  -1.7804   2.5077   0.00    0.0
2158 455481.000   22.301404318  114.187758012    11.6704   4   3   3.1986   1.8163   4.2898  -1.6031  -1.9543   2.2864   0.00    0.0
2158 455482.000   22.301428333  114.187792052     9.7923   4   3   2.3476   1.8885   4.1967  -0.9380  -1.6436   1.8632   0.00    0.0
2158 455483.000   22.301460005  114.187845583     7.9018   4   3   2.0987   1.8920   3.8460   0.7160   1.7941   1.9412   0.00    0.0
2158 455484.000   22.301475855  114.187890361     6.3208   4   3   1.7523   1.5005   3.4253  -0.3796   1.4231   1.5851   0.00    0.0
2158 455485.000   22.301508788  114.187955592     8.1426   4   3   1.5973   1.4229   3.2772  -0.2885   1.4385   1.5288   0.00    0.0
2158 455486.000   22.301534225  114.188003056     5.8687   4   3   1.5723   1.6430   3.6812   0.6663   1.9436   1.7817   0.00    0.0
2158 455487.000   22.301564664  114.188056839     7.7672   4   3   1.5349   1.7070   3.7230   0.8381   2.0932   1.8592   0.00    0.0
2158 455488.000   22.301595714  114.188104958     8.0051   4   2   1.6640   2.0797   3.8524   1.2453   1.7902   1.6850   0.00    0.0
2158 455489.000   22.301617421  114.188155217     6.2160   4   0   2.4519   2.5770   4.0643  -0.5964   1.2540   1.7646   0.00    0.0
2158 455490.000   22.301659632  114.188194620     5.4473   4   0   3.1876   2.9507   4.1702  -1.8148   0.8149   2.1015   0.00    0.0
2158 455491.000   22.301737138  114.188291895    16.4670   4   2   1.3412   2.0368   3.5104   1.0911   0.2707   0.7265   0.00    0.0
2158 455492.000   22.301788906  114.188282307    16.8455   4   2   2.3203   2.8109   3.4208  -1.5869   0.7365  -0.4555   0.00    0.0
2158 455493.000   22.301771477  114.188304570    14.1419   4   3   1.2507   1.9318   3.3384   1.0946   0.6106   0.6951   0.00    0.0
2158 455494.000   22.301778538  114.188345362    17.8411   2   4   1.0322   1.3545   3.0768   0.6266   0.8274   0.9789   0.00    0.0
2158 455495.000   22.301774028  114.188335763    12.9821   4   3   1.0543   1.2114   2.9445   0.5683   0.9605   1.1478   0.00    0.0
2158 455496.000   22.301767812  114.188326651    10.4185   4   3   1.0988   1.2616   2.9467   0.7063   1.2319   1.3039   0.00    0.0
2158 455497.000   22.301774620  114.188325260    11.2570   4   3   1.8025   2.0440   2.8888  -1.3149   1.4766   1.1941   0.00    0.0
2158 455498.000   22.301775977  114.188333893    12.7259   4   3   1.2826   1.4980   2.8306   0.1270   1.4239   1.3061   0.00    0.0
2158 455499.000   22.301777785  114.188336095    13.3277   4   3   1.2138   1.4165   2.8053   0.4233   1.4362   1.3318   0.00    0.0
2158 455500.000   22.301771030  114.188324053    10.4579   2   4   1.0539   1.5070   3.2966   0.9567   1.9072   1.5481   0.00    0.0
2158 455501.000   22.301772842  114.188324553    10.8627   2   4   0.7975   1.1427   2.2372   0.5160   1.1670   0.8953   0.00    0.0
2158 455502.000   22.301772134  114.188321179    10.2772   2   5   0.7174   1.0445   1.9240   0.3606   0.9600   0.6821   0.00    0.0
2158 455503.000   22.301773778  114.188324935    11.0803   2   4   0.6745   0.9596   1.7139   0.2392   0.7981   0.5569   0.00    0.0
2158 455504.000   22.301775210  114.188327705    11.6894   2   4   0.6456   0.9043   1.5812   0.1423   0.7003   0.4818   0.00    0.0
2158 455505.000   22.301774833  114.188324130    11.4384   2   4   0.6208   0.8289   1.4626  -0.1117   0.5855   0.4149   0.00    0.0
2158 455506.000   22.301773526  114.188319177    10.7999   4   3   0.6984   0.8380   1.7252   0.2889   0.7678   0.7115   0.00    0.0
2158 455507.000   22.301773480  114.188317432    10.6486   4   3   0.8718   0.9348   2.2960   0.5788   1.1391   1.1548   0.00    0.0
2158 455508.000   22.301769479  114.188311578     9.0121   4   3   1.0931   1.1979   3.1025   0.9205   1.7042   1.6554   0.00    0.0
2158 455509.000   22.301767261  114.188307345     7.9593   4   3   1.1564   1.3036   3.3630   1.0298   1.9005   1.8057   0.00    0.0
2158 455510.000   22.301767556  114.188306164     7.7801   4   3   1.1585   1.3272   3.4009   1.0506   1.9433   1.8259   0.00    0.0
2158 455511.000   22.301768602  114.188305909     7.8954   4   3   1.1572   1.3321   3.4112   1.0580   1.9584   1.8339   0.00    0.0
2158 455512.000   22.301769656  114.188305702     8.0072   4   3   1.1606   1.3328   3.4262   1.0652   1.9702   1.8474   0.00    0.0
2158 455513.000   22.301770609  114.188305338     8.0818   4   3   1.1638   1.3297   3.4363   1.0699   1.9763   1.8586   0.00    0.0
2158 455514.000   22.301770936  114.188304428     8.0039   4   3   1.1645   1.3245   3.4385   1.0716   1.9774   1.8648   0.00    0.0
2158 455515.000   22.301771240  114.188303598     7.9248   4   3   1.1637   1.3193   3.4371   1.0722   1.9771   1.8680   0.00    0.0
2158 455516.000   22.301771486  114.188302646     7.8225   4   3   1.1623   1.3154   3.4356   1.0731   1.9779   1.8704   0.00    0.0
2158 455517.000   22.301780618  114.188312115    10.7967   2   4   0.5239   0.6679   1.2110  -0.1272   0.5349   0.4209   0.00    0.0
2158 455518.000   22.301779200  114.188309985    10.1712   2   4   0.5088   0.6687   1.1791  -0.1236   0.5410   0.3936   0.00    0.0
2158 455519.000   22.301776284  114.188305824     9.0180   4   3   0.6215   0.7863   1.6422   0.3746   0.8844   0.7590   0.00    0.0
2158 455520.000   22.301778826  114.188308250     9.7945   2   4   0.4851   0.6354   1.1045  -0.1615   0.4938   0.3431   0.00    0.0
2158 455521.000   22.301778143  114.188306784     9.4067   2   4   0.4772   0.6156   1.0777  -0.1696   0.4713   0.3306   0.00    0.0
2158 455522.000   22.301778342  114.188306505     9.3850   2   4   0.4691   0.5982   1.0516  -0.1759   0.4514   0.3172   0.00    0.0
2158 455523.000   22.301779177  114.188307276     9.5394   2   4   0.4614   0.5823   1.0275  -0.1808   0.4335   0.3049   0.00    0.0
2158 455524.000   22.301781095  114.188308951     9.3602   2   4   0.4542   0.5677   1.0032  -0.1845   0.4189   0.2949   0.00    0.0
2158 455525.000   22.301788096  114.188316411     9.2560   2   4   0.4474   0.5542   0.9811  -0.1871   0.4061   0.2861   0.00    0.0
2158 455526.000   22.301802128  114.188330816     8.5159   2   4   0.5987   0.7036   1.5741   0.3772   0.8433   0.7636   0.00    0.0
2158 455527.000   22.301819406  114.188347177     6.4625   4   3   0.9396   1.0614   2.7450   0.8500   1.5838   1.4903   0.00    0.0
2158 455528.000   22.301845801  114.188370408     5.0243   4   3   1.0946   1.2311   3.2585   1.0379   1.9007   1.7932   0.00    0.0
2158 455529.000   22.301890129  114.188414927     8.4100   4   3   0.9752   1.0487   2.8168   0.8734   1.6015   1.5536   0.00    0.0
2158 455530.000   22.301928192  114.188441577     6.6484   4   3   0.9541   1.0027   2.7317   0.8410   1.5366   1.5124   0.00    0.0
2158 455531.000   22.301975625  114.188470692     5.7081   4   3   1.1884   1.1994   3.4322   1.0881   1.9348   1.9420   0.00    0.0
2158 455532.000   22.302037053  114.188501298     5.0803   4   2   2.0113   1.3152   3.7790   1.3757   2.0328   1.8181   0.00    0.0
2158 455533.000   22.302085937  114.188525804     5.4223   4   3   1.2964   1.2891   3.7499   1.2010   2.1164   2.1382   0.00    0.0
2158 455534.000   22.302150510  114.188549782     5.1532   4   2   2.1447   1.3352   3.8276   1.4279   2.0450   1.7709   0.00    0.0
2158 455535.000   22.302200429  114.188557284     1.6016   4   2   2.2639   1.3369   3.8823   1.4403   2.0345   1.6055   0.00    0.0
2158 455536.000   22.302254015  114.188558077    -0.2556   4   2   2.6757   1.8263   4.2978   0.4565   1.2741   2.2956   0.00    0.0
2158 455537.000   22.302303608  114.188577364     1.1970   4   2   3.6043   1.4770   5.7127  -0.7469  -1.3396   3.7169   0.00    0.0
2158 455539.000   22.302396318  114.188603857     7.0099   4   2   4.7341   3.0421   8.3160   2.0687   2.7513   5.6039   0.00    0.0
2158 455571.000   22.302683829  114.188646918     8.9126   4   3   2.1488   3.6878   5.4664  -1.2500  -3.5528   1.0495   0.00    0.0
2158 455572.000   22.302732979  114.188577391    -3.9773   4   2   2.1424   3.4494   5.2098  -1.0980  -3.0004   1.1787   0.00    0.0
2158 455573.000   22.302773989  114.188500358    -4.4467   4   0   2.1831   2.2751   4.3735  -1.0487  -1.0537   1.2542   0.00    0.0
2158 455574.000   22.302846014  114.188439118    -6.2097   4   2   2.1513   2.9019   4.4225  -0.6386   0.4239   1.4176   0.00    0.0
2158 455575.000   22.302895745  114.188397895    -4.8157   2   4   1.6581   5.0316   4.9348  -0.6285  -3.4768   1.9173   0.00    0.0
2158 455576.000   22.302955792  114.188342127    -2.2382   4   2   1.7093   4.9237   4.9438   2.0583  -3.4012   0.5530   0.00    0.0
2158 455577.000   22.303005859  114.188269777     1.3786   4   2   1.9373   4.8982   5.2727   2.4550  -3.3237  -1.3458   0.00    0.0
2158 455579.000   22.303172707  114.188242901    -4.0277   4   0   2.7686   4.7104   6.4157   2.0342  -4.5046  -2.0847   0.00    0.0
2158 455580.000   22.303203434  114.188171441    -5.6674   4   3   2.5534   4.4178   5.7156   1.8253  -4.1136  -1.6585   0.00    0.0
2158 455581.000   22.303297919  114.187949136    28.4396   4   3   2.0798   3.0830   4.3368   1.1660  -2.4158   1.6669   0.00    0.0
2158 455582.000   22.303368221  114.187836414    45.6620   2   4   1.9892   2.8351   4.5481   1.1685  -2.2539   1.9343   0.00    0.0
2158 455583.000   22.303390922  114.187683360    55.1647   4   2   2.3176   3.6136   5.5785   2.0779  -3.0486   1.4867   0.00    0.0
2158 455596.000   22.304060973  114.186826111     1.9373   4   0   4.7579   5.4996  13.3737  -4.1665  -7.7059   7.2227   0.00    0.0
2158 455597.000   22.304077087  114.186732994     2.5916   4   2   4.2932   5.4385  11.4912  -2.6595  -6.9396   5.3717   0.00    0.0
2158 455598.000   22.304159909  114.186641132    12.0115   4   3   3.4572   5.2299  11.2795  -1.5627  -6.7595   4.2802   0.00    0.0
2158 455599.000   22.304235340  114.186575259    27.7561   4   2   3.6707   4.5618  11.0772  -1.8382  -6.5717   4.2575   0.00    0.0
2158 455600.000   22.304226025  114.186612166    21.1719   4   2   4.4221   4.7268  12.4859  -3.7516  -7.1469   6.6621   0.00    0.0
2158 455601.000   22.304230990  114.186612262    10.3057   4   2   4.5276   5.2788  12.9865  -4.0565  -7.5061   7.0305   0.00    0.0
2158 455602.000   22.304237233  114.186589859     6.5796   4   3   4.4095   4.2502  12.6908  -3.7432  -7.1014   6.8313   0.00    0.0
2158 455603.000   22.304273387  114.186552593    10.3445   2   4   2.3122   3.1079   7.0505  -0.8506  -3.5216   2.7660   0.00    0.0
2158 455604.000   22.304279174  114.186552878     5.0554   4   3   2.3636   2.8923   8.1841  -2.1354  -4.6097   3.8756   0.00    0.0
2158 455605.000   22.304294644  114.186555740    -0.4043   4   2   3.5458   4.6504  10.4545  -2.8619  -6.2208   5.2045   0.00    0.0
2158 455606.000   22.304313575  114.186534578     0.3847   4   3   3.5469   5.3959  11.8104  -2.7190  -7.2067   5.7049   0.00    0.0
2158 455607.000   22.304334470  114.186500332     3.4321   2   4   3.3855   4.5957  11.7948  -3.2535  -6.9787   5.9048   0.00    0.0
2158 455608.000   22.304364249  114.186460979     9.0608   2   4   2.1262   2.9775   6.7176  -1.6414  -4.0485   3.2183   0.00    0.0
2158 455609.000   22.304382363  114.186437734    10.3727   2   4   1.8711   2.6080   5.6964  -1.3487  -3.4552   2.7045   0.00    0.0
2158 455610.000   22.304395470  114.186422468    10.6715   2   4   1.7625   2.4566   5.3957  -1.2985  -3.2812   2.5592   0.00    0.0
2158 455611.000   22.304404029  114.186408630    10.7301   2   4   1.9590   2.9791   5.1396   0.5771  -3.1696   2.4070   0.00    0.0
2158 455612.000   22.304411807  114.186399518    10.7717   2   4   1.6569   2.3715   4.9142  -1.0382  -3.0078   2.3207   0.00    0.0
2158 455613.000   22.304417691  114.186392440    10.6005   2   4   1.5688   2.2300   4.7169  -1.0550  -2.8881   2.2282   0.00    0.0
2158 455614.000   22.304422024  114.186386471    10.6963   2   4   1.5014   2.1288   4.5416  -1.0386  -2.7826   2.1452   0.00    0.0
2158 455615.000   22.304423963  114.186383750    10.6376   2   4   1.4425   2.0411   4.3844  -1.0195  -2.6876   2.0708   0.00    0.0
2158 455616.000   22.304424270  114.186382991    10.5628   2   4   1.3904   1.9639   4.2424  -0.9994  -2.6014   2.0038   0.00    0.0
2158 455617.000   22.304423760  114.186383008    10.4575   2   4   1.3438   1.8952   4.1133  -0.9791  -2.5228   1.9429   0.00    0.0
2158 455618.000   22.304423874  114.186382496    10.5563   2   4   1.3018   1.8334   3.9952  -0.9591  -2.4508   1.8872   0.00    0.0
2158 455619.000   22.304424300  114.186381601    10.7135   4   3   1.2918   1.8012   4.0038  -0.9805  -2.4426   1.9051   0.00    0.0
2158 455620.000   22.304424370  114.186380675    10.8135   2   4   1.2286   1.7263   3.7865  -0.9208  -2.3232   1.7888   0.00    0.0
2158 455621.000   22.304424801  114.186379551    11.0436   4   3   1.2521   1.7262   3.9221  -0.9810  -2.3796   1.8795   0.00    0.0
2158 455622.000   22.304426035  114.186376999    11.6118   4   3   1.5555   1.9798   5.1526  -1.3895  -2.9998   2.5866   0.00    0.0
2158 455623.000   22.304426046  114.186376367    11.5955   2   4   1.1392   1.5963   3.5268  -0.8691  -2.1638   1.6666   0.00    0.0
2158 455624.000   22.304427891  114.186373828    11.8535   2   4   1.1135   1.5590   3.4510  -0.8532  -2.1173   1.6309   0.00    0.0
2158 455625.000   22.304430859  114.186370098    11.9485   4   3   1.1263   1.5550   3.5306  -0.8889  -2.1479   1.6862   0.00    0.0
2158 455626.000   22.304435967  114.186364313    12.0091   4   3   1.3754   1.7608   4.5385  -1.2208  -2.6519   2.2681   0.00    0.0
2158 455627.000   22.304439268  114.186356656    12.4142   2   4   1.0441   1.4349   3.2246  -0.8203  -1.9652   1.5447   0.00    0.0
2158 455628.000   22.304440139  114.186353697    12.5460   2   5   1.0225   1.3822   3.1418  -0.8161  -1.9027   1.5237   0.00    0.0
2158 455629.000   22.304442440  114.186350730    12.6150   2   5   1.0027   1.3389   3.0691  -0.8091  -1.8502   1.5018   0.00    0.0
2158 455630.000   22.304448820  114.186342844    12.7648   2   4   0.9841   1.3002   3.0022  -0.8014  -1.8027   1.4803   0.00    0.0
2158 455631.000   22.304462650  114.186327737    12.6375   4   3   1.0057   1.3130   3.1129  -0.8377  -1.8546   1.5447   0.00    0.0
2158 455632.000   22.304483893  114.186304348    12.5470   2   4   0.9517   1.2600   2.9090  -0.7754  -1.7488   1.4311   0.00    0.0
2158 455633.000   22.304511441  114.186274267    12.4112   4   3   1.0091   1.3046   3.1636  -0.8563  -1.8731   1.5768   0.00    0.0
2158 455634.004   22.304544861  114.186237820    12.1601   4   3   1.7386   2.9154   2.8259   1.8263  -1.7731   1.3341   0.00    0.0
2158 455636.004   22.304622338  114.186151450    12.0901   4   3   9.9308  17.8092   2.8596  13.2350  -3.7944  -2.1415   0.00    0.0
2158 455637.004   22.304658753  114.186106344    11.9963   4   3  17.6231  31.6475   2.9763  23.5814  -6.2465  -4.2876   0.00    0.0
2158 455638.000   22.304608293  114.185899440    12.5057   4   3   3.2458   5.6333   2.6984   4.0859  -1.5368   1.3841   0.00    0.0
2158 455639.000   22.304687094  114.185947757    12.2096   4   3   2.9526   5.0807   2.6599   3.6684  -1.4016   1.4318   0.00    0.0
2158 455640.000   22.304749707  114.185966837    11.8273   2   4   2.8222   4.8488   2.6269   3.4901  -1.3913   1.4092   0.00    0.0
2158 455727.000   22.306480193  114.184834614    42.9862   4   3   3.4875   5.6069   9.6485  -1.8026  -6.7483   3.1707   0.00    0.0
2158 455728.000   22.306521574  114.184806074    39.6903   4   3   2.3952   3.6608   6.9045  -1.8290  -4.5360   2.6598   0.00    0.0
2158 455729.000   22.306579520  114.184799348    31.7500   4   3   2.0400   3.1479   6.3703  -1.3573  -4.0928   1.8267   0.00    0.0
2158 455730.000   22.306620824  114.184772028    32.0141   4   2   2.2417   3.8971   7.3105   1.5422  -4.8275  -1.5783   0.00    0.0
2158 455731.000   22.306650445  114.184724048    40.3549   4   2   2.3416   4.2098   7.2102   2.1711  -4.7629  -1.9655   0.00    0.0
2158 455732.000   22.306688288  114.184691967    45.2190   4   2   2.2735   4.1084   6.9164   2.2420  -4.5432  -2.0171   0.00    0.0
2158 455733.000   22.306788959  114.184828274    39.0233   4   3   2.7598   5.6126   6.8900   3.4123  -5.2784  -2.7762   0.00    0.0
2158 455734.000   22.306868800  114.184941776    34.2862   4   3   2.5863   5.4459   4.9130   3.2561  -4.1863  -1.7310   0.00    0.0
2158 455741.000   22.306712281  114.184878232    68.4934   4   0   3.5288   3.3601   5.3931  -2.2536  -1.2451   2.6872   0.00    0.0
2158 455742.000   22.306700167  114.184918709    67.4551   4   2   3.2555   3.1614   4.9132  -1.9877  -0.9711   2.3347   0.00    0.0
2158 455743.000   22.306704421  114.184957368    67.8256   4   3   2.4992   2.7041   4.8797  -0.9315   1.0287   2.0806   0.00    0.0
2158 455744.000   22.306717147  114.184972689    72.0515   4   2   2.1209   2.5713   4.9884   0.7785   1.1267   1.7474   0.00    0.0
2158 455745.000   22.306719552  114.184984421    76.8378   2   4   1.9080   2.4018   4.7363   0.9043   1.4255   1.7482   0.00    0.0
2158 455746.000   22.306732878  114.185012192    82.0659   4   3   1.6951   2.0662   4.3498   0.6329   1.9128   1.8920   0.00    0.0
2158 455747.000   22.306732223  114.185012076    81.4705   2   4   1.4884   1.6958   3.2209  -0.2990   1.2148   1.4533   0.00    0.0
2158 455748.000   22.306735396  114.185017485    82.9126   2   4   1.3840   1.5671   2.9344  -0.3323   1.1399   1.3548   0.00    0.0
2158 455749.000   22.306738636  114.185024334    84.7294   4   3   1.3784   1.6804   3.3130   0.5106   1.6499   1.5800   0.00    0.0
2158 455750.000   22.306740284  114.185028158    85.9256   2   4   1.3719   1.7618   3.6269   0.7535   1.9699   1.7503   0.00    0.0
2158 455751.000   22.306742881  114.185032725    87.3992   4   3   1.9059   2.9140   6.5595   1.9537   4.1043   3.2453   0.00    0.0
2158 455752.000   22.306750226  114.185044855    90.7956   4   3   2.9276   4.8026  11.1340   3.5282   7.1703   5.5423   0.00    0.0
2158 455753.004   22.306758102  114.185052555    93.3512   4   3   4.4451   7.5892  17.7086   5.6713  11.5111   8.7658   0.00    0.0
2158 455754.004   22.306766660  114.185062475    96.3497   4   3   6.4607  11.2333  26.2576   8.4290  17.1235  12.9535   0.00    0.0
2158 455755.004   22.306776294  114.185074799    99.8850   4   3   9.0038  15.8028  36.9521  11.8660  24.1313  18.1907   0.00    0.0
2158 455756.004   22.306787086  114.185089720   104.0244   4   3  12.1036  21.3591  49.9404  16.0338  32.6368  24.5498   0.00    0.0
2158 455757.000   22.306847306  114.185198966   130.8897   4   3   1.2807   2.1592   4.4325   1.1673   2.8677   2.0085   0.00    0.0
2158 455758.000   22.306849210  114.185197545   131.0688   4   3   1.2115   2.0335   4.1213   1.0486   2.6677   1.8437   0.00    0.0
2158 455759.000   22.306848949  114.185191707   130.1758   4   3   1.2277   2.0655   4.2314   1.0990   2.7452   1.9063   0.00    0.0
2158 455760.000   22.306843791  114.185177041   127.1438   4   3   1.2297   2.0692   4.2637   1.1183   2.7704   1.9279   0.00    0.0
2158 455761.000   22.306839877  114.185164774   124.6850   4   3   1.2072   2.0268   4.1719   1.0885   2.7133   1.8833   0.00    0.0
2158 455762.000   22.306835760  114.185162763   124.1486   4   3   1.1634   1.9717   4.0517   1.0560   2.6372   1.8233   0.00    0.0
2158 455763.000   22.306833086  114.185162509   124.1136   4   3   1.1269   1.9193   3.9410   1.0281   2.5657   1.7725   0.00    0.0
2158 455764.000   22.306828654  114.185158900   123.2818   4   3   1.0987   1.8772   3.8574   1.0105   2.5112   1.7372   0.00    0.0
2158 455765.004   22.306827423  114.185152618   122.2649   4   3   1.7890   3.1532   7.0617   2.1492   4.6184   3.3754   0.00    0.0
2158 455766.004   22.306826591  114.185146793   121.3662   4   3   2.9595   5.2770  12.1334   3.8230   7.9444   5.8888   0.00    0.0
2158 455767.004   22.306825852  114.185141550   120.5777   4   3   4.6124   8.2593  19.1428   6.0920  12.5387   9.3317   0.00    0.0
2158 455768.004   22.306825231  114.185136916   119.9075   4   3   6.7671  12.1419  28.2177   9.0112  18.4868  13.7753   0.00    0.0
2158 455769.004   22.306824822  114.185132731   119.3565   4   3   9.4524  16.9813  39.5017  12.6319  25.8835  19.2927   0.00    0.0
2158 455770.004   22.306824514  114.185129181   118.9194   4   3  12.6992  22.8366  53.1373  17.0022  34.8234  25.9547   0.00    0.0
2158 455771.004   22.306825276  114.185127728   118.9636   4   3   6.4672  11.5892  26.9257   8.6045  17.6428  13.1530   0.00    0.0
2158 455772.004   22.306825724  114.185124910   118.7147   4   3   6.8088  12.2163  28.3814   9.0709  18.6000  13.8610   0.00    0.0
2158 455773.004   22.306825715  114.185122533   118.4583   4   3   8.0387  14.4507  33.5802  10.7370  22.0119  16.3965   0.00    0.0
2158 455774.004   22.306825646  114.185120133   118.1956   4   3  11.1388  20.0662  46.6430  14.9213  30.5815  22.7698   0.00    0.0
2158 455775.004   22.306826565  114.185118944   118.2240   4   3   6.4522  11.5989  26.9234   8.6014  17.6517  13.1397   0.00    0.0
2158 455776.004   22.306826537  114.185116736   117.9419   4   3   6.7933  12.2268  28.3790   9.0675  18.6093  13.8470   0.00    0.0
2158 455777.004   22.306826658  114.185114482   117.6578   4   3   8.0212  14.4640  33.5774  10.7327  22.0228  16.3798   0.00    0.0
2158 455778.004   22.306826452  114.185112422   117.3700   4   3  11.1158  20.0858  46.6392  14.9149  30.5964  22.7467   0.00    0.0
2158 455779.004   22.306827221  114.185111466   117.3921   4   3   6.4375  11.6090  26.9211   8.5983  17.6606  13.1264   0.00    0.0
2158 455780.004   22.306827027  114.185109497   117.0973   4   3   6.7780  12.2378  28.3766   9.0641  18.6186  13.8329   0.00    0.0
2158 455781.004   22.306826721  114.185107519   116.8057   4   3   8.0039  14.4776  33.5746  10.7284  22.0336  16.3632   0.00    0.0
2158 455782.004   22.306826222  114.185105767   116.5159   4   3  11.0929  20.1056  46.6353  14.9084  30.6112  22.7235   0.00    0.0
2158 455783.004   22.306826604  114.185105234   116.5295   4   3   6.4230  11.6195  26.9188   8.5951  17.6693  13.1131   0.00    0.0
2158 455784.004   22.306826236  114.185103612   116.2381   4   3   6.7630  12.2491  28.3742   9.0606  18.6277  13.8189   0.00    0.0
2158 455785.004   22.306825650  114.185102182   115.9437   4   3   7.9868  14.4915  33.5718  10.7240  22.0443  16.3465   0.00    0.0
2158 455786.004   22.306825187  114.185100598   115.6479   4   3  11.0702  20.1256  46.6315  14.9019  30.6259  22.7004   0.00    0.0
2158 455787.004   22.306825419  114.185100320   115.6542   4   3   6.4087  11.6302  26.9165   8.5918  17.6780  13.0997   0.00    0.0
2158 455788.004   22.306825112  114.185098803   115.3454   4   3   6.7482  12.2606  28.3718   9.0570  18.6368  13.8048   0.00    0.0
2158 455789.004   22.306824455  114.185097436   115.0391   4   3   7.9699  14.5055  33.5690  10.7196  22.0550  16.3299   0.00    0.0
2158 455790.004   22.306823901  114.185096031   114.7369   4   3  11.0476  20.1458  46.6276  14.8954  30.6406  22.6772   0.00    0.0
2158 455791.004   22.306824217  114.185095793   114.7392   4   3   6.3946  11.6411  26.9142   8.5884  17.6866  13.0864   0.00    0.0
2158 455792.004   22.306823751  114.185094531   114.4326   4   3   6.7336  12.2722  28.3694   9.0534  18.6459  13.7907   0.00    0.0
2158 455795.004   22.306822263  114.185092253   113.8230   4   3   6.3814  11.6527  26.9119   8.5847  17.6952  13.0730   0.00    0.0
2158 455796.004   22.306823312  114.185089103   113.5614   4   3   6.7198  12.2845  28.3670   9.0495  18.6549  13.7766   0.00    0.0
2158 455797.004   22.306826469  114.185082899   113.3808   4   3   7.9370  14.5343  33.5633  10.7103  22.0762  16.2965   0.00    0.0
2158 455798.004   22.306836129  114.185066553   113.3151   4   3  11.0031  20.1867  46.6197  14.8821  30.6699  22.6309   0.00    0.0
2158 455805.000   22.306826919  114.184446033    25.7916   4   2   7.9001  11.1657  25.9694   8.5040  16.4006  13.7940   0.00    0.0
2158 455819.000   22.307278432  114.184738165    10.5112   4   2   2.5408   3.1353   4.7023  -0.5399   1.0448   1.5785   0.00    0.0
2158 455821.000   22.307461060  114.184731674     4.6803   4   3   7.0306   9.8536  20.5095   5.2157  13.3519   9.9111   0.00    0.0
2158 455838.000   22.308091376  114.184718285    90.2061   4   2   7.0959   3.0961   7.8632  -3.9363  -3.8080   6.2878   0.00    0.0
2158 455839.000   22.308068093  114.184723970    86.6376   4   2   5.9261   2.4728   6.7651  -2.9974  -3.2668   5.2888   0.00    0.0
2158 455872.000   22.307625540  114.184812095    27.0711   4   2   3.6379   2.5976   5.5168  -1.9684  -0.8515   1.5644   0.00    0.0
2158 455873.000   22.307642649  114.184835982    21.9635   4   2   3.2621   2.0719   4.8823  -1.3231  -1.5180   1.8146   0.00    0.0
2158 455874.000   22.307635403  114.184848731    17.5730   4   2   3.2093   1.8936   4.9181  -1.0691  -1.8815   2.1463   0.00    0.0
2158 455875.000   22.307631341  114.184856172    14.9287   4   2   3.1620   1.7880   4.9142  -0.9238  -2.0300   2.2936   0.00    0.0
2158 455876.000   22.307629788  114.184853087    15.8463   4   3   3.0450   1.6242   4.6778  -0.9282  -1.9202   2.3970   0.00    0.0
2158 455877.000   22.307631736  114.184852229    16.2817   4   2   3.0153   1.6070   4.6139  -0.6766  -1.9966   2.2669   0.00    0.0
2158 455878.000   22.307624957  114.184849953    16.2161   4   2   2.9784   1.5548   4.4874  -0.5075  -1.9763   2.2119   0.00    0.0
2158 455879.000   22.307624793  114.184848343    16.6131   4   2   2.9529   1.5077   4.3763  -0.3364  -1.9482   2.1759   0.00    0.0
2158 455880.000   22.307624364  114.184848238    16.5298   4   2   2.9347   1.4728   4.3027  -0.0831  -1.9345   2.1544   0.00    0.0
2158 455881.000   22.307628476  114.184852446    15.4718   4   3   2.7007   1.0243   3.6684  -1.0380  -1.2324   2.6551   0.00    0.0
2158 455882.000   22.307627117  114.184851320    15.6058   4   3   2.5450   0.9803   3.6768  -1.1132  -1.2711   2.6609   0.00    0.0
2158 455883.000   22.307629131  114.184850024    16.0975   4   3   2.5249   0.9421   3.6657  -1.1257  -1.2688   2.6947   0.00    0.0
2158 455884.000   22.307629885  114.184849080    16.4048   4   3   2.5128   0.9082   3.6371  -1.1226  -1.2562   2.7098   0.00    0.0
2158 455885.000   22.307627871  114.184847826    15.7904   4   2   2.6959   1.8186   3.6602  -1.6844  -0.7231   2.5979   0.00    0.0
2158 455891.000   22.307653357  114.184871540    14.8746   4   2   2.6792   4.6269   5.4134  -2.3105   3.1833  -1.0633   0.00    0.0
2158 455892.000   22.307697847  114.184908051    23.7065   4   2   2.6061   3.2916   4.0833  -2.0243  -0.7495   0.6041   0.00    0.0
2158 455893.000   22.307711956  114.184949355    22.7233   4   2   2.2668   2.5754   4.1614  -0.7214  -0.6141  -0.8913   0.00    0.0
2158 455894.000   22.307680128  114.185029101    14.1997   4   0   3.3851   2.4285   4.5915  -1.8838  -1.3874   1.0701   0.00    0.0
2158 455895.000   22.307761441  114.184990795    16.5237   4   3   4.7589   3.3025   4.6985  -3.0380  -1.0965   2.6589   0.00    0.0
2158 455896.000   22.307789343  114.184991949    15.6543   4   3   3.6067   2.8643   3.5542  -2.6628   1.8215  -0.9977   0.00    0.0
2158 455897.000   22.307807838  114.185015719    16.6327   4   3   3.5246   2.7691   3.2795  -2.6201   1.9782  -1.2164   0.00    0.0
2158 455898.000   22.307861233  114.184999922    14.6490   4   2   2.4954   3.2714   4.1590  -1.6906   2.6968  -1.2564   0.00    0.0
2158 455899.000   22.307893928  114.184989946    13.8614   4   2   2.7425   3.8375   4.6751  -1.9415   2.8321  -1.6348   0.00    0.0
2158 455900.000   22.307893386  114.185050210    15.3824   4   3   2.1795   3.3914   4.6802  -1.1711   2.7843  -1.2583   0.00    0.0
2158 455929.000   22.306840656  114.186092494   113.5400   4   2  11.0270  14.1589  20.4083  11.5228 -16.5035 -14.4170   0.00    0.0
2158 455930.000   22.306838149  114.186095202   111.1547   4   2  10.2712  13.5034  19.5861  11.2391 -15.8714 -13.7881   0.00    0.0
2158 455931.000   22.306847795  114.186116026   108.4907   4   2  10.6761  14.7318  21.1521  12.1800 -17.3191 -14.7103   0.00    0.0
2158 456001.005   22.306835359  114.186358490    54.5837   4   3   7.6689  17.1256  27.5333   9.4629  18.8964  13.9246   0.00    0.0
2158 456002.005   22.306830699  114.186338242    55.1587   4   3   8.5778  18.5138  32.3123  11.6607  23.1027  16.3641   0.00    0.0
2158 456003.005   22.306831085  114.186328783    54.8366   4   3  11.6285  24.6460  44.7420  16.4583  32.5228  22.6676   0.00    0.0
2158 456004.005   22.306834029  114.186328150    54.7880   4   3   6.8195  14.6487  25.8798   9.3935  18.6031  13.1008   0.00    0.0
2158 456005.005   22.306835593  114.186323098    54.0376   4   3   7.1261  15.2252  27.2491   9.9511  19.6947  13.7930   0.00    0.0
2158 456006.005   22.306837004  114.186320586    53.1507   4   3   8.3528  17.7320  32.2019  11.8377  23.4126  16.2992   0.00    0.0
2158 456007.005   22.306840389  114.186323103    52.2766   4   3  11.5652  24.3871  44.6859  16.5869  32.6466  22.6137   0.00    0.0
2158 456048.000   22.306278902  114.188137624    20.7204   4   3   2.6745  10.0530   6.0429  -3.1171  -3.4745   0.8927   0.00    0.0
2158 456049.000   22.306277916  114.188134112    19.9839   4   3   2.2694   7.8241   5.4421  -1.6633  -2.6219   0.1613   0.00    0.0
2158 456050.000   22.306282269  114.188142983    22.4992   4   3   1.8632   6.5385   5.0883  -1.3658  -0.3481   1.5057   0.00    0.0
2158 456051.000   22.306289287  114.188160461    25.6508   4   3   1.6705   5.7930   4.8035  -1.0268   1.7723   1.8218   0.00    0.0
2158 456052.000   22.306293458  114.188171383    27.6990   4   3   1.5574   5.2873   4.6161  -0.6935   2.0118   1.8425   0.00    0.0
2158 456053.000   22.306295207  114.188176489    28.6792   4   3   1.4649   4.8990   4.4346  -0.4016   2.0963   1.8209   0.00    0.0
2158 456054.000   22.306297953  114.188184131    30.1820   4   3   1.3898   4.5914   4.2802   0.2077   2.1321   1.7912   0.00    0.0
2158 456055.000   22.306304510  114.188199530    33.4325   4   3   1.3301   4.3442   4.1632   0.4448   2.1602   1.7683   0.00    0.0
2158 456056.000   22.306308663  114.188209685    35.7093   4   3   1.2841   4.1446   4.0862   0.5787   2.1978   1.7587   0.00    0.0
2158 456057.000   22.306313268  114.188220800    38.0067   4   3   1.2495   3.9821   4.0422   0.6815   2.2454   1.7611   0.00    0.0
2158 456058.000   22.306316774  114.188228271    39.8443   4   3   1.2229   3.8471   4.0177   0.7644   2.2952   1.7697   0.00    0.0
2158 456059.000   22.306320852  114.188239047    42.0501   4   3   1.2011   3.7321   4.0009   0.8307   2.3402   1.7792   0.00    0.0
2158 456060.000   22.306323862  114.188247399    43.7912   4   3   1.1827   3.6319   3.9863   0.8836   2.3779   1.7873   0.00    0.0
2158 456061.005   22.306325729  114.188257997    45.6572   4   3   1.8586   4.7441   7.0665   2.3287   4.9234   3.4167   0.00    0.0
2158 456102.000   22.304795740  114.186442871   489.8243   4   2  10.2391   9.7197  17.8920   8.7529 -12.8116 -11.7939   0.00    0.0
2158 456103.005   22.304850988  114.186521077   482.4407   4   3   8.7123   9.1710  20.2124   8.1416 -13.0123 -11.4942   0.00    0.0
2158 456153.000   22.305538030  114.188575778    -4.3841   4   0   2.7713   5.1552   5.6195  -2.6003   3.6057  -1.0485   0.00    0.0
2158 456157.000   22.305379957  114.188957068    -1.1907   4   0   2.6279   3.6542   6.2217  -1.1806  -2.9658  -0.1205   0.00    0.0
2158 456187.000   22.304699132  114.189989301    12.7021   4   2   4.4456   6.4439   6.2784  -4.4805   4.8813  -3.2546   0.00    0.0
2158 456193.000   22.304502052  114.190453427   -11.3505   4   3   4.6393   5.4944  13.4725  -2.5134  -7.3329   6.3630   0.00    0.0
2158 456194.005   22.304450686  114.190534901   -16.1416   4   3   7.3834   7.1679  17.5032   5.3011 -10.6957  -7.3409   0.00    0.0
2158 456195.000   22.304276507  114.190325372    54.8275   4   3   7.9040   8.6424  17.7738   7.6311 -12.1850 -10.7032   0.00    0.0
2158 456198.000   22.304320586  114.190626512    15.7271   4   3   3.0077   1.7991   4.4718  -0.8432  -2.0563   2.0329   0.00    0.0
2158 456199.000   22.304337952  114.190695607    12.2966   4   2   2.6349   2.0889   4.6158  -0.4485  -1.0501   1.6928   0.00    0.0
2158 456200.000   22.304353926  114.190737546    12.0774   4   2   2.4187   2.0657   4.6576   0.4222  -0.8661   1.3674   0.00    0.0
2158 456201.000   22.304376624  114.190778078    13.3115   4   3   2.2582   1.9881   4.6043   0.6483  -0.9094   1.1783   0.00    0.0
2158 456202.000   22.304405962  114.190803883    13.2471   4   3   2.0758   1.6510   3.9352   0.3064  -1.7052   0.3587   0.00    0.0
2158 456203.000   22.304443169  114.190832680    12.6561   2   4   1.9315   1.4832   3.4340  -0.1362  -1.5977   0.4977   0.00    0.0
2158 456204.000   22.304482469  114.190857122    12.4734   4   3   2.4099   2.5854   5.7072   1.8458  -3.5673  -2.6956   0.00    0.0
2158 456205.000   22.304532139  114.190897719     8.1995   4   2   1.8716   2.0153   3.9409   0.9604  -1.3972  -0.5072   0.00    0.0
2158 456206.000   22.304571235  114.190913836     6.2647   4   2   1.8312   2.3549   4.0754   1.1659   0.9679   0.9332   0.00    0.0
2158 456207.005   22.304612961  114.190932651     3.7598   4   3   2.2067   3.9508   6.8431   2.3434   4.4340   2.9080   0.00    0.0
2158 456208.005   22.304659032  114.190961647     0.8419   4   3   2.5382   5.4980  11.3278   3.2634   7.6074   4.7973   0.00    0.0
2158 456215.005   22.304846672  114.191026684   -15.4318   4   3   6.5930  16.4888  26.2090   8.2852  18.0933  12.4142   0.00    0.0
2158 456218.005   22.304865396  114.191168791   -31.0506   4   3  10.4928  25.9032  44.9983  15.2024  32.5198  21.2736   0.00    0.0
2158 456220.005   22.304885197  114.191159555   -33.3994   4   3   6.4968  16.1124  27.4254   9.1341  19.6346  12.9587   0.00    0.0
2158 456221.005   22.304887280  114.191142005   -34.8383   4   3   7.4297  18.3464  32.3418  11.0234  23.5244  15.2703   0.00    0.0
2158 456226.000   22.305127807  114.191703531    78.6909   4   2   3.8442   6.6578   9.0148  -3.9634  -6.6735   4.5671   0.00    0.0
2158 456227.000   22.305132589  114.191726237    81.6955   4   2   3.5508   5.8689   7.7213  -3.7589  -5.5458   4.3389   0.00    0.0
2158 456228.000   22.305146623  114.191737375    84.3844   4   2   3.6787   5.6433   7.2912  -3.8730  -5.1861   4.4727   0.00    0.0
2158 456229.000   22.305168062  114.191741712    86.7262   4   2   3.4755   5.5238   7.2239  -3.5232  -5.1093   4.1035   0.00    0.0
2158 456230.000   22.305188850  114.191747476    84.9823   4   2   2.4794   4.7183   7.0697  -1.6348  -4.5408   2.4865   0.00    0.0
2158 456245.000   22.305519518  114.190667872    -2.7965   4   3   4.9431   6.3797  13.8246   1.2187  -4.2316   7.5833   0.00    0.0
2158 456246.000   22.305599142  114.190691430    -0.6554   4   3   4.1483   5.6260  10.8884   2.2690  -2.9861   6.0888   0.00    0.0
2158 456247.000   22.305763706  114.190849179    15.5079   4   2   3.5555   3.8752  11.5419  -2.2927  -5.3545   5.9437   0.00    0.0
2158 456248.000   22.305748395  114.190716957     7.5573   2   4   2.6274   3.1851   7.1895  -0.5993  -3.2089   3.8204   0.00    0.0
2158 456286.000   22.306475153  114.189804651     8.2134   4   0   4.3876   4.3208  13.0937  -3.1310  -6.1520   6.8548   0.00    0.0
2158 456287.000   22.306492684  114.189747762     3.9865   4   2   4.3997   2.6461   7.3538  -2.1481  -1.3020   4.4115   0.00    0.0
2158 456288.000   22.306521066  114.189703030     3.9838   2   4   3.4678   2.4710   7.0214  -1.9912  -0.7515   3.7859   0.00    0.0
2158 456289.000   22.306547354  114.189657114     4.1073   4   3   2.3436   1.6473   5.6206  -1.1520   0.9530   2.6203   0.00    0.0
2158 456290.000   22.306538478  114.189621375     5.2591   4   3   2.5495   2.5419   5.7172   0.8333   2.2723   2.7767   0.00    0.0
2158 456291.000   22.306522741  114.189570770     7.0402   4   2   3.6638   5.0507   9.1368   1.8006   0.7338   5.0623   0.00    0.0
2158 456293.000   22.306471651  114.189569218    12.1903   4   2   2.7345   2.5392   7.8883  -0.8319   0.9667   4.1072   0.00    0.0
2158 456294.000   22.306424665  114.189524769     9.7923   4   2   3.2234   2.4843   6.8847  -1.3152   0.6550   3.7965   0.00    0.0
2158 456295.000   22.306389183  114.189485906    10.9729   4   2   3.5641   5.2619   9.5539   1.9236   5.6582   4.7282   0.00    0.0
2158 456296.000   22.306338860  114.189463129    13.6088   4   2   3.7947   8.2907  15.0189   4.5706  10.3483   7.0680   0.00    0.0
2158 456299.000   22.306176505  114.189267609    19.6293   2   4   3.5292   4.0350  13.1546  -2.9831  -5.8371   6.4761   0.00    0.0
2158 456300.000   22.306111185  114.189234379    14.7107   2   4   2.3463   2.6347   7.5859  -1.7470  -3.2294   3.8145   0.00    0.0
2158 456301.000   22.306058526  114.189204259    15.1869   4   3   2.0366   2.1930   6.3500  -1.4772  -2.7160   3.2047   0.00    0.0
2158 456305.000   22.305892661  114.189062186    15.5657   4   2   4.2259   4.0921  12.4045  -2.8898  -5.7679   6.4912   0.00    0.0
2158 456306.000   22.305825640  114.189044016    20.3242   4   0   3.9869   3.9457  11.5498  -2.7467  -5.4079   6.0540   0.00    0.0
2158 456310.000   22.305739564  114.188914043    27.6639   4   3   4.3050   4.1585  12.7435  -3.1295  -5.9996   6.7091   0.00    0.0
2158 456311.000   22.305685498  114.188945143    17.4357   4   3   3.8644   3.6222  11.0167  -2.5395  -4.8217   5.3799   0.00    0.0
2158 456312.000   22.305601660  114.188953748     2.5371   4   3   3.5302   3.2227  11.6262  -2.7018  -5.2928   5.9090   0.00    0.0
2158 456313.000   22.305543723  114.188903558     4.0936   4   3   3.4726   3.0732  12.5768  -2.8439  -5.6764   6.3128   0.00    0.0
2158 456314.000   22.305495666  114.188854802     8.1008   4   2   3.9080   3.5234  12.7749  -2.9341  -5.8195   6.5392   0.00    0.0
2158 456315.000   22.305465208  114.188859861    10.1512   4   2   4.0627   3.0251  12.5384  -2.5162  -5.5108   6.4875   0.00    0.0
2158 456316.000   22.305440926  114.188880218    12.7150   4   3   3.8368   2.8439  12.1754  -2.4471  -5.3384   6.2487   0.00    0.0
2158 456317.000   22.305405429  114.188917428    12.9043   2   4   3.3666   2.6720  11.8115  -2.5101  -5.2000   5.9705   0.00    0.0
2158 456318.000   22.305375914  114.188960890    13.5585   4   3   3.3715   3.2244  11.3163  -2.8310  -5.2341   5.8239   0.00    0.0
2158 456319.000   22.305347726  114.189001950    13.7275   4   2   3.4958   3.6482  11.4212  -3.1396  -5.4209   5.9346   0.00    0.0
2158 456338.000   22.304490734  114.189423914   139.8180   4   2  11.5947  10.6762  17.9406  10.6280 -13.5201 -13.8775   0.00    0.0
2158 456339.000   22.304537694  114.189508461   125.9245   4   2  11.7604  13.0655  19.5258  12.0066 -15.5996 -14.8070   0.00    0.0
2158 456340.000   22.304665445  114.189721056    98.6886   4   2  13.7008  17.0809  24.6725  15.0228 -20.2521 -18.1234   0.00    0.0
2158 456345.000   22.304990702  114.190237758    29.5851   4   2  10.2987  13.9655  19.5646  11.6496 -16.1712 -13.8372   0.00    0.0
2158 456346.000   22.305056742  114.190334976    14.6821   4   2  10.6442  14.1317  19.9938  12.0093 -16.4784 -14.2959   0.00    0.0
2158 456347.000   22.305058342  114.190333540    10.9862   4   2  12.2101  16.4690  23.2856  13.9940 -19.3098 -16.6310   0.00    0.0
2158 456359.000   22.304608276  114.190256023    36.0067   4   0   3.8635   3.6227   4.2971  -2.8433  -1.1930   1.0359   0.00    0.0
2158 456360.000   22.304757080  114.190109802    47.3093   4   2   6.3201   5.1931   8.6398   4.1515  -5.9767  -4.8765   0.00    0.0
2158 456362.000   22.304681288  114.190293300    34.9004   4   3   3.8391   6.5438   9.1764  -3.9544  -6.7056   4.6342   0.00    0.0
2158 456365.000   22.304522914  114.190361881    17.2191   4   3   3.2263   5.0134   8.9990  -0.8263  -5.9766   2.7876   0.00    0.0
2158 456366.000   22.304514444  114.190498805    -1.2793   4   3   4.1743   5.3483  10.1101   3.5808  -7.0045  -4.6825   0.00    0.0
