% program   : RTKPOST demo5 b34k
% inp file  : C:\Users\user\Desktop\AAE6102_Laboratory-main\AAE6102_Laboratory-main\GNSS Data\UrbanNav - Medium\20210521.medium-urban.whampoa.ublox.f9p.obs
% inp file  : C:\Users\user\Desktop\AAE6102_Laboratory-main\AAE6102_Laboratory-main\GNSS Data\UrbanNav - Medium\hksc141g.21o
% inp file  : C:\Users\user\Desktop\AAE6102_Laboratory-main\AAE6102_Laboratory-main\GNSS Data\UrbanNav - Medium\hksc141g.21n
% obs start : 2021/05/21 06:29:02.0 GPST (week2158 455342.0s)
% obs end   : 2021/05/21 06:54:39.0 GPST (week2158 456879.0s)
% pos mode  : Kinematic
% freqs     : L1
% solution  : Forward
% elev mask : 10.0 deg
% dynamics  : on
% tidecorr  : off
% ionos opt : Broadcast
% tropo opt : Saastamoinen
% ephemeris : Broadcast
% navi sys  : GPS GLONASS Galileo QZSS BDS NavIC SBAS
% amb res   : Fix and Hold
% amb glo   : Fix and Hold
% val thres : 3.0
% antenna1  :                       ( 0.0000  0.0000  0.0000)
% antenna2  :                       ( 0.0000  0.0000  0.0000)
% ref pos   : 22.322172082  114.141187963    20.2386
%
% (lat/lon/height=WGS84/ellipsoidal,Q=1:fix,2:float,3:sbas,4:dgps,5:single,6:ppp,ns=# of satellites)
%  GPST          latitude(deg) longitude(deg)  height(m)   Q  ns   sdn(m)   sde(m)   sdu(m)  sdne(m)  sdeu(m)  sdun(m) age(s)  ratio
2158 455342.000   22.301565318  114.190306585     3.5893   2   6   2.0701   2.0565   3.9311  -1.1458  -1.4583   0.6605   0.00    0.0
2158 455343.000   22.301565627  114.190306458     3.5575   2   5   1.5032   1.5152   2.8734  -0.8219  -1.0429   0.4899   0.00    0.0
2158 455344.000   22.301565789  114.190306808     3.5941   2   6   1.2379   1.2553   2.3735  -0.6735  -0.8540   0.4072   0.00    0.0
2158 455345.000   22.301566603  114.190306305     3.5909   2   6   1.0584   1.0934   2.0565  -0.5733  -0.7311   0.2902   0.00    0.0
2158 455346.000   22.301566649  114.190306063     3.5205   2   5   0.9527   0.9829   1.8479  -0.5156  -0.6561   0.2744   0.00    0.0
2158 455347.000   22.301566754  114.190305720     3.4719   2   5   0.8734   0.9002   1.6922  -0.4724  -0.6002   0.2596   0.00    0.0
2158 455348.000   22.301567193  114.190302642     3.4860   2   5   0.8111   0.8355   1.5701  -0.4385  -0.5566   0.2466   0.00    0.0
2158 455349.000   22.301567195  114.190295698     3.4139   2   5   0.7604   0.7829   1.4712  -0.4110  -0.5213   0.2352   0.00    0.0
2158 455350.000   22.301567724  114.190285223     3.3956   2   4   0.7183   0.7392   1.3889  -0.3881  -0.4920   0.2253   0.00    0.0
2158 455351.000   22.301571159  114.190272589     3.3896   2   4   0.6826   0.7021   1.3191  -0.3687  -0.4671   0.2167   0.00    0.0
2158 455352.000   22.301580386  114.190262140     3.5151   2   4   0.6848   0.7120   1.4364  -0.4179  -0.6043   0.4353   0.00    0.0
2158 455353.000   22.301591842  114.190255271     3.3337   2   6   0.6242   0.6421   1.2033  -0.3371  -0.4265   0.1994   0.00    0.0
2158 455354.000   22.301604702  114.190247718     3.3504   2   6   0.6000   0.6173   1.1568  -0.3240  -0.4098   0.1928   0.00    0.0
2158 455355.000   22.301618682  114.190239806     3.3408   2   7   0.5742   0.5945   1.1154  -0.3093  -0.3950   0.1869   0.00    0.0
2158 455356.000   22.301634391  114.190231317     3.2973   2   6   0.5541   0.5743   1.0787  -0.2976  -0.3820   0.1802   0.00    0.0
2158 455357.000   22.301655677  114.190220259     3.2100   2   5   0.5376   0.5566   1.0453  -0.2893  -0.3707   0.1788   0.00    0.0
2158 455358.000   22.301684043  114.190206255     3.2170   2   5   0.5218   0.5401   1.0145  -0.2808  -0.3595   0.1739   0.00    0.0
2158 455359.000   22.301717683  114.190190419     3.1245   2   5   0.5073   0.5251   0.9861  -0.2729  -0.3493   0.1693   0.00    0.0
2158 455360.000   22.301756001  114.190171702     3.1830   2   5   0.4939   0.5112   0.9601  -0.2657  -0.3398   0.1651   0.00    0.0
2158 455361.000   22.301798502  114.190151556     3.2118   2   5   0.4815   0.4983   0.9360  -0.2590  -0.3311   0.1612   0.00    0.0
2158 455362.000   22.301845203  114.190129007     3.2048   2   5   0.4700   0.4864   0.9136  -0.2528  -0.3230   0.1575   0.00    0.0
2158 455363.000   22.301895727  114.190104193     3.3088   2   5   0.4592   0.4753   0.8927  -0.2470  -0.3154   0.1540   0.00    0.0
2158 455364.000   22.301948579  114.190078117     3.2998   2   5   0.4491   0.4649   0.8732  -0.2415  -0.3084   0.1507   0.00    0.0
2158 455365.000   22.302000966  114.190052018     3.2657   2   6   0.4398   0.4546   0.8571  -0.2361  -0.2991   0.1508   0.00    0.0
2158 455366.000   22.302052176  114.190027299     3.1518   2   5   0.4311   0.4458   0.8420  -0.2308  -0.2913   0.1505   0.00    0.0
2158 455367.000   22.302101324  114.190002083     3.2153   2   5   0.4229   0.4375   0.8277  -0.2258  -0.2840   0.1500   0.00    0.0
2158 455368.000   22.302149163  114.189977717     3.1386   2   4   0.4155   0.4298   0.8143  -0.2206  -0.2775   0.1482   0.00    0.0
2158 455369.000   22.302194910  114.189951033     2.9918   4   3   0.4324   0.5536   1.2375   0.0630  -0.6411  -0.3345   0.00    0.0
2158 455370.000   22.302235489  114.189920399     2.6186   4   2   0.9063   1.5243   2.5246   1.0602  -0.9256  -0.1982   0.00    0.0
2158 455371.000   22.302265375  114.189882504     1.9150   4   2   1.8486   1.4939   3.8862   0.4797  -2.3469   0.0349   0.00    0.0
2158 455372.000   22.302271839  114.189833304     3.0110   4   3   2.0107   1.7390   4.5705  -0.2568  -2.7650   0.9975   0.00    0.0
2158 455373.000   22.302285862  114.189788487     3.0488   4   3   1.4760   1.7440   4.6510  -0.8776  -2.7983   1.5688   0.00    0.0
2158 455374.000   22.302285314  114.189742359     3.5622   4   3   1.3692   1.6914   4.5423  -1.0171  -2.7219   1.7637   0.00    0.0
2158 455375.000   22.302278929  114.189691117     6.1148   2   4   0.4966   1.1408   2.7837   0.5540  -1.7132  -0.9164   0.00    0.0
2158 455376.000   22.302261443  114.189649205     6.9824   4   3   0.8561   1.3976   3.6736  -0.6734  -2.2086   1.1552   0.00    0.0
2158 455377.000   22.302235507  114.189609588     7.7043   2   4   0.6359   1.5042   3.7913   0.8454  -2.3382  -1.3812   0.00    0.0
2158 455378.000   22.302214157  114.189577755     6.4718   2   5   0.4626   1.0195   2.4356   0.4881  -1.5026  -0.8087   0.00    0.0
2158 455379.000   22.302189560  114.189546816     5.2444   2   5   0.5958   0.9298   2.2012   0.3298  -1.3502  -0.5187   0.00    0.0
2158 455380.000   22.302172075  114.189512402     5.9127   2   5   0.4173   0.8680   1.9996   0.3788  -1.2337  -0.6358   0.00    0.0
2158 455381.000   22.302152959  114.189496815     2.3303   2   4   0.5452   0.8532   2.0888  -0.2196  -1.2494   0.3792   0.00    0.0
2158 455382.000   22.302137304  114.189471366     1.9974   2   5   0.3821   0.6923   1.5709   0.2610  -0.9400  -0.4704   0.00    0.0
2158 455383.000   22.302118649  114.189443878     2.2859   2   5   0.3708   0.6346   1.4330   0.2199  -0.8427  -0.4159   0.00    0.0
2158 455384.000   22.302098261  114.189413970     2.6937   2   5   0.3732   0.6028   1.3658   0.1678  -0.7920  -0.3431   0.00    0.0
2158 455385.000   22.302077237  114.189382538     2.7980   2   5   0.3550   0.5646   1.2607   0.1657  -0.7219  -0.3459   0.00    0.0
2158 455386.000   22.302055399  114.189346077     2.7851   2   4   0.3556   0.5500   1.1969   0.1688  -0.6756  -0.3177   0.00    0.0
2158 455387.000   22.302035388  114.189302230     2.7547   4   2   0.9962   1.4647   1.4806   1.0578  -0.6558   0.5889   0.00    0.0
2158 455388.000   22.302016076  114.189252428     1.5915   4   2   1.3129   1.7412   2.5337   1.0308  -1.2354   1.3716   0.00    0.0
2158 455389.000   22.302005805  114.189202265     0.1726   4   2   1.4627   1.8250   3.1515   0.8433  -1.5997   1.7597   0.00    0.0
2158 455390.000   22.302003607  114.189152502    -1.8645   4   2   1.4980   1.8472   3.2594   0.8094  -1.6669   1.8300   0.00    0.0
2158 455391.000   22.302039695  114.189099133     0.6655   4   2   2.6833   1.9990   4.3912  -0.8310  -1.2824   2.7102   0.00    0.0
2158 455392.000   22.302069077  114.189042316     1.0918   4   0   3.1260   2.1698   5.2022  -1.2336  -1.3161   3.0507   0.00    0.0
2158 455393.000   22.302102296  114.188980402     0.8355   4   0   3.1747   2.1788   5.5006  -1.2708  -1.4225   3.1978   0.00    0.0
2158 455394.000   22.302122335  114.188929335     0.0872   4   0   3.2008   2.1852   5.5698  -1.2950  -1.4534   3.2432   0.00    0.0
2158 455395.000   22.302153312  114.188888629     1.2465   4   0   3.2117   2.1877   5.5869  -1.3034  -1.4567   3.2556   0.00    0.0
2158 455396.000   22.302187706  114.188851404     1.8811   4   0   3.2151   2.1881   5.6042  -1.3053  -1.4612   3.2654   0.00    0.0
2158 455397.000   22.302197906  114.188816819     1.4022   4   0   3.2191   2.1887   5.6230  -1.3079  -1.4673   3.2767   0.00    0.0
2158 455398.000   22.302209846  114.188791227     2.4037   4   0   3.2225   2.1892   5.6367  -1.3099  -1.4712   3.2855   0.00    0.0
2158 455399.000   22.302214367  114.188772921     3.4971   4   0   3.2242   2.1894   5.6438  -1.3106  -1.4727   3.2902   0.00    0.0
2158 455400.000   22.302224777  114.188756406     3.8375   4   0   3.2248   2.1895   5.6470  -1.3107  -1.4730   3.2924   0.00    0.0
2158 455401.000   22.302231769  114.188720442    10.2735   4   2   3.1016   2.0964   5.1203  -1.2929  -1.0392   3.0446   0.00    0.0
2158 455402.000   22.302231336  114.188699520    12.7836   2   4   2.4962   1.8530   4.8007  -1.5159  -1.5068   2.7011   0.00    0.0
2158 455403.000   22.302211773  114.188697916     9.7044   2   4   1.9623   1.3937   3.7407  -1.0557  -1.2336   2.1689   0.00    0.0
2158 455404.000   22.302197965  114.188697121     8.7343   2   6   1.7059   1.1797   3.1819  -0.8561  -0.9811   1.8766   0.00    0.0
2158 455405.000   22.302194296  114.188694626     8.9983   2   4   1.5370   1.0313   2.8202  -0.7318  -0.7930   1.6753   0.00    0.0
2158 455406.000   22.302194520  114.188694612     9.0656   2   6   1.4034   0.9245   2.5139  -0.6342  -0.6293   1.5057   0.00    0.0
2158 455407.000   22.302182159  114.188692729     6.2057   2   6   1.2626   0.8482   2.2065  -0.5873  -0.5700   1.3096   0.00    0.0
2158 455408.000   22.302177153  114.188690822     5.1791   2   5   1.1598   0.7913   1.9994  -0.5511  -0.5371   1.1754   0.00    0.0
2158 455409.000   22.302174079  114.188692073     4.1519   2   5   1.0808   0.7483   1.8614  -0.5242  -0.5278   1.0811   0.00    0.0
2158 455410.000   22.302173677  114.188693437     3.7648   2   5   1.0163   0.7117   1.7502  -0.5005  -0.5164   1.0063   0.00    0.0
2158 455411.000   22.302175013  114.188694394     3.8355   2   6   0.9617   0.6798   1.6566  -0.4786  -0.5028   0.9439   0.00    0.0
2158 455412.000   22.302176322  114.188695879     3.9325   2   6   0.9153   0.6520   1.5777  -0.4595  -0.4903   0.8922   0.00    0.0
2158 455413.000   22.302177831  114.188697068     4.1343   2   5   0.8754   0.6276   1.5104  -0.4429  -0.4789   0.8486   0.00    0.0
2158 455414.000   22.302179554  114.188698384     4.4520   2   5   0.8402   0.6058   1.4509  -0.4277  -0.4676   0.8105   0.00    0.0
2158 455415.000   22.302181918  114.188699650     4.9236   2   5   0.8088   0.5861   1.3981  -0.4139  -0.4568   0.7771   0.00    0.0
2158 455416.000   22.302183924  114.188700969     5.3150   2   6   0.7799   0.5678   1.3493  -0.4003  -0.4450   0.7459   0.00    0.0
2158 455417.000   22.302186451  114.188702092     5.8416   2   6   0.7540   0.5512   1.3061  -0.3881  -0.4345   0.7186   0.00    0.0
2158 455418.000   22.302189084  114.188703291     6.4364   2   5   0.7311   0.5363   1.2680  -0.3777  -0.4259   0.6951   0.00    0.0
2158 455419.000   22.302191877  114.188704379     7.0288   2   6   0.7092   0.5221   1.2311  -0.3670  -0.4157   0.6719   0.00    0.0
2158 455420.000   22.302194418  114.188705466     7.6273   2   6   0.6892   0.5090   1.1979  -0.3572  -0.4067   0.6512   0.00    0.0
2158 455421.000   22.302197581  114.188706519     8.3687   2   5   0.6714   0.4972   1.1686  -0.3490  -0.3995   0.6335   0.00    0.0
2158 455422.000   22.302200537  114.188707625     9.0566   2   6   0.6539   0.4857   1.1391  -0.3400  -0.3906   0.6150   0.00    0.0
2158 455423.000   22.302200061  114.188708117     8.8749   2   6   0.6415   0.4751   1.1230  -0.3311  -0.3811   0.6073   0.00    0.0
2158 455424.000   22.302199482  114.188708544     8.6950   2   5   0.6305   0.4655   1.1090  -0.3237  -0.3737   0.6013   0.00    0.0
2158 455425.000   22.302198924  114.188709121     8.4908   2   6   0.6189   0.4560   1.0930  -0.3153  -0.3644   0.5929   0.00    0.0
2158 455426.000   22.302198362  114.188709512     8.3148   2   6   0.6080   0.4470   1.0784  -0.3076  -0.3561   0.5854   0.00    0.0
2158 455427.000   22.302197623  114.188709965     8.1311   2   6   0.5977   0.4385   1.0643  -0.3004  -0.3482   0.5781   0.00    0.0
2158 455428.000   22.302197084  114.188710190     7.9568   2   6   0.5877   0.4305   1.0507  -0.2935  -0.3407   0.5710   0.00    0.0
2158 455429.000   22.302196929  114.188710237     7.8921   2   5   0.5791   0.4234   1.0394  -0.2881  -0.3353   0.5657   0.00    0.0
2158 455430.000   22.302196611  114.188710371     7.7818   2   5   0.5705   0.4165   1.0275  -0.2827  -0.3295   0.5598   0.00    0.0
2158 455431.000   22.302196285  114.188710389     7.6944   2   5   0.5622   0.4099   1.0159  -0.2775  -0.3240   0.5539   0.00    0.0
2158 455432.000   22.302195889  114.188710480     7.5971   2   5   0.5542   0.4037   1.0047  -0.2726  -0.3186   0.5481   0.00    0.0
2158 455433.000   22.302195598  114.188710470     7.5159   2   5   0.5465   0.3977   0.9938  -0.2678  -0.3135   0.5425   0.00    0.0
2158 455434.000   22.302195138  114.188710502     7.4534   2   5   0.5390   0.3920   0.9831  -0.2633  -0.3086   0.5368   0.00    0.0
2158 455435.000   22.302195019  114.188710458     7.3954   2   5   0.5317   0.3865   0.9728  -0.2589  -0.3038   0.5313   0.00    0.0
2158 455436.000   22.302194828  114.188710356     7.3556   2   5   0.5247   0.3812   0.9627  -0.2547  -0.2992   0.5258   0.00    0.0
2158 455437.000   22.302194798  114.188710397     7.3490   2   5   0.5178   0.3762   0.9529  -0.2507  -0.2947   0.5205   0.00    0.0
2158 455438.000   22.302194654  114.188710327     7.3298   2   5   0.5111   0.3713   0.9433  -0.2467  -0.2904   0.5151   0.00    0.0
2158 455439.000   22.302194511  114.188710362     7.2779   2   5   0.5046   0.3666   0.9339  -0.2429  -0.2862   0.5099   0.00    0.0
2158 455440.000   22.302194583  114.188710327     7.2682   2   5   0.4983   0.3621   0.9248  -0.2393  -0.2822   0.5047   0.00    0.0
2158 455441.000   22.302194217  114.188710357     7.2299   2   5   0.4921   0.3577   0.9158  -0.2357  -0.2783   0.4996   0.00    0.0
2158 455442.000   22.302193161  114.188710198     7.2229   2   5   0.4861   0.3535   0.9071  -0.2323  -0.2744   0.4946   0.00    0.0
2158 455443.000   22.302183109  114.188708200     7.2511   2   5   0.4802   0.3495   0.8985  -0.2290  -0.2707   0.4896   0.00    0.0
2158 455444.000   22.302158691  114.188699875     7.3000   2   5   0.4745   0.3455   0.8902  -0.2257  -0.2671   0.4846   0.00    0.0
2158 455445.000   22.302120715  114.188683608     7.3517   2   5   0.4689   0.3417   0.8820  -0.2226  -0.2636   0.4798   0.00    0.0
2158 455446.000   22.302072319  114.188657923     7.3338   2   4   0.4638   0.3385   0.8740  -0.2203  -0.2604   0.4751   0.00    0.0
2158 455447.000   22.302018605  114.188626528     8.4110   4   3   0.5518   0.4623   1.2623   0.2248   0.4783   0.7091   0.00    0.0
2158 455448.000   22.301969600  114.188606989    12.5958   4   2   0.8772   1.6799   2.5220   0.4021   0.1849   1.4066   0.00    0.0
2158 455449.000   22.301930542  114.188568913    19.5163   4   2   1.1599   1.9436   3.5857  -0.4818  -1.1937   1.9782   0.00    0.0
2158 455450.000   22.301889539  114.188511287    24.9352   4   3   1.2471   1.9512   3.8929  -0.5662  -1.3106   2.1476   0.00    0.0
2158 455451.000   22.301829531  114.188468465    22.2252   4   3   1.0348   1.0370   2.9127   0.9372   1.6405   1.6786   0.00    0.0
2158 455452.000   22.301786067  114.188378135    24.7926   4   2   1.1455   1.9224   3.5274  -0.2604  -0.9511   1.9512   0.00    0.0
2158 455453.000   22.301746429  114.188295180    23.7238   4   0   2.3120   2.1350   4.1829  -1.2128  -1.6657   2.2094   0.00    0.0
2158 455454.000   22.301677612  114.188227451    17.7815   4   2   1.3579   2.0876   4.3392  -0.8144  -1.7196   2.3787   0.00    0.0
2158 455455.000   22.301611853  114.188162293    10.8970   4   0   2.6327   2.4915   4.4227  -0.8707  -1.3310   2.4062   0.00    0.0
2158 455456.000   22.301508329  114.188137816     7.1620   4   2   2.7979   2.4339   3.9816  -1.1722  -1.7178   2.0922   0.00    0.0
2158 455457.000   22.301345291  114.188131543     4.2627   4   2   2.6946   2.1555   3.9034  -1.4627  -1.8149   2.0083   0.00    0.0
2158 455458.000   22.301334543  114.188023035     3.0697   4   0   3.1963   2.3951   4.2558  -1.9221  -1.5768   2.0734   0.00    0.0
2158 455459.000   22.301309350  114.187922472     1.9507   4   3   3.1696   2.3018   4.3379  -1.8478  -1.6164   2.0951   0.00    0.0
2158 455460.000   22.301298546  114.187874564     1.9613   4   2   2.2450   2.0125   4.3385  -0.8643  -1.2806   1.7258   0.00    0.0
2158 455461.000   22.301296245  114.187833815     3.5141   4   0   2.2934   2.0120   4.2512  -0.8975  -1.3786   1.8358   0.00    0.0
2158 455462.000   22.301352495  114.187771351     5.4789   4   2   2.9945   1.6521   4.1436  -1.3248  -2.1321   2.3763   0.00    0.0
2158 455463.000   22.301382034  114.187748179     7.1702   4   2   3.0418   1.5691   4.1576  -1.3265  -2.1516   2.4474   0.00    0.0
2158 455464.000   22.301384175  114.187736121     7.3835   4   3   3.1170   2.1321   4.2267  -1.7316  -1.8818   2.3412   0.00    0.0
2158 455465.000   22.301385682  114.187718469     7.2147   4   3   2.6263   2.4031   4.2247  -1.8666  -1.6348   2.5479   0.00    0.0
2158 455466.000   22.301386483  114.187715685     8.0253   4   2   2.8737   2.3822   4.1798  -1.9135  -1.6871   2.3962   0.00    0.0
2158 455467.000   22.301403808  114.187708405     7.2042   4   2   3.1988   2.4130   4.3212  -2.0026  -1.5920   2.0867   0.00    0.0
2158 455468.000   22.301388616  114.187710629     4.1376   4   2   2.8214   2.3488   4.3627  -2.2204  -1.6248   1.9226   0.00    0.0
2158 455469.000   22.301382408  114.187713605     2.3176   2   4   2.5898   2.2363   4.2238  -2.1420  -1.4866   1.6777   0.00    0.0
2158 455470.000   22.301379355  114.187716975     2.9035   4   3   2.3272   2.0933   3.8312  -1.9719  -2.1633   2.2371   0.00    0.0
2158 455471.000   22.301377102  114.187718454     2.5202   4   2   2.4041   2.2511   3.6740  -2.1407  -2.0797   2.1209   0.00    0.0
2158 455472.000   22.301371114  114.187723277     1.2634   4   3   2.2299   2.1185   3.3814  -2.0026  -2.2512   2.2765   0.00    0.0
2158 455473.000   22.301375560  114.187716209     1.6448   4   2   2.3885   2.2868   3.6093  -2.1992  -1.9277   1.9213   0.00    0.0
2158 455474.000   22.301371686  114.187714615     4.0967   4   2   2.4377   2.3369   4.0908  -2.2669  -1.6258   1.5600   0.00    0.0
2158 455475.000   22.301361294  114.187717610     5.7559   4   2   2.4180   2.3307   4.2637  -2.2654  -1.6511   1.5602   0.00    0.0
2158 455476.000   22.301362959  114.187699457     7.5047   4   2   2.8965   2.2858   4.2627  -1.9103  -1.3924   1.7449   0.00    0.0
2158 455477.000   22.301355712  114.187680888    10.5345   4   2   2.7049   1.6189   3.9254  -0.9207   0.5226   1.5751   0.00    0.0
2158 455478.000   22.301400388  114.187674433     8.6092   4   2   2.7412   1.9625   3.9595  -1.2983  -0.1182   1.4629   0.00    0.0
2158 455479.000   22.301435193  114.187693352    10.3337   4   0   3.2052   2.3981   4.2322  -1.9357  -1.4174   1.9419   0.00    0.0
2158 455480.000   22.301414669  114.187730088    12.0491   4   2   3.2391   2.3351   4.3400  -1.9159  -1.6586   2.1519   0.00    0.0
2158 455481.000   22.301394043  114.187762312    11.4521   4   3   3.0797   1.7855   4.2804  -1.5109  -1.9391   2.2545   0.00    0.0
2158 455482.000   22.301421104  114.187797004     9.5453   4   3   2.2616   1.8480   4.1865  -0.7971  -1.6102   1.8158   0.00    0.0
2158 455483.000   22.301454288  114.187850533     7.8184   4   3   2.0505   1.8649   3.8391   0.8011   1.8081   1.9304   0.00    0.0
2158 455484.000   22.301470710  114.187893967     6.0838   4   3   1.7106   1.4837   3.4147  -0.2494   1.4389   1.5645   0.00    0.0
2158 455485.000   22.301504081  114.187958505     7.8624   4   3   1.5633   1.4116   3.2681  -0.1636   1.4507   1.5100   0.00    0.0
2158 455486.000   22.301538203  114.188022312     9.1290   4   3   1.4753   1.3762   3.1983   0.2777   1.4851   1.5133   0.00    0.0
2158 455487.000   22.301570782  114.188080007    11.6380   4   3   1.4137   1.3483   3.1099   0.4165   1.5135   1.5213   0.00    0.0
2158 455488.000   22.301593158  114.188127401    11.9434   4   2   1.4286   1.6095   3.3900   0.7982   1.0105   1.3094   0.00    0.0
2158 455489.000   22.301614438  114.188163840     8.1718   4   0   2.4211   2.5212   3.9182  -0.7070   1.0278   1.6764   0.00    0.0
2158 455490.000   22.301660365  114.188192827     5.7053   4   0   3.1859   2.9495   4.1472  -1.8159   0.8045   2.0907   0.00    0.0
2158 455491.000   22.301727638  114.188300952    16.1031   4   2   1.3171   2.0195   3.5054   1.1190   0.2735   0.7249   0.00    0.0
2158 455492.000   22.301784345  114.188287703    16.2592   4   2   2.3172   2.8067   3.4128  -1.5816   0.7357  -0.4625   0.00    0.0
2158 455493.000   22.301763740  114.188313381    13.8364   4   3   1.2348   1.9202   3.3323   1.1135   0.6133   0.6935   0.00    0.0
2158 455494.000   22.301772123  114.188351017    17.5080   2   4   1.0152   1.3457   3.0750   0.6485   0.8327   0.9726   0.00    0.0
2158 455495.000   22.301768417  114.188341159    12.8887   4   3   1.0409   1.2034   2.9444   0.5880   0.9623   1.1461   0.00    0.0
2158 455496.000   22.301757645  114.188321750     8.7578   4   3   1.0506   1.1387   2.8210   0.6064   1.0338   1.2075   0.00    0.0
2158 455497.000   22.301774000  114.188296451     8.3036   4   3   1.7874   1.7462   2.7187  -1.2539   1.0700   1.2489   0.00    0.0
2158 455498.000   22.301768728  114.188304324     9.2826   4   3   1.2661   1.2706   2.6518  -0.2926   1.1336   1.2428   0.00    0.0
2158 455499.000   22.301769952  114.188296719     8.9411   2   4   1.1824   1.1730   2.5782   0.2392   1.1323   1.2316   0.00    0.0
2158 455500.000   22.301756344  114.188289071     5.6901   2   4   0.9445   1.1886   2.8282   0.7355   1.4701   1.2775   0.00    0.0
2158 455501.000   22.301761755  114.188293867     7.2247   2   4   0.7565   0.8976   2.0247   0.3649   0.8560   0.7667   0.00    0.0
2158 455502.000   22.301763942  114.188294085     7.5344   2   5   0.6913   0.8129   1.7657   0.2178   0.6728   0.5874   0.00    0.0
2158 455503.000   22.301766647  114.188297007     8.5588   2   4   0.6563   0.7523   1.6019   0.0828   0.5477   0.4900   0.00    0.0
2158 455504.000   22.301768940  114.188298884     9.3190   2   4   0.6312   0.7110   1.4931  -0.1161   0.4715   0.4305   0.00    0.0
2158 455505.000   22.301770068  114.188299617     9.6768   2   4   0.6099   0.6776   1.4061  -0.1641   0.4127   0.3835   0.00    0.0
2158 455506.000   22.301771478  114.188299902    10.0220   4   3   0.6915   0.7425   1.7096   0.3047   0.7200   0.7089   0.00    0.0
2158 455507.000   22.301776457  114.188304944    11.5557   4   3   0.8609   0.8961   2.2918   0.6072   1.1532   1.1488   0.00    0.0
2158 455508.000   22.301779554  114.188309108    12.3781   4   3   0.9847   1.0273   2.7453   0.7906   1.4594   1.4397   0.00    0.0
2158 455509.000   22.301776478  114.188305123    11.0602   4   3   1.0032   1.0509   2.8326   0.8261   1.5234   1.4951   0.00    0.0
2158 455510.000   22.301774406  114.188302155    10.0806   4   3   0.9999   1.0510   2.8391   0.8323   1.5361   1.5021   0.00    0.0
2158 455511.000   22.301770568  114.188296575     8.4980   4   3   0.9989   1.0521   2.8467   0.8400   1.5491   1.5110   0.00    0.0
2158 455512.000   22.301768131  114.188292479     7.3802   4   3   0.9987   1.0528   2.8534   0.8473   1.5605   1.5199   0.00    0.0
2158 455513.000   22.301770172  114.188293894     7.8206   4   3   0.9971   1.0511   2.8534   0.8518   1.5666   1.5246   0.00    0.0
2158 455514.000   22.301772443  114.188295885     8.4166   4   3   0.9944   1.0480   2.8498   0.8544   1.5696   1.5269   0.00    0.0
2158 455515.000   22.301772907  114.188295703     8.3925   4   3   0.9917   1.0450   2.8464   0.8566   1.5721   1.5287   0.00    0.0
2158 455516.000   22.301774433  114.188296887     8.7457   4   3   0.9891   1.0423   2.8439   0.8587   1.5748   1.5305   0.00    0.0
2158 455517.000   22.301776772  114.188299047     9.4073   2   4   0.5063   0.5393   1.1476  -0.1088   0.4206   0.3828   0.00    0.0
2158 455518.000   22.301775911  114.188297836     8.9565   2   4   0.4946   0.5343   1.1164  -0.1118   0.4165   0.3620   0.00    0.0
2158 455519.000   22.301774427  114.188295994     8.3184   4   3   0.6069   0.6529   1.5661   0.3565   0.7752   0.7282   0.00    0.0
2158 455520.000   22.301776221  114.188297982     8.8464   2   4   0.4735   0.5098   1.0516  -0.1434   0.3765   0.3198   0.00    0.0
2158 455521.000   22.301775732  114.188297205     8.5389   2   4   0.4661   0.5007   1.0313  -0.1473   0.3670   0.3105   0.00    0.0
2158 455522.000   22.301776115  114.188297574     8.5944   2   4   0.4585   0.4920   1.0101  -0.1518   0.3567   0.2994   0.00    0.0
2158 455523.000   22.301777113  114.188298960     8.8197   2   4   0.4513   0.4837   0.9902  -0.1555   0.3470   0.2891   0.00    0.0
2158 455524.000   22.301779181  114.188301132     8.6960   2   4   0.4445   0.4758   0.9694  -0.1586   0.3396   0.2809   0.00    0.0
2158 455525.000   22.301786315  114.188309033     8.6407   2   4   0.4381   0.4684   0.9503  -0.1609   0.3331   0.2737   0.00    0.0
2158 455526.000   22.301800484  114.188332854     9.8989   2   4   0.5835   0.6154   1.5102   0.3694   0.7703   0.7376   0.00    0.0
2158 455527.000   22.301828342  114.188370559    13.3860   4   3   0.8511   0.8899   2.4140   0.7365   1.3472   1.3132   0.00    0.0
2158 455528.000   22.301860577  114.188408605    15.6288   4   3   0.9376   0.9774   2.6956   0.8419   1.5200   1.4863   0.00    0.0
2158 455529.000   22.301888788  114.188432734    13.2008   4   3   0.9420   0.9820   2.7159   0.8510   1.5337   1.5004   0.00    0.0
2158 455530.000   22.301918593  114.188449327     8.4400   4   3   0.9397   0.9822   2.7190   0.8534   1.5378   1.5028   0.00    0.0
2158 455531.000   22.301964694  114.188476146     6.8459   4   3   0.9412   0.9873   2.7352   0.8604   1.5502   1.5123   0.00    0.0
2158 455532.000   22.302027453  114.188502244     4.0808   4   2   1.9683   1.2506   3.4919   1.3302   1.9007   1.6521   0.00    0.0
2158 455533.000   22.302068640  114.188523627     4.1882   4   3   1.2567   1.2763   3.6848   1.1932   2.1012   2.0881   0.00    0.0
2158 455534.000   22.302140959  114.188550040     3.8330   4   2   2.1348   1.3314   3.8088   1.4340   2.0518   1.7495   0.00    0.0
2158 455535.000   22.302196324  114.188559629     0.3728   4   2   2.2569   1.3298   3.8669   1.4463   2.0388   1.5879   0.00    0.0
2158 455536.000   22.302252208  114.188559746    -1.0063   4   2   2.6724   1.8249   4.2855   0.4592   1.2737   2.2867   0.00    0.0
2158 455537.000   22.302292209  114.188574770    -0.5131   4   2   3.1139   1.4231   5.2214  -1.1233  -1.6371   3.1013   0.00    0.0
2158 455538.000   22.302351962  114.188585387     3.4212   4   0   3.1976   2.0140   5.4126  -1.4045  -1.8871   3.2503   0.00    0.0
2158 455539.000   22.302396227  114.188601928     7.2490   4   2   3.2011   2.1757   5.5703  -1.2939  -1.4738   3.2902   0.00    0.0
2158 455540.000   22.302419127  114.188609335     9.1929   4   0   3.2132   2.1842   5.6754  -1.2531  -1.3497   3.3348   0.00    0.0
2158 455541.000   22.302437451  114.188612089     9.8850   4   0   3.2299   2.1967   5.7397  -1.2769  -1.4033   3.3765   0.00    0.0
2158 455542.000   22.302437750  114.188597367     6.7954   4   0   3.2398   2.2018   5.7769  -1.2890  -1.4284   3.4010   0.00    0.0
2158 455543.000   22.302419417  114.188586346     2.2677   4   0   3.2433   2.2018   5.7947  -1.2890  -1.4284   3.4111   0.00    0.0
2158 455544.000   22.302419548  114.188586836     0.2717   4   0   3.2442   2.2020   5.8016  -1.2887  -1.4277   3.4149   0.00    0.0
2158 455545.000   22.302431474  114.188595999     1.1573   4   0   3.2448   2.2023   5.8046  -1.2892  -1.4290   3.4169   0.00    0.0
2158 455546.000   22.302426023  114.188589769     0.2782   4   0   3.2454   2.2025   5.8070  -1.2895  -1.4297   3.4186   0.00    0.0
2158 455547.000   22.302427818  114.188585224     0.1760   4   0   3.2459   2.2026   5.8096  -1.2895  -1.4297   3.4204   0.00    0.0
2158 455548.000   22.302436812  114.188582832     0.5612   4   0   3.2463   2.2027   5.8122  -1.2894  -1.4296   3.4221   0.00    0.0
2158 455549.000   22.302426200  114.188588386     0.9818   4   0   3.2467   2.2028   5.8144  -1.2893  -1.4295   3.4236   0.00    0.0
2158 455550.000   22.302435753  114.188586325     1.7949   4   0   3.2469   2.2029   5.8161  -1.2892  -1.4293   3.4247   0.00    0.0
2158 455551.000   22.302437718  114.188585385     3.2533   4   0   3.2471   2.2030   5.8174  -1.2890  -1.4290   3.4257   0.00    0.0
2158 455552.000   22.302440296  114.188586245     5.5964   4   0   3.2472   2.2031   5.8186  -1.2888  -1.4286   3.4266   0.00    0.0
2158 455553.000   22.302435853  114.188588550     5.9088   4   0   3.2473   2.2032   5.8198  -1.2886  -1.4282   3.4275   0.00    0.0
2158 455554.000   22.302443551  114.188594872     7.1287   4   0   3.2475   2.2033   5.8209  -1.2884  -1.4279   3.4283   0.00    0.0
2158 455555.000   22.302447267  114.188598423     5.6280   4   0   3.2476   2.2034   5.8221  -1.2883  -1.4275   3.4292   0.00    0.0
2158 455558.000   22.302410720  114.188541047   -11.2486   4   0   3.9852   2.6294   7.0063  -2.0347  -1.3034   3.8887   0.00    0.0
2158 455559.000   22.302426620  114.188573786    -6.9721   4   0   3.6454   2.4944   6.0478  -1.8494  -1.1116   3.3460   0.00    0.0
2158 455563.000   22.302085915  114.188835725    22.8966   4   0   4.3285   2.5792   7.1885  -2.1714  -1.1373   3.6884   0.00    0.0
2158 455571.000   22.302684248  114.188615177    12.9472   4   3   2.1486   2.2210   4.1460  -1.2100  -1.4610   0.9912   0.00    0.0
2158 455572.000   22.302734214  114.188546374     0.4590   4   2   2.1423   2.2186   4.2280  -1.0998  -0.9962   1.1784   0.00    0.0
2158 455573.000   22.302774486  114.188499406    -4.0194   4   0   2.1822   2.2662   4.3437  -1.0426  -1.0041   1.2413   0.00    0.0
2158 455574.000   22.302847640  114.188451431    -6.1183   4   2   2.1225   2.2448   4.3545  -1.0235  -1.0378   1.3248   0.00    0.0
2158 455575.000   22.302895759  114.188406971    -5.0289   2   4   1.6464   2.6840   4.0955  -0.2104  -0.7927   1.8318   0.00    0.0
2158 455576.000   22.302954462  114.188349596    -2.7156   4   2   1.6849   4.1033   4.5596   1.8858  -2.5289   0.8895   0.00    0.0
2158 455577.000   22.303004017  114.188273280     0.2184   4   2   1.9272   4.5639   4.9436   2.4864  -3.2531  -1.3185   0.00    0.0
2158 455578.000   22.303069305  114.188168106     5.1134   4   0   2.1116   5.3395   5.0842   1.9995  -3.7465  -1.0021   0.00    0.0
2158 455579.000   22.303159057  114.188198545     1.5066   4   0   2.1024   3.6423   4.9169  -0.8218  -3.0473   1.0335   0.00    0.0
2158 455580.000   22.303191268  114.188140623    -1.2738   4   3   2.0625   3.5084   4.8242  -0.7473  -2.9856   1.1569   0.00    0.0
2158 455581.000   22.303303207  114.187942441    31.4153   4   3   2.0321   3.0165   3.9108   1.1105  -2.2190   1.6604   0.00    0.0
2158 455582.000   22.303374799  114.187831659    48.5680   2   4   1.9660   2.8216   4.3421   1.1879  -2.2207   1.8416   0.00    0.0
2158 455583.000   22.303415736  114.187714907    54.5681   4   2   1.9627   2.8750   5.3031   1.3213  -2.4107   1.9686   0.00    0.0
2158 455584.000   22.303501598  114.187602367    52.9823   4   0   2.6944   3.3799   6.7751  -1.2011  -3.4509   3.0767   0.00    0.0
2158 455585.000   22.303540126  114.187582155    32.5560   4   2   1.8897   2.9091   6.4283   1.3764  -2.7151   1.9781   0.00    0.0
2158 455586.000   22.303612282  114.187543880    20.9583   4   0   2.8851   3.5487   7.3340  -1.5926  -3.8196   3.4186   0.00    0.0
2158 455592.000   22.303949848  114.186824749    45.3354   4   0   5.7958   3.6657  11.2057   3.2619   4.6551   7.5215   0.00    0.0
2158 455593.000   22.304086058  114.186686660    83.4813   4   2   3.4048   2.2669   6.5024  -1.2789  -1.4282   3.7828   0.00    0.0
2158 455594.000   22.304116822  114.186506614    88.6179   4   0   4.9282   3.3638   9.2950   2.6105   3.7143   6.1521   0.00    0.0
2158 455595.000   22.304263434  114.186452558   107.0651   4   0   3.5606   2.2821   6.9055  -1.3522  -1.5471   4.0864   0.00    0.0
2158 455596.000   22.304231191  114.186590704    65.6040   4   0   4.0603   4.2668  10.4104  -3.0964  -5.6183   5.7019   0.00    0.0
2158 455597.000   22.304110465  114.186733846     8.8158   4   2   4.3132   4.9761  12.0119  -3.6881  -6.8718   6.4583   0.00    0.0
2158 455598.000   22.304095997  114.186748122   -14.6626   4   2   4.4416   5.0617  12.3633  -3.8755  -7.1657   6.6959   0.00    0.0
2158 455599.000   22.304088032  114.186711115   -15.4458   4   2   4.3644   4.4069  12.1226  -3.6429  -6.8946   6.5529   0.00    0.0
2158 455600.000   22.304104412  114.186725328   -20.6391   4   2   4.2968   4.4901  11.8278  -3.5828  -6.7344   6.3920   0.00    0.0
2158 455601.000   22.304149013  114.186702929   -21.2215   4   2   4.1827   4.9005  11.6151  -3.6293  -6.7087   6.2824   0.00    0.0
2158 455602.000   22.304183710  114.186655493   -15.0968   4   3   4.1149   3.9120  11.4417  -3.3715  -6.4364   6.1673   0.00    0.0
2158 455603.000   22.304223519  114.186614224    -7.2635   2   4   3.9424   4.3889  10.9882  -3.2653  -6.2157   5.8982   0.00    0.0
2158 455604.000   22.304263090  114.186570400    -0.6886   4   3   3.6136   3.7062  11.1596  -3.3067  -6.2369   5.9909   0.00    0.0
2158 455605.000   22.304303926  114.186540799     3.6776   4   2   3.8653   4.5015  11.2734  -3.4202  -6.4132   6.0598   0.00    0.0
2158 455606.000   22.304335613  114.186497032    10.4786   4   3   3.6425   4.5034  11.3180  -3.0633  -6.4435   6.0120   0.00    0.0
2158 455607.000   22.304363851  114.186450534    17.3224   2   4   3.3948   3.9582  11.0303  -3.2200  -6.2451   5.8681   0.00    0.0
2158 455608.000   22.304350398  114.186459265     6.7674   2   4   2.3101   2.7166   6.8950  -2.0267  -3.9432   3.7004   0.00    0.0
2158 455609.000   22.304365674  114.186433971     8.0011   2   4   2.0218   2.3762   5.8989  -1.7466  -3.3821   3.1746   0.00    0.0
2158 455610.000   22.304379500  114.186411354     9.8098   2   4   1.8860   2.2104   5.5035  -1.6422  -3.1578   2.9642   0.00    0.0
2158 455611.000   22.304382267  114.186378189    11.4324   2   4   1.9938   2.6565   5.1780  -0.9516  -3.0045   2.7711   0.00    0.0
2158 455612.000   22.304392569  114.186366516    12.9099   2   4   1.7334   2.1108   4.9034  -1.3615  -2.8245   2.6391   0.00    0.0
2158 455613.000   22.304398111  114.186352301    14.0245   2   4   1.6359   1.9663   4.6687  -1.3354  -2.6877   2.5153   0.00    0.0
2158 455614.000   22.304402794  114.186343029    14.8556   2   4   1.5593   1.8634   4.4648  -1.2929  -2.5699   2.4068   0.00    0.0
2158 455615.000   22.304405071  114.186337604    15.4268   2   4   1.4931   1.7760   4.2854  -1.2523  -2.4662   2.3113   0.00    0.0
2158 455616.000   22.304405357  114.186333103    16.0899   2   4   1.4350   1.7005   4.1260  -1.2142  -2.3740   2.2262   0.00    0.0
2158 455617.000   22.304404705  114.186329234    16.7241   2   4   1.3834   1.6341   3.9831  -1.1787  -2.2914   2.1499   0.00    0.0
2158 455618.000   22.304404289  114.186323195    17.7768   2   4   1.3371   1.5752   3.8541  -1.1456  -2.2167   2.0808   0.00    0.0
2158 455619.000   22.304404566  114.186317893    18.7640   4   3   1.3226   1.5493   3.8568  -1.1490  -2.2119   2.0804   0.00    0.0
2158 455620.000   22.304404072  114.186312569    19.5923   2   5   1.2570   1.4727   3.6289  -1.0870  -2.0855   1.9610   0.00    0.0
2158 455621.000   22.304404525  114.186307632    20.5788   2   4   1.2764   1.4831   3.7666  -1.1268  -2.1528   2.0308   0.00    0.0
2158 455622.000   22.304407600  114.186301575    22.1814   2   4   1.5691   1.7717   5.0131  -1.4817  -2.8129   2.6808   0.00    0.0
2158 455623.000   22.304406173  114.186302814    21.6050   2   5   1.1604   1.3522   3.3551  -1.0121  -1.9267   1.8143   0.00    0.0
2158 455624.000   22.304408521  114.186300536    21.9555   2   4   1.1328   1.3184   3.2765  -0.9899  -1.8812   1.7720   0.00    0.0
2158 455625.000   22.304412137  114.186298108    21.9774   4   3   1.1432   1.3226   3.3604  -1.0130  -1.9212   1.8142   0.00    0.0
2158 455626.000   22.304417566  114.186295135    21.6208   4   3   1.3856   1.5619   4.3961  -1.3047  -2.4681   2.3535   0.00    0.0
2158 455627.000   22.304422620  114.186291827    21.5619   2   4   1.0607   1.2304   3.0709  -0.9312  -1.7621   1.6613   0.00    0.0
2158 455628.000   22.304424888  114.186292473    21.2844   2   5   1.0387   1.2044   3.0090  -0.9132  -1.7264   1.6276   0.00    0.0
2158 455629.000   22.304427780  114.186292506    20.9410   2   5   1.0184   1.1799   2.9508  -0.8962  -1.6926   1.5961   0.00    0.0
2158 455630.000   22.304434922  114.186287463    20.7195   2   4   0.9997   1.1570   2.8965  -0.8803  -1.6610   1.5669   0.00    0.0
2158 455631.000   22.304449208  114.186274096    20.3735   4   3   1.0193   1.1723   3.0080  -0.9102  -1.7164   1.6237   0.00    0.0
2158 455632.000   22.304470999  114.186252521    20.0648   2   4   0.9651   1.1150   2.7971  -0.8511  -1.6033   1.5134   0.00    0.0
2158 455633.000   22.304498856  114.186223971    19.7174   4   3   1.0207   1.1664   3.0592  -0.9228  -1.7380   1.6487   0.00    0.0
2158 455634.000   22.304543879  114.186209523    19.4309   4   3   1.3855   2.1314   2.7080   1.0965  -1.5916   1.4405   0.00    0.0
2158 455635.000   22.304582487  114.186169420    19.3902   4   2   1.6976   2.6819   3.0111   1.5835  -1.7386   1.6031   0.00    0.0
2158 455636.000   22.304621148  114.186122197    19.5981   4   3   1.6405   2.6716   2.6269   1.6506  -1.5769   1.3757   0.00    0.0
2158 455637.000   22.304638250  114.186038783    19.8795   4   3   1.6392   2.6774   2.5887   1.6668  -1.5554   1.3546   0.00    0.0
2158 455638.000   22.304634258  114.185921969    19.9536   4   3   2.5811   4.4323   2.5520   3.1411  -1.5281   1.3387   0.00    0.0
2158 455639.000   22.304701545  114.185948725    19.5595   4   3   2.8902   4.9854   2.5179   3.5885  -1.4539   1.3538   0.00    0.0
2158 455640.000   22.304762743  114.185965447    19.0853   2   4   2.7590   4.7426   2.4871   3.4052  -1.4010   1.3566   0.00    0.0
2158 455641.000   22.304801077  114.185939644    18.5937   4   2   2.8865   4.9842   2.6532   3.5964  -1.3021   1.3932   0.00    0.0
2158 455642.000   22.304871043  114.185971928    20.2930   4   2   1.6710   2.7702   3.6946   1.7928  -1.5832   1.2520   0.00    0.0
2158 455643.000   22.304791972  114.185720091    26.0932   4   2   2.7025   4.6587   5.1895   3.3466   1.4937   2.1103   0.00    0.0
2158 455644.000   22.304670329  114.185411234    24.8633   4   2   3.1195   5.3570   6.0964   3.9183   2.8710   2.8325   0.00    0.0
2158 455645.000   22.304647120  114.185315366    28.6119   4   2   3.1598   5.4074   6.3504   3.9698   3.1549   3.0036   0.00    0.0
2158 455646.000   22.304771743  114.185515824    41.0140   4   2   3.1539   5.3971   6.3774   3.9655   3.1620   3.0016   0.00    0.0
2158 455647.000   22.304946216  114.185835852    54.7247   4   0   2.5005   3.2295   6.5674   0.3954  -2.9335   2.7169   0.00    0.0
2158 455648.000   22.304985044  114.185900126    61.7622   4   0   3.5499   4.1336   8.5992  -2.6015  -4.9003   4.6180   0.00    0.0
2158 455649.000   22.304976516  114.185902237    67.7859   4   0   3.9675   4.5417  10.0986  -3.1892  -5.8333   5.5441   0.00    0.0
2158 455650.000   22.304939282  114.185847141    81.3941   4   0   4.1083   4.6904  10.8906  -3.3908  -6.2443   5.9241   0.00    0.0
2158 455651.000   22.304961132  114.185766529   104.7702   4   0   4.1484   4.7371  11.1513  -3.4475  -6.3718   6.0390   0.00    0.0
2158 455652.000   22.305048769  114.185809983   111.3695   4   0   4.1559   4.7437  11.1923  -3.4568  -6.3906   6.0590   0.00    0.0
2158 455653.000   22.305159694  114.185867442   124.6375   4   0   4.1559   4.7399  11.1918  -3.4551  -6.3870   6.0590   0.00    0.0
2158 455654.000   22.305222050  114.185989067   111.8325   4   0   4.1586   4.7404  11.2099  -3.4575  -6.3930   6.0671   0.00    0.0
2158 455655.000   22.305326379  114.186202033    99.0316   4   0   4.1661   4.7469  11.2471  -3.4665  -6.4111   6.0861   0.00    0.0
2158 455656.000   22.305370490  114.186314213    88.9695   4   0   4.1750   4.7552  11.2866  -3.4775  -6.4318   6.1073   0.00    0.0
2158 455657.000   22.305350477  114.186294650    83.7706   4   0   4.1817   4.7612  11.3155  -3.4857  -6.4470   6.1232   0.00    0.0
2158 455658.000   22.305328902  114.186223292    90.5502   4   0   4.1852   4.7637  11.3310  -3.4896  -6.4543   6.1316   0.00    0.0
2158 455659.000   22.305348201  114.186224018    95.3200   4   0   4.1862   4.7636  11.3364  -3.4902  -6.4558   6.1345   0.00    0.0
2158 455660.000   22.305401844  114.186239626   102.2509   4   0   4.1861   4.7623  11.3370  -3.4893  -6.4544   6.1347   0.00    0.0
2158 455661.000   22.305419610  114.186218569   106.6312   4   2   4.0046   4.5966  10.9288  -3.2646  -6.1564   5.8275   0.00    0.0
2158 455662.000   22.305424158  114.186181196   108.5222   4   2   2.9939   3.8517   9.7527  -1.9967  -5.0520   4.5655   0.00    0.0
2158 455663.000   22.305433919  114.186134236   114.9748   4   2   2.6535   3.5238   8.7419  -1.3529  -4.3352   3.8533   0.00    0.0
2158 455664.000   22.305450510  114.186109232   121.2441   4   2   2.9791   3.6618   8.4377  -1.8005  -4.3426   3.9874   0.00    0.0
2158 455665.000   22.305449448  114.186052283   123.7545   4   2   3.6079   4.1501   9.2018  -2.6881  -5.1311   4.8839   0.00    0.0
2158 455666.000   22.305440038  114.186005294   119.4113   4   0   3.9836   4.5185  10.2590  -3.2002  -5.8692   5.6124   0.00    0.0
2158 455667.000   22.305401485  114.186001006   112.3496   4   0   4.1221   4.6795  10.9595  -3.3954  -6.2546   5.9619   0.00    0.0
2158 455668.000   22.305377527  114.185943336   106.9780   4   2   4.1589   4.5676  11.2445  -3.4082  -6.3524   6.0829   0.00    0.0
2158 455669.000   22.305399672  114.185930362   107.9399   4   0   4.1769   4.7232  11.3105  -3.4642  -6.4155   6.1188   0.00    0.0
2158 455670.000   22.305650662  114.186210376   144.4177   4   2   4.5691   5.7890  11.2073  -1.5836  -5.2485   6.2968   0.00    0.0
2158 455671.000   22.305860089  114.186377108   181.8285   4   2   4.8960   6.2909  11.3856   1.6067  -4.4213   6.6026   0.00    0.0
2158 455675.000   22.305814493  114.185744656   205.0509   4   0   3.6543   2.3425   7.1885  -1.4268  -1.6544   4.2475   0.00    0.0
2158 455676.000   22.305831079  114.185785131   207.8860   4   0   3.3480   2.2819   6.3052  -1.2869  -1.4104   3.6642   0.00    0.0
2158 455681.000   22.305552664  114.185029676   -10.2966   4   2   5.4622   3.9270  10.5380   3.6558   5.0524   6.9686   0.00    0.0
2158 455682.000   22.305628909  114.185084838    -2.7591   4   2   4.8771   3.6046   9.4650   3.3792   4.4888   6.2323   0.00    0.0
2158 455690.000   22.306295128  114.185666543    69.8128   4   0   4.7595   5.3570  13.4763  -4.0816  -7.5826   7.2683   0.00    0.0
2158 455691.000   22.306223658  114.185474097    67.1671   4   0   4.3682   4.9204  12.0027  -3.6003  -6.7145   6.4475   0.00    0.0
2158 455692.000   22.306096321  114.185275531    51.0184   4   2   4.6069   5.0079  13.0414  -3.8962  -7.2865   7.0269   0.00    0.0
2158 455693.000   22.306063306  114.185231737    45.9286   4   0   4.6683   5.2301  13.2912  -4.0344  -7.4832   7.1777   0.00    0.0
2158 455694.000   22.306068414  114.185219894    48.3620   4   3   2.5698   3.3092   8.2243  -1.0826  -3.9502   3.3423   0.00    0.0
2158 455695.000   22.306069188  114.185214662    48.7542   4   0   3.8590   4.4066  10.6546  -3.0422  -5.8631   5.5801   0.00    0.0
2158 455696.000   22.306084084  114.185154560    55.9393   4   2   4.3266   4.6997  11.9527  -3.5993  -6.7038   6.4725   0.00    0.0
2158 455697.000   22.306107087  114.185059644    73.4479   4   2   2.1347   3.0432   7.3472   0.9783  -3.1390   2.5205   0.00    0.0
2158 455698.000   22.306152557  114.185053572    84.7838   4   2   2.9812   4.7078   7.1844   2.9959   0.3471   3.2690   0.00    0.0
2158 455700.000   22.306274760  114.185095485    87.9669   4   2   3.6508   5.9843   7.9739   4.1501   3.2722   3.9696   0.00    0.0
2158 455701.000   22.306297885  114.185058204    81.6747   4   2   3.3928   5.5186   7.3648   3.8037   2.9112   3.7104   0.00    0.0
2158 455702.000   22.306344249  114.185077523    79.6081   4   2   3.3552   5.4989   7.1725   3.8069   2.8216   3.5898   0.00    0.0
2158 455703.000   22.306336386  114.185009013    72.2878   4   2   1.9637   2.9656   6.4260   1.4687  -2.4489   2.0700   0.00    0.0
2158 455704.000   22.306316570  114.184932034    68.4269   4   2   1.8929   2.9008   6.2798   1.4321  -2.5108   1.8935   0.00    0.0
2158 455705.000   22.306320812  114.184918304    66.9707   4   2   2.8553   4.7346   6.6058   3.2033   1.5620   2.8637   0.00    0.0
2158 455706.000   22.306309699  114.184884801    63.2863   4   2   1.8848   2.9041   6.2246   1.5579  -2.2772   1.8748   0.00    0.0
2158 455707.000   22.306307634  114.184877236    57.8059   4   2   1.8244   2.8183   6.1334   1.5022  -2.3588   1.7285   0.00    0.0
2158 455708.000   22.306298003  114.184858268    55.2799   4   3   1.7756   2.7325   6.0186   1.4551  -2.4325   1.5915   0.00    0.0
2158 455709.000   22.306299215  114.184860698    52.6011   4   3   1.5155   2.2340   5.8196   0.8922  -2.7968   1.0820   0.00    0.0
2158 455710.000   22.306303942  114.184869381    49.4233   4   3   1.4600   2.1487   5.6251   0.8170  -2.8994   0.7562   0.00    0.0
2158 455711.000   22.306304947  114.184870310    46.7559   4   3   1.4308   2.1129   5.4741   0.8137  -2.9325   0.4682   0.00    0.0
2158 455712.000   22.306307442  114.184874367    44.1841   4   3   1.4075   2.0865   5.3544   0.8216  -2.9467  -0.2208   0.00    0.0
2158 455713.000   22.306307243  114.184872647    43.6285   4   3   1.3863   2.0628   5.2661   0.8305  -2.9527  -0.5179   0.00    0.0
2158 455714.000   22.306311653  114.184881424    39.9491   4   3   1.5423   2.3928   5.3730   1.2639  -2.6546   0.7131   0.00    0.0
2158 455715.000   22.306318810  114.184895129    36.0898   4   3   1.3709   2.0622   5.2538   0.9055  -2.8765  -0.5924   0.00    0.0
2158 455716.000   22.306323307  114.184904304    33.2950   4   3   1.3404   2.0167   5.2062   0.8770  -2.8989  -0.7595   0.00    0.0
2158 455717.000   22.306325377  114.184908014    31.9819   4   3   1.3209   1.9929   5.1555   0.8751  -2.9040  -0.8579   0.00    0.0
2158 455718.000   22.306327401  114.184912808    30.6411   4   3   1.3051   1.9756   5.1032   0.8800  -2.9050  -0.9342   0.00    0.0
2158 455719.000   22.306325953  114.184910286    31.3398   4   3   1.2912   1.9613   5.0570   0.8873  -2.9044  -0.9976   0.00    0.0
2158 455720.000   22.306323169  114.184904843    32.8265   4   3   1.2784   1.9483   5.0184   0.8948  -2.9027  -1.0517   0.00    0.0
2158 455721.000   22.306327083  114.184913698    30.8081   4   3   1.2661   1.9357   4.9859   0.9014  -2.8999  -1.0980   0.00    0.0
2158 455722.000   22.306330449  114.184921748    29.1142   4   3   1.2544   1.9233   4.9578   0.9073  -2.8960  -1.1382   0.00    0.0
2158 455723.000   22.306336002  114.184933746    29.0179   4   2   1.4560   2.3367   5.1503   1.3607  -2.5238  -0.5049   0.00    0.0
2158 455724.000   22.306340858  114.184937746    24.7815   4   3   1.2354   1.9062   4.9161   0.9245  -2.8928  -1.2134   0.00    0.0
2158 455725.000   22.306346388  114.184927221    25.2145   4   3   1.2234   1.8909   4.8887   0.9244  -2.8817  -1.2343   0.00    0.0
2158 455726.000   22.306351273  114.184900576    26.5019   4   2   2.1552   1.9855   5.6797  -0.5180  -3.1830   1.9031   0.00    0.0
2158 455727.000   22.306389883  114.184874781    26.3348   4   3   1.2090   1.8564   4.7116   0.9647  -2.8189  -1.3530   0.00    0.0
2158 455728.000   22.306436953  114.184862895    20.2016   4   3   1.1867   1.8294   4.5989   0.9695  -2.7716  -1.3914   0.00    0.0
2158 455729.000   22.306493536  114.184862014    10.8279   4   3   1.1675   1.8191   4.5522   0.9801  -2.7579  -1.4367   0.00    0.0
2158 455730.000   22.306544338  114.184851703    11.2940   4   2   1.3384   2.2663   4.6281   1.3826  -2.5010  -1.2259   0.00    0.0
2158 455731.000   22.306581955  114.184821184    19.7930   4   2   1.4191   2.4972   4.7359   1.5703  -2.2507  -1.0136   0.00    0.0
2158 455732.000   22.306591097  114.184718766    36.9808   4   2   1.2121   1.7499   4.0588   1.0953  -0.7526   0.8484   0.00    0.0
2158 455733.000   22.306636046  114.184698597    42.7190   4   3   1.2082   1.7162   3.8285   1.1146  -0.4799   0.8448   0.00    0.0
2158 455734.000   22.306706459  114.184756401    37.1879   4   3   1.3611   2.2794   2.7617   1.5034  -1.2444   0.3430   0.00    0.0
2158 455735.000   22.306748117  114.184773378    36.6001   4   2   1.3577   2.3679   2.6201   1.5475  -1.3792  -0.1170   0.00    0.0
2158 455736.000   22.306769511  114.184765246    35.9670   4   2   1.3612   2.4030   3.5051   1.5729  -1.6964  -0.6223   0.00    0.0
2158 455737.000   22.306774813  114.184732872    38.0668   4   2   1.3829   2.4516   4.4585   1.6173  -2.0667  -1.0099   0.00    0.0
2158 455738.000   22.306724412  114.184609037    36.3566   4   2   1.2882   1.9058   4.6426   1.3302   1.1507   1.3847   0.00    0.0
2158 455739.000   22.306716314  114.184575682    36.9751   4   2   1.3089   1.9106   4.6869   1.3638   1.4260   1.4878   0.00    0.0
2158 455740.000   22.306721678  114.184583909    34.4925   4   2   1.2878   1.9080   4.6730   1.3555   1.3999   1.4518   0.00    0.0
2158 455741.000   22.306728304  114.184606116    30.2553   4   2   1.2697   1.9086   4.6756   1.3501   1.3940   1.4307   0.00    0.0
2158 455742.000   22.306723175  114.184608349    24.5430   4   2   1.8487   2.9775   5.5286   2.2174   2.9429   2.4454   0.00    0.0
2158 455743.000   22.306711068  114.184598898    15.5633   4   3   1.9850   3.1721   6.0459   2.3945   3.5324   2.8813   0.00    0.0
2158 455744.000   22.306727432  114.184638514    20.0987   4   2   1.2921   1.9593   4.9146   1.4105   1.6377   1.5748   0.00    0.0
2158 455745.000   22.306726338  114.184646257    25.0026   2   4   1.2224   1.8625   4.5764   1.3236   1.5749   1.4948   0.00    0.0
2158 455746.000   22.306731408  114.184664291    28.0674   4   3   1.0914   1.5864   4.3750   1.1107   1.9471   1.7003   0.00    0.0
2158 455747.000   22.306729845  114.184668274    27.5883   2   4   0.9604   1.2957   3.4108   0.8813   1.4357   1.3765   0.00    0.0
2158 455748.000   22.306727976  114.184671159    27.7726   2   4   0.9158   1.2030   3.1217   0.8082   1.3349   1.3073   0.00    0.0
2158 455749.000   22.306726635  114.184676079    28.6718   4   3   0.9887   1.3856   3.4546   0.9617   1.7534   1.5526   0.00    0.0
2158 455750.000   22.306723065  114.184676956    28.9982   2   4   1.0424   1.5157   3.7329   1.0691   2.0356   1.7303   0.00    0.0
2158 455751.000   22.306717540  114.184672724    27.7552   4   3   1.0479   1.5395   3.7891   1.0896   2.1140   1.7754   0.00    0.0
2158 455752.000   22.306705561  114.184655643    23.4259   4   3   1.0388   1.5310   3.7681   1.0843   2.1268   1.7776   0.00    0.0
2158 455753.000   22.306689820  114.184630553    17.2178   4   3   1.3551   2.1240   5.0392   1.5710   3.0897   2.4749   0.00    0.0
2158 455754.000   22.306679868  114.184617032    13.7893   4   3   1.0876   1.6294   3.9525   1.1736   2.3169   1.9084   0.00    0.0
2158 455755.000   22.306671004  114.184605399    10.8005   4   3   1.0300   1.5334   3.7429   1.0929   2.1764   1.7985   0.00    0.0
2158 455756.000   22.306666668  114.184602948    10.0567   4   3   1.0164   1.5221   3.7144   1.0819   2.1704   1.7850   0.00    0.0
2158 455757.000   22.306664520  114.184604665    10.3540   4   3   1.0119   1.5240   3.7107   1.0833   2.1824   1.7873   0.00    0.0
2158 455758.000   22.306663789  114.184610497    11.6871   4   3   1.0073   1.5222   3.6977   1.0831   2.1868   1.7863   0.00    0.0
2158 455759.000   22.306661952  114.184614384    12.5739   4   3   1.0027   1.5190   3.6820   1.0822   2.1878   1.7839   0.00    0.0
2158 455760.000   22.306655991  114.184610752    11.6468   4   3   0.9988   1.5170   3.6699   1.0822   2.1900   1.7825   0.00    0.0
2158 455761.000   22.306649186  114.184606822    10.7167   2   4   0.9954   1.5157   3.6599   1.0828   2.1929   1.7821   0.00    0.0
2158 455762.000   22.306645979  114.184607877    10.9315   4   3   0.9918   1.5154   3.6541   1.0834   2.1974   1.7816   0.00    0.0
2158 455763.000   22.306642996  114.184609456    11.2790   4   3   0.9881   1.5148   3.6479   1.0835   2.2009   1.7804   0.00    0.0
2158 455764.000   22.306638006  114.184607153    10.6673   4   3   0.9844   1.5141   3.6417   1.0835   2.2038   1.7789   0.00    0.0
2158 455765.000   22.306630280  114.184599067     8.6533   4   3   0.9808   1.5135   3.6360   1.0835   2.2065   1.7773   0.00    0.0
2158 455766.000   22.306623815  114.184592656     7.0559   4   3   0.9774   1.5130   3.6307   1.0836   2.2091   1.7759   0.00    0.0
2158 455767.000   22.306638097  114.184625166    14.7648   4   3   1.3001   2.1189   5.0035   1.5659   3.1634   2.4733   0.00    0.0
2158 455768.000   22.306621478  114.184600237     8.7170   4   3   1.0307   1.6168   3.8564   1.1716   2.3789   1.8979   0.00    0.0
2158 455769.000   22.306613572  114.184591522     6.5703   4   3   0.9759   1.5218   3.6386   1.0939   2.2313   1.7854   0.00    0.0
2158 455770.000   22.306632043  114.184631964    16.1667   4   3   1.2911   2.1194   4.9979   1.5649   3.1700   2.4686   0.00    0.0
2158 455771.000   22.306653183  114.184676264    26.6799   4   3   1.4821   2.4605   5.7786   1.8340   3.6999   2.8659   0.00    0.0
2158 455772.000   22.306675747  114.184722205    37.6330   4   3   1.5389   2.5562   5.9968   1.9119   3.8489   2.9809   0.00    0.0
2158 455773.000   22.306691273  114.184755656    45.4966   4   3   1.5448   2.5654   6.0163   1.9206   3.8643   2.9930   0.00    0.0
2158 455774.000   22.306704652  114.184784818    52.3448   4   3   1.5410   2.5628   6.0089   1.9179   3.8614   2.9881   0.00    0.0
2158 455775.000   22.306712267  114.184801693    56.2715   4   3   1.5384   2.5659   6.0145   1.9181   3.8673   2.9876   0.00    0.0
2158 455776.000   22.306714246  114.184808257    57.6725   4   3   1.5368   2.5717   6.0264   1.9201   3.8772   2.9895   0.00    0.0
2158 455777.000   22.306708727  114.184799726    55.4836   4   3   1.5347   2.5757   6.0340   1.9209   3.8842   2.9899   0.00    0.0
2158 455778.000   22.306623398  114.184641640    17.4451   4   3   1.0259   1.6489   3.9022   1.1977   2.4475   1.9211   0.00    0.0
2158 455779.000   22.306604194  114.184608551     9.3828   4   3   0.9534   1.5346   3.6382   1.0994   2.2692   1.7776   0.00    0.0
2158 455780.000   22.306601869  114.184608154     9.1106   4   3   0.9465   1.5306   3.6263   1.0946   2.2640   1.7691   0.00    0.0
2158 455781.000   22.306611270  114.184629074    13.9750   4   3   0.9455   1.5271   3.6161   1.0943   2.2597   1.7674   0.00    0.0
2158 455782.000   22.306619234  114.184646820    18.0533   4   3   0.9434   1.5192   3.5963   1.0915   2.2486   1.7621   0.00    0.0
2158 455783.000   22.306626132  114.184661458    21.4088   4   3   0.9419   1.5142   3.5833   1.0902   2.2420   1.7589   0.00    0.0
2158 455784.000   22.306630074  114.184671013    23.5110   4   3   0.9407   1.5130   3.5786   1.0906   2.2412   1.7582   0.00    0.0
2158 455785.000   22.306631325  114.184675574    24.3829   4   3   0.9389   1.5131   3.5767   1.0909   2.2423   1.7574   0.00    0.0
2158 455786.000   22.306630412  114.184675282    24.1408   4   3   0.9364   1.5130   3.5745   1.0906   2.2431   1.7555   0.00    0.0
2158 455787.000   22.306613521  114.184644538    16.6056   4   3   1.2589   2.1230   4.9711   1.5639   3.1911   2.4482   0.00    0.0
2158 455788.000   22.306590152  114.184601758     6.1676   4   3   1.4433   2.4569   5.7396   1.8226   3.7064   2.8325   0.00    0.0
2158 455789.000   22.306572961  114.184572152    -1.1559   4   3   1.4969   2.5506   5.9550   1.8965   3.8512   2.9423   0.00    0.0
2158 455790.000   22.306560450  114.184551812    -6.2537   4   3   1.5027   2.5617   5.9792   1.9054   3.8685   2.9550   0.00    0.0
2158 455791.000   22.306550282  114.184536204   -10.2135   4   3   1.5002   2.5618   5.9774   1.9043   3.8688   2.9523   0.00    0.0
2158 455792.000   22.306545596  114.184531893   -11.5390   4   3   1.4989   2.5670   5.9869   1.9059   3.8767   2.9537   0.00    0.0
2158 455793.000   22.306534221  114.184515134    -9.7954   4   2   1.7437   3.0312   6.0411   2.2518   3.7405   2.8495   0.00    0.0
2158 455794.000   22.306437867  114.184491999   -19.5733   4   2   3.1258   3.3258   6.8580   2.3661   3.5129   3.9098   0.00    0.0
2158 455795.000   22.306273506  114.184484610   -46.4774   4   2   4.3653   3.3322   8.3433   2.4303   3.5720   5.4477   0.00    0.0
2158 455796.000   22.306207328  114.184459041   -64.2222   4   3   4.5694   3.2855   8.7990   2.6399   3.9680   5.8110   0.00    0.0
2158 455797.000   22.306236784  114.184436556   -67.9371   4   3   3.6918   3.4091   8.5239   2.8717   4.1213   5.1267   0.00    0.0
2158 455798.000   22.306289627  114.184459336   -57.8423   4   3   3.2898   3.4095   8.0535   2.8107   4.0419   4.6382   0.00    0.0
2158 455799.000   22.306326790  114.184476776   -47.1283   4   2   3.0560   3.3947   7.6641   2.7378   3.9425   4.3003   0.00    0.0
2158 455800.000   22.306363744  114.184488668   -35.8010   4   2   2.8746   3.3813   7.3247   2.6690   3.8436   4.0159   0.00    0.0
2158 455801.000   22.306513018  114.184614404     0.2914   4   0   2.6269   2.1335   5.7311   0.4459   0.8239   2.9652   0.00    0.0
2158 455802.000   22.306510024  114.184546408     4.9950   4   2   1.7039   1.9889   4.9953   1.1423   1.2095   1.9204   0.00    0.0
2158 455803.000   22.306525798  114.184469095     5.6381   4   2   1.6359   1.9727   4.8816   1.1898   1.2990   1.8020   0.00    0.0
2158 455804.000   22.306627328  114.184435648     8.8852   4   0   2.9759   3.0534   6.1946   1.9502   2.8021   3.4917   0.00    0.0
2158 455805.000   22.306806207  114.184465562    24.6387   4   2   4.0137   3.3251   7.8968   2.2882   3.4096   5.0516   0.00    0.0
2158 455806.000   22.306899975  114.184492434    38.7548   4   2   4.5627   3.2909   8.9144   2.4885   3.8204   5.8716   0.00    0.0
2158 455807.000   22.306919839  114.184482380    45.2294   4   0   4.7248   3.4288   9.2792   2.6791   3.9671   6.0823   0.00    0.0
2158 455808.000   22.306894913  114.184457890    43.8321   4   0   4.7381   3.4530   9.3534   2.7034   4.0061   6.1133   0.00    0.0
2158 455814.000   22.306978396  114.183732750    45.4652   4   0   2.2528   3.1404   4.7005  -0.6720   1.0307   1.6040   0.00    0.0
2158 455815.000   22.307043302  114.183932392    36.8165   4   2   4.0556   5.2969   9.9011   2.4844   5.9500   5.1354   0.00    0.0
