% program   : RTKPOST demo5 b34k
% inp file  : C:\Users\user\Desktop\AAE6102_Laboratory-main\AAE6102_Laboratory-main\GNSS Data\UrbanNav - Medium\20210521.medium-urban.whampoa.ublox.f9p.obs
% inp file  : C:\Users\user\Desktop\AAE6102_Laboratory-main\AAE6102_Laboratory-main\GNSS Data\UrbanNav - Medium\hksc141g.21o
% inp file  : C:\Users\user\Desktop\AAE6102_Laboratory-main\AAE6102_Laboratory-main\GNSS Data\UrbanNav - Medium\hksc141g.21n
% obs start : 2021/05/21 06:29:02.0 GPST (week2158 455342.0s)
% obs end   : 2021/05/21 06:54:39.0 GPST (week2158 456879.0s)
% pos mode  : DGPS
% freqs     : L1+L2/E5b
% solution  : Forward
% elev mask : 15.0 deg
% dynamics  : on
% tidecorr  : off
% ionos opt : Broadcast
% tropo opt : Saastamoinen
% ephemeris : Broadcast
% navi sys  : GPS GLONASS Galileo QZSS BDS NavIC SBAS
% antenna1  :                       ( 0.0000  0.0000  0.0000)
% antenna2  :                       ( 0.0000  0.0000  0.0000)
% ref pos   : 22.322172082  114.141187963    20.2386
%
% (lat/lon/height=WGS84/ellipsoidal,Q=1:fix,2:float,3:sbas,4:dgps,5:single,6:ppp,ns=# of satellites)
%  GPST          latitude(deg) longitude(deg)  height(m)   Q  ns   sdn(m)   sde(m)   sdu(m)  sdne(m)  sdeu(m)  sdun(m) age(s)  ratio
2158 455342.000   22.301561318  114.190303750     4.8636   4   7   1.6913   1.7051   3.4883  -0.9672  -0.7480   0.6467   0.00    0.0
2158 455343.000   22.301562093  114.190303592     4.9617   4   7   1.6686   1.6817   3.3333  -0.9434  -0.7052   0.6097   0.00    0.0
2158 455344.000   22.301562134  114.190304623     5.0889   4   7   1.6714   1.6848   3.3765  -0.9472  -0.7175   0.6220   0.00    0.0
2158 455345.000   22.301562808  114.190303086     4.9452   4   7   1.6515   1.6649   3.3702  -0.9395  -0.7204   0.6261   0.00    0.0
2158 455346.000   22.301562178  114.190302668     4.8352   4   7   1.6281   1.6412   3.2821  -0.9196  -0.7028   0.6120   0.00    0.0
2158 455347.000   22.301561962  114.190303283     4.8539   4   7   1.6222   1.6351   3.1820  -0.9114  -0.6811   0.5943   0.00    0.0
2158 455348.000   22.301562055  114.190301256     4.8937   4   7   1.6218   1.6346   3.0985  -0.9106  -0.6624   0.5790   0.00    0.0
2158 455349.000   22.301561421  114.190294240     4.8334   4   7   1.6215   1.6343   3.0447  -0.9102  -0.6502   0.5693   0.00    0.0
2158 455350.000   22.301562012  114.190282825     4.7661   4   7   1.6214   1.6342   3.0204  -0.9099  -0.6445   0.5654   0.00    0.0
2158 455351.000   22.301565318  114.190270659     4.7834   4   7   1.6213   1.6342   3.0142  -0.9098  -0.6429   0.5650   0.00    0.0
2158 455352.000   22.301574946  114.190260080     4.7401   4   7   1.6213   1.6343   3.0138  -0.9098  -0.6426   0.5657   0.00    0.0
2158 455353.000   22.301586761  114.190252984     4.6867   4   7   1.6213   1.6343   3.0135  -0.9097  -0.6423   0.5665   0.00    0.0
2158 455354.000   22.301600240  114.190245245     4.5615   4   7   1.6213   1.6344   3.0128  -0.9097  -0.6419   0.5671   0.00    0.0
2158 455355.000   22.301614566  114.190236868     4.5532   4   8   1.6124   1.6129   2.8935  -0.9340  -0.7955   0.4243   0.00    0.0
2158 455356.000   22.301628517  114.190229360     4.4494   4   8   1.6122   1.6128   2.8708  -0.9344  -0.8010   0.4138   0.00    0.0
2158 455357.000   22.301641508  114.190218055     3.3463   4   8   1.6121   1.6125   2.8695  -0.9345  -0.7994   0.4157   0.00    0.0
2158 455358.000   22.301673919  114.190200359     4.0351   4   8   1.6121   1.6125   2.8691  -0.9345  -0.7997   0.4164   0.00    0.0
2158 455359.000   22.301703221  114.190181286     4.0376   4   8   1.6121   1.6126   2.8679  -0.9345  -0.7992   0.4174   0.00    0.0
2158 455360.000   22.301743164  114.190156517     5.0287   4   8   1.6121   1.6126   2.8671  -0.9345  -0.7988   0.4184   0.00    0.0
2158 455361.000   22.301789724  114.190140040     5.7734   4   8   1.6121   1.6126   2.8669  -0.9345  -0.7986   0.4194   0.00    0.0
2158 455362.000   22.301835482  114.190120455     6.0233   4   8   1.6121   1.6126   2.8668  -0.9345  -0.7986   0.4204   0.00    0.0
2158 455363.000   22.301887689  114.190100222     5.8848   4   8   1.6121   1.6127   2.8668  -0.9345  -0.7985   0.4213   0.00    0.0
2158 455364.000   22.301940885  114.190072394     6.0616   4   8   1.6121   1.6127   2.8667  -0.9345  -0.7984   0.4223   0.00    0.0
2158 455365.000   22.301990062  114.190045855     4.3952   4   7   1.6209   1.6343   2.9816  -0.9102  -0.6484   0.5638   0.00    0.0
2158 455366.000   22.302041206  114.190016140     4.0814   4   7   1.6213   1.6348   3.0078  -0.9094  -0.6361   0.5769   0.00    0.0
2158 455367.000   22.302091609  114.189992538     3.9663   4   7   1.6213   1.6351   3.0099  -0.9093  -0.6381   0.5771   0.00    0.0
2158 455368.000   22.302133171  114.189957436     5.4895   4   7   1.6213   1.6353   3.0102  -0.9092  -0.6375   0.5781   0.00    0.0
2158 455369.000   22.302173640  114.189942059     5.1598   4   7   1.6251   1.8669   3.1411  -0.8530  -1.1005   0.4868   0.00    0.0
2158 455370.000   22.302212572  114.189925573     3.8672   4   7   1.6251   1.8834   3.1763  -0.8526  -1.1521   0.4867   0.00    0.0
2158 455371.000   22.302245961  114.189876644     3.8859   4   6   1.6253   2.5461   3.6338  -0.8339  -2.0821   0.4566   0.00    0.0
2158 455372.000   22.302262984  114.189823192     5.4069   4   6   1.6255   2.6624   3.8065  -0.8452  -2.2838   0.4874   0.00    0.0
2158 455373.000   22.302282577  114.189777645     4.8265   4   6   1.6256   2.6655   3.8355  -0.8466  -2.2970   0.4977   0.00    0.0
2158 455374.000   22.302279863  114.189730336     6.4365   4   6   1.6256   2.6667   3.8373  -0.8465  -2.2967   0.4988   0.00    0.0
2158 455375.000   22.302266105  114.189678050     7.1122   4   6   1.9278   2.7897   4.0116   0.3554  -2.4962  -0.9725   0.00    0.0
2158 455376.000   22.302246625  114.189636946     7.5697   4   6   1.9507   2.8147   4.0730   0.4869  -2.5481  -1.0702   0.00    0.0
2158 455377.000   22.302224410  114.189604311     7.8052   4   6   1.9511   2.8161   4.0845   0.4844  -2.5536  -1.0657   0.00    0.0
2158 455378.000   22.302220417  114.189587218     5.5919   4   6   1.6354   2.6825   3.8944  -0.8223  -2.3374   0.4261   0.00    0.0
2158 455379.000   22.302202292  114.189561941     3.4645   4   6   1.6282   2.6686   3.8559  -0.8469  -2.3053   0.5157   0.00    0.0
2158 455380.000   22.302170359  114.189521717     4.0703   4   6   1.6265   2.6682   3.8541  -0.8453  -2.3045   0.5057   0.00    0.0
2158 455381.000   22.302149306  114.189537164    -0.9341   4   7   1.6258   1.9173   3.2866  -0.8583  -1.2541   0.5306   0.00    0.0
2158 455382.000   22.302136313  114.189498992    -0.7713   4   7   1.6255   1.8886   3.2010  -0.8521  -1.1517   0.5084   0.00    0.0
2158 455383.000   22.302120352  114.189444194     2.7302   4   7   1.6253   1.8871   3.1963  -0.8523  -1.1561   0.5063   0.00    0.0
2158 455384.000   22.302098808  114.189400180     5.3906   4   7   1.6253   1.8848   3.1938  -0.8516  -1.1512   0.5054   0.00    0.0
2158 455385.000   22.302066044  114.189305278    12.5395   4   7   1.6215   1.6454   3.0481  -0.9091  -0.6775   0.5981   0.00    0.0
2158 455386.000   22.302050495  114.189282316    13.7449   4   7   1.6214   1.6380   3.0196  -0.9082  -0.6312   0.5950   0.00    0.0
2158 455387.000   22.302035588  114.189274648    11.0792   4   7   1.6213   1.6371   3.0175  -0.9086  -0.6353   0.5946   0.00    0.0
2158 455388.000   22.302013810  114.189239110     6.5332   4   7   1.6213   1.6366   3.0170  -0.9085  -0.6332   0.5952   0.00    0.0
2158 455389.000   22.302008900  114.189191754     4.0264   4   7   1.6213   1.6367   3.0155  -0.9084  -0.6327   0.5953   0.00    0.0
2158 455390.000   22.302015830  114.189144011     2.0850   4   7   1.6213   1.6367   3.0144  -0.9084  -0.6330   0.5958   0.00    0.0
2158 455391.000   22.302053900  114.189100064     4.3983   4   6   1.8608   1.6447   3.3194  -0.9861  -0.7904   1.2750   0.00    0.0
2158 455392.000   22.302070629  114.189043741     2.7410   4   6   2.3955   1.6585   4.1532  -1.1342  -1.0739   2.3167   0.00    0.0
2158 455393.000   22.302104077  114.188993464     2.3161   4   6   2.5146   1.6651   4.4815  -1.1826  -1.1835   2.5775   0.00    0.0
2158 455394.000   22.302128818  114.188940091     2.9360   4   6   2.5243   1.6662   4.5453  -1.1881  -1.2022   2.6093   0.00    0.0
2158 455395.000   22.302172252  114.188886157     5.8893   4   6   2.5251   1.6663   4.5509  -1.1885  -1.2032   2.6113   0.00    0.0
2158 455396.000   22.302193078  114.188841626     4.7958   4   6   2.5271   1.6666   4.5597  -1.1894  -1.2058   2.6170   0.00    0.0
2158 455397.000   22.302201321  114.188810871     3.5414   4   6   2.5292   1.6668   4.5727  -1.1903  -1.2089   2.6240   0.00    0.0
2158 455398.000   22.302209533  114.188789318     3.5246   4   6   2.5306   1.6669   4.5819  -1.1908  -1.2107   2.6289   0.00    0.0
2158 455399.000   22.302213583  114.188771967     3.9849   4   6   2.5313   1.6670   4.5859  -1.1910  -1.2113   2.6314   0.00    0.0
2158 455400.000   22.302220721  114.188755407     4.0996   4   6   2.5315   1.6670   4.5874  -1.1909  -1.2114   2.6324   0.00    0.0
2158 455401.000   22.302216183  114.188738265     3.2355   4   6   2.5317   1.6671   4.5886  -1.1909  -1.2113   2.6333   0.00    0.0
2158 455402.000   22.302206914  114.188723001     2.9531   4   6   2.5320   1.6672   4.5900  -1.1908  -1.2113   2.6343   0.00    0.0
2158 455403.000   22.302192667  114.188717804     1.7764   4   6   2.5322   1.6672   4.5916  -1.1908  -1.2114   2.6355   0.00    0.0
2158 455404.000   22.302180293  114.188713754     1.3872   4   6   2.5325   1.6673   4.5930  -1.1908  -1.2114   2.6365   0.00    0.0
2158 455405.000   22.302178321  114.188703976     3.1165   4   6   2.5327   1.6673   4.5942  -1.1907  -1.2114   2.6374   0.00    0.0
2158 455406.000   22.302187561  114.188688513     7.1894   4   6   2.5328   1.6674   4.5952  -1.1907  -1.2113   2.6382   0.00    0.0
2158 455407.000   22.302162250  114.188676989     1.8786   4   7   2.3074   1.6644   3.9533  -1.2335  -1.3040   2.1247   0.00    0.0
2158 455408.000   22.302163057  114.188676131     1.8899   4   7   2.2812   1.6632   3.8289  -1.2244  -1.2794   2.0431   0.00    0.0
2158 455409.000   22.302169499  114.188681597     3.5015   4   7   2.2803   1.6623   3.8190  -1.2230  -1.2732   2.0394   0.00    0.0
2158 455410.000   22.302179904  114.188682120     6.3214   4   7   2.2799   1.6623   3.8184  -1.2230  -1.2734   2.0389   0.00    0.0
2158 455411.000   22.302189663  114.188680133     9.3625   4   7   2.2790   1.6621   3.8129  -1.2223  -1.2712   2.0360   0.00    0.0
2158 455412.000   22.302194989  114.188680666    11.1225   4   7   2.2783   1.6619   3.8080  -1.2217  -1.2690   2.0337   0.00    0.0
2158 455413.000   22.302198035  114.188682269    12.2739   4   7   2.2780   1.6619   3.8062  -1.2214  -1.2683   2.0331   0.00    0.0
2158 455414.000   22.302201434  114.188684568    13.2392   4   7   2.2779   1.6619   3.8063  -1.2214  -1.2682   2.0333   0.00    0.0
2158 455415.000   22.302208679  114.188686573    14.8716   4   7   2.2779   1.6619   3.8066  -1.2214  -1.2683   2.0337   0.00    0.0
2158 455416.000   22.302211923  114.188687483    15.8132   4   7   2.2778   1.6620   3.8067  -1.2213  -1.2683   2.0340   0.00    0.0
2158 455417.000   22.302215724  114.188689631    16.8852   4   7   2.2778   1.6620   3.8067  -1.2213  -1.2682   2.0342   0.00    0.0
2158 455418.000   22.302221274  114.188691815    18.2223   4   7   2.2777   1.6620   3.8069  -1.2213  -1.2682   2.0345   0.00    0.0
2158 455419.000   22.302225095  114.188693814    19.3303   4   7   2.2776   1.6621   3.8071  -1.2212  -1.2682   2.0348   0.00    0.0
2158 455420.000   22.302230142  114.188694951    20.5009   4   7   2.2776   1.6621   3.8075  -1.2212  -1.2683   2.0352   0.00    0.0
2158 455421.000   22.302239414  114.188696725    22.5127   4   7   2.2776   1.6621   3.8078  -1.2212  -1.2683   2.0356   0.00    0.0
2158 455422.000   22.302244820  114.188698074    23.7199   4   7   2.2775   1.6622   3.8081  -1.2212  -1.2684   2.0360   0.00    0.0
2158 455423.000   22.302253643  114.188698589    25.5332   4   7   2.2775   1.6622   3.8085  -1.2212  -1.2684   2.0364   0.00    0.0
2158 455424.000   22.302259919  114.188699087    26.9968   4   7   2.2774   1.6622   3.8088  -1.2212  -1.2685   2.0368   0.00    0.0
2158 455425.000   22.302264257  114.188700924    28.0639   4   7   2.2774   1.6623   3.8092  -1.2212  -1.2686   2.0372   0.00    0.0
2158 455426.000   22.302267831  114.188701800    28.8073   4   7   2.2774   1.6623   3.8095  -1.2212  -1.2686   2.0376   0.00    0.0
2158 455427.000   22.302271748  114.188703444    29.6010   4   7   2.2773   1.6623   3.8099  -1.2211  -1.2687   2.0380   0.00    0.0
2158 455428.000   22.302272736  114.188703772    29.9024   4   7   2.2773   1.6624   3.8102  -1.2211  -1.2687   2.0383   0.00    0.0
2158 455429.000   22.302271868  114.188703483    29.5553   4   7   2.2772   1.6624   3.8106  -1.2211  -1.2688   2.0387   0.00    0.0
2158 455430.000   22.302267511  114.188704081    28.7749   4   7   2.2772   1.6625   3.8109  -1.2211  -1.2688   2.0391   0.00    0.0
2158 455431.000   22.302264566  114.188705484    28.1510   4   7   2.2772   1.6625   3.8113  -1.2211  -1.2689   2.0395   0.00    0.0
2158 455432.000   22.302261049  114.188705522    27.2036   4   7   2.2771   1.6625   3.8116  -1.2211  -1.2689   2.0399   0.00    0.0
2158 455433.000   22.302257936  114.188705438    26.4519   4   7   2.2771   1.6626   3.8119  -1.2211  -1.2690   2.0403   0.00    0.0
2158 455434.000   22.302255108  114.188705488    26.0702   4   7   2.2770   1.6626   3.8123  -1.2211  -1.2690   2.0407   0.00    0.0
2158 455435.000   22.302254832  114.188704881    26.3839   4   7   2.2770   1.6626   3.8126  -1.2210  -1.2691   2.0411   0.00    0.0
2158 455436.000   22.302253638  114.188704336    26.0985   4   7   2.2770   1.6627   3.8130  -1.2210  -1.2692   2.0415   0.00    0.0
2158 455437.000   22.302254116  114.188700827    26.4877   4   7   2.2769   1.6627   3.8133  -1.2210  -1.2692   2.0419   0.00    0.0
2158 455438.000   22.302255348  114.188699709    27.1411   4   7   2.2769   1.6627   3.8137  -1.2210  -1.2693   2.0423   0.00    0.0
2158 455439.000   22.302254642  114.188695164    27.5728   4   7   2.2768   1.6628   3.8140  -1.2210  -1.2693   2.0426   0.00    0.0
2158 455440.000   22.302254139  114.188693667    27.6143   4   7   2.2768   1.6628   3.8144  -1.2210  -1.2694   2.0430   0.00    0.0
2158 455441.000   22.302252664  114.188694684    26.9732   4   7   2.2768   1.6628   3.8147  -1.2209  -1.2694   2.0434   0.00    0.0
2158 455442.000   22.302254160  114.188697948    26.8498   4   7   2.2767   1.6629   3.8151  -1.2209  -1.2695   2.0438   0.00    0.0
2158 455443.000   22.302243795  114.188701855    25.9572   4   7   2.2767   1.6629   3.8154  -1.2209  -1.2695   2.0442   0.00    0.0
2158 455444.000   22.302220738  114.188699822    25.7656   4   7   2.2766   1.6629   3.8158  -1.2209  -1.2696   2.0446   0.00    0.0
2158 455445.000   22.302180355  114.188685375    25.9139   4   7   2.2766   1.6630   3.8161  -1.2209  -1.2696   2.0450   0.00    0.0
2158 455446.000   22.302125606  114.188659222    24.4403   4   7   2.2765   1.6630   3.8165  -1.2209  -1.2697   2.0454   0.00    0.0
2158 455447.000   22.302057657  114.188624043    21.3735   4   7   2.2765   1.6631   3.8168  -1.2208  -1.2697   2.0457   0.00    0.0
2158 455448.000   22.301986259  114.188576311    19.4012   4   7   2.2765   1.6631   3.8172  -1.2208  -1.2698   2.0461   0.00    0.0
2158 455449.000   22.301935874  114.188536520    20.8635   4   7   2.2764   1.6631   3.8175  -1.2208  -1.2698   2.0465   0.00    0.0
2158 455450.000   22.301887030  114.188480100    22.7651   4   7   2.2764   1.6632   3.8178  -1.2208  -1.2699   2.0469   0.00    0.0
2158 455451.000   22.301835817  114.188426627    23.4340   4   7   2.2763   1.6632   3.8182  -1.2208  -1.2699   2.0473   0.00    0.0
2158 455452.000   22.301786248  114.188369935    23.6699   4   7   2.2763   1.6632   3.8185  -1.2207  -1.2700   2.0477   0.00    0.0
2158 455453.000   22.301734049  114.188346563    19.7187   4   7   2.2762   1.6633   3.8189  -1.2207  -1.2700   2.0480   0.00    0.0
2158 455454.000   22.301667056  114.188280977    14.5936   4   7   1.8579   1.8688   3.4335  -1.0368  -1.4185   1.2376   0.00    0.0
2158 455455.000   22.301591666  114.188223897     9.0421   4   6   1.8563   2.0955   3.3749  -0.8964  -1.3989   1.1593   0.00    0.0
2158 455456.000   22.301515127  114.188184196    10.1195   4   6   2.2770   2.1391   4.0169  -1.1295  -1.6528   2.0585   0.00    0.0
2158 455457.000   22.301407303  114.188141258    10.7370   4   7   2.3076   1.9735   4.2343  -1.3531  -1.8635   2.2085   0.00    0.0
2158 455458.000   22.301398876  114.188025607     9.0455   4   6   2.5075   2.0855   4.2652  -1.5866  -1.8659   2.1922   0.00    0.0
2158 455459.000   22.301420283  114.187907134    14.3894   4   6   2.0221   1.7489   3.3533  -1.2602  -0.9139   1.1012   0.00    0.0
2158 455460.000   22.301435251  114.187834436    15.8548   4   6   2.0005   1.7351   3.2211  -1.2414  -0.8037   0.9783   0.00    0.0
2158 455461.000   22.301356741  114.187816571     9.2749   4   7   2.2256   1.6610   3.6603  -1.1968  -1.1928   1.9050   0.00    0.0
2158 455462.000   22.301353553  114.187768380     4.7796   4   6   2.4713   1.7705   3.8158  -1.4399  -1.2112   1.9958   0.00    0.0
2158 455463.000   22.301363305  114.187740040     3.9981   4   6   2.4828   1.7772   3.8281  -1.4528  -1.2049   1.9881   0.00    0.0
2158 455464.000   22.301361398  114.187732513     3.7005   4   6   2.4827   1.7770   3.8208  -1.4524  -1.2046   1.9864   0.00    0.0
2158 455465.000   22.301363176  114.187719094     5.1303   4   6   2.4851   1.7780   3.8227  -1.4547  -1.2068   1.9893   0.00    0.0
2158 455466.000   22.301368314  114.187717996     6.3147   4   6   2.4856   1.7782   3.8284  -1.4551  -1.2086   1.9920   0.00    0.0
2158 455467.000   22.301376636  114.187709662     7.4035   4   6   2.4857   1.7782   3.8317  -1.4551  -1.2094   1.9936   0.00    0.0
2158 455468.000   22.301366056  114.187704640     7.0799   4   6   2.4858   1.7783   3.8324  -1.4551  -1.2097   1.9942   0.00    0.0
2158 455469.000   22.301352140  114.187717156     4.9911   4   6   2.4857   1.7783   3.8323  -1.4551  -1.2097   1.9945   0.00    0.0
2158 455470.000   22.301338286  114.187753044     0.2234   4   6   2.4856   1.7783   3.8324  -1.4551  -1.2099   1.9950   0.00    0.0
2158 455471.000   22.301328381  114.187766694    -4.4410   4   6   2.4856   1.7783   3.8329  -1.4550  -1.2101   1.9955   0.00    0.0
2158 455472.000   22.301321206  114.187767687    -8.6076   4   6   2.4856   1.7783   3.8335  -1.4550  -1.2103   1.9962   0.00    0.0
2158 455473.000   22.301322571  114.187755368    -6.3155   4   6   2.4856   1.7784   3.8339  -1.4550  -1.2105   1.9967   0.00    0.0
2158 455474.000   22.301328486  114.187738105    -0.5263   4   6   2.4855   1.7784   3.8342  -1.4550  -1.2107   1.9972   0.00    0.0
2158 455475.000   22.301327650  114.187715972     4.8195   4   6   2.4855   1.7784   3.8345  -1.4549  -1.2109   1.9977   0.00    0.0
2158 455476.000   22.301349661  114.187691338     8.1147   4   6   2.4855   1.7784   3.8348  -1.4549  -1.2111   1.9982   0.00    0.0
2158 455477.000   22.301379682  114.187677050     7.4903   4   6   2.4854   1.7784   3.8352  -1.4549  -1.2112   1.9987   0.00    0.0
2158 455478.000   22.301424178  114.187655171     9.4506   4   6   2.4854   1.7784   3.8355  -1.4548  -1.2114   1.9992   0.00    0.0
2158 455479.000   22.301430614  114.187675153    12.8708   4   6   2.4853   1.7784   3.8358  -1.4548  -1.2116   1.9997   0.00    0.0
2158 455480.000   22.301425735  114.187711730    13.9546   4   6   2.4853   1.7785   3.8361  -1.4547  -1.2117   2.0002   0.00    0.0
2158 455481.000   22.301422778  114.187749154    12.0756   4   6   2.4853   1.7785   3.8364  -1.4547  -1.2119   2.0007   0.00    0.0
2158 455482.000   22.301458379  114.187778236     9.1460   4   6   2.4852   1.7785   3.8367  -1.4547  -1.2121   2.0012   0.00    0.0
2158 455483.000   22.301498409  114.187817337     7.0587   4   5   2.4978   1.9520   3.9349  -1.3835  -0.8763   2.0557   0.00    0.0
2158 455484.000   22.301492427  114.187886746     5.4720   4   6   2.4866   1.7824   3.8582  -1.4511  -1.1928   2.0108   0.00    0.0
2158 455485.000   22.301542603  114.187952610     7.3828   4   6   2.4852   1.7798   3.8399  -1.4552  -1.2162   2.0037   0.00    0.0
2158 455486.000   22.301562923  114.188021087     8.2890   4   6   2.4850   1.7791   3.8381  -1.4546  -1.2124   2.0032   0.00    0.0
2158 455487.000   22.301576609  114.188081881     8.8990   4   6   2.4850   1.7786   3.8391  -1.4545  -1.2131   2.0039   0.00    0.0
2158 455488.000   22.301550508  114.188150196     7.4654   4   6   2.4850   1.7787   3.8394  -1.4546  -1.2137   2.0046   0.00    0.0
2158 455489.000   22.301598756  114.188178126     6.4682   4   5   2.4973   1.9526   3.9365  -1.3842  -0.8788   2.0579   0.00    0.0
2158 455490.000   22.301657801  114.188198132     6.0591   4   5   2.4993   1.9612   3.9643  -1.3774  -0.8287   2.0700   0.00    0.0
2158 455491.000   22.301781633  114.188219320    17.4904   4   6   2.0123   1.9533   3.3052  -1.2741  -0.5366   1.0184   0.00    0.0
2158 455492.000   22.301796969  114.188252801    18.6923   4   6   1.9934   1.9530   3.2031  -1.2665  -0.4778   0.9021   0.00    0.0
2158 455493.000   22.301786353  114.188277334    15.4271   4   6   1.9925   1.9531   3.1991  -1.2666  -0.4770   0.9086   0.00    0.0
2158 455494.000   22.301724732  114.188362672    16.4595   4   8   1.8025   1.6363   3.1489  -1.0048  -0.8897   1.1037   0.00    0.0
2158 455495.000   22.301762854  114.188331630    13.1688   4   7   1.9765   1.7238   3.1617  -1.2085  -0.7691   0.9510   0.00    0.0
2158 455496.000   22.301786684  114.188302708    10.4418   4   7   1.9858   1.7278   3.1639  -1.2187  -0.7469   0.9282   0.00    0.0
2158 455497.000   22.301795276  114.188303719    10.8602   4   7   1.9853   1.7269   3.1633  -1.2179  -0.7498   0.9319   0.00    0.0
2158 455498.000   22.301792853  114.188311993    11.8239   4   7   1.9864   1.7276   3.1629  -1.2191  -0.7497   0.9324   0.00    0.0
2158 455499.000   22.301793254  114.188315158    12.3422   4   7   1.9863   1.7275   3.1629  -1.2190  -0.7489   0.9323   0.00    0.0
2158 455500.000   22.301788725  114.188320812    10.6251   4   6   2.0001   1.7611   3.3825  -1.1855  -0.3882   1.0734   0.00    0.0
2158 455501.000   22.301788517  114.188330410    10.4658   4   6   2.0017   1.7624   3.4399  -1.1833  -0.3303   1.0971   0.00    0.0
2158 455502.000   22.301789793  114.188340242    10.9556   4   6   2.0018   1.7626   3.4459  -1.1834  -0.3381   1.0989   0.00    0.0
2158 455503.000   22.301795004  114.188348924    13.6243   4   7   1.9872   1.7284   3.2119  -1.2180  -0.7390   0.9532   0.00    0.0
2158 455504.000   22.301796905  114.188349915    14.7986   4   7   1.9863   1.7281   3.1682  -1.2189  -0.7528   0.9368   0.00    0.0
2158 455505.000   22.301796255  114.188353698    14.9624   4   7   1.9863   1.7277   3.1670  -1.2188  -0.7504   0.9378   0.00    0.0
2158 455506.000   22.301796376  114.188355205    14.3497   4   7   1.9862   1.7277   3.1672  -1.2188  -0.7515   0.9385   0.00    0.0
2158 455507.000   22.301795270  114.188364903    14.1506   4   7   1.9862   1.7277   3.1650  -1.2188  -0.7511   0.9388   0.00    0.0
2158 455508.000   22.301792023  114.188385848    14.6222   4   6   2.0001   1.7615   3.3842  -1.1850  -0.3877   1.0794   0.00    0.0
2158 455509.000   22.301791068  114.188386618    14.6391   4   6   2.0017   1.7628   3.4416  -1.1827  -0.3283   1.1030   0.00    0.0
2158 455510.000   22.301791483  114.188381773    14.5393   4   6   2.0017   1.7630   3.4478  -1.1827  -0.3362   1.1048   0.00    0.0
2158 455511.000   22.301792332  114.188372707    13.9047   4   6   2.0017   1.7632   3.4482  -1.1826  -0.3349   1.1056   0.00    0.0
2158 455512.000   22.301791487  114.188371379    13.5528   4   6   2.0017   1.7632   3.4505  -1.1825  -0.3346   1.1069   0.00    0.0
2158 455513.000   22.301789320  114.188375498    13.6698   4   6   2.0017   1.7633   3.4526  -1.1824  -0.3356   1.1082   0.00    0.0
2158 455514.000   22.301787165  114.188381702    14.1065   4   6   2.0017   1.7633   3.4536  -1.1824  -0.3358   1.1091   0.00    0.0
2158 455515.000   22.301785519  114.188382526    14.3112   4   6   2.0017   1.7634   3.4539  -1.1823  -0.3356   1.1099   0.00    0.0
2158 455516.000   22.301785044  114.188377489    14.1509   4   6   2.0017   1.7634   3.4542  -1.1822  -0.3353   1.1107   0.00    0.0
2158 455517.000   22.301784127  114.188376172    13.9195   4   6   2.0017   1.7635   3.4545  -1.1821  -0.3351   1.1114   0.00    0.0
2158 455518.000   22.301783090  114.188376505    13.5738   4   6   2.0017   1.7635   3.4548  -1.1820  -0.3349   1.1122   0.00    0.0
2158 455519.000   22.301780884  114.188375086    13.0861   4   6   2.0017   1.7636   3.4551  -1.1819  -0.3346   1.1129   0.00    0.0
2158 455520.000   22.301777931  114.188376254    12.7677   4   6   2.0017   1.7636   3.4554  -1.1819  -0.3344   1.1137   0.00    0.0
2158 455521.000   22.301776362  114.188375592    12.5763   4   6   2.0016   1.7637   3.4556  -1.1818  -0.3341   1.1144   0.00    0.0
2158 455522.000   22.301775435  114.188374980    12.1853   4   6   2.0016   1.7637   3.4559  -1.1817  -0.3338   1.1151   0.00    0.0
2158 455523.000   22.301774274  114.188377056    12.2980   4   6   2.0016   1.7638   3.4561  -1.1816  -0.3336   1.1159   0.00    0.0
2158 455524.000   22.301775413  114.188379864    12.3415   4   6   2.0016   1.7638   3.4563  -1.1815  -0.3333   1.1166   0.00    0.0
2158 455525.000   22.301706889  114.188460157    19.1497   4   7   1.8380   1.6531   3.4058  -0.9530  -0.6886   1.3101   0.00    0.0
2158 455526.000   22.301731249  114.188503866    22.5153   4   7   1.8335   1.6494   3.3962  -0.9453  -0.7091   1.3232   0.00    0.0
2158 455527.000   22.301733527  114.188528334    18.9427   4   7   1.6298   1.6468   3.0893  -0.9067  -0.6198   0.7530   0.00    0.0
2158 455528.000   22.301768361  114.188550276    16.9173   4   7   1.6221   1.6459   3.0355  -0.9022  -0.6009   0.6947   0.00    0.0
2158 455529.000   22.301870026  114.188524490    15.1531   4   7   1.8140   1.6477   3.3119  -0.9358  -0.6792   1.2538   0.00    0.0
2158 455530.000   22.301942509  114.188486107     9.7482   4   7   1.8309   1.6484   3.3875  -0.9421  -0.7039   1.3229   0.00    0.0
2158 455531.000   22.301995853  114.188479883     6.8669   4   7   1.8307   1.6485   3.3922  -0.9418  -0.7044   1.3216   0.00    0.0
2158 455532.000   22.302046243  114.188508991     6.1525   4   6   2.3905   1.6641   4.2320  -1.1115  -1.0342   2.3750   0.00    0.0
2158 455533.000   22.302101064  114.188541404     7.2494   4   6   2.5305   1.6714   4.6074  -1.1681  -1.1632   2.6746   0.00    0.0
2158 455534.000   22.302153420  114.188552321     6.3457   4   6   2.5434   1.6725   4.6888  -1.1744  -1.1849   2.7162   0.00    0.0
2158 455535.000   22.302209468  114.188561347     5.0135   4   6   2.5438   1.6726   4.6949  -1.1744  -1.1851   2.7178   0.00    0.0
2158 455536.000   22.302259511  114.188568650     3.5329   4   6   2.5454   1.6727   4.7004  -1.1751  -1.1867   2.7218   0.00    0.0
2158 455537.000   22.302311482  114.188580545     3.9258   4   6   2.5474   1.6729   4.7120  -1.1758  -1.1893   2.7282   0.00    0.0
2158 455538.000   22.302358523  114.188597740     5.8868   4   6   2.5490   1.6730   4.7217  -1.1762  -1.1910   2.7334   0.00    0.0
2158 455539.000   22.302404078  114.188604841     8.3162   4   6   2.5498   1.6731   4.7266  -1.1764  -1.1916   2.7363   0.00    0.0
2158 455540.000   22.302425598  114.188605229     8.8343   4   6   2.5501   1.6731   4.7285  -1.1763  -1.1916   2.7375   0.00    0.0
2158 455541.000   22.302445486  114.188609893     9.5752   4   6   2.5502   1.6732   4.7296  -1.1762  -1.1915   2.7383   0.00    0.0
2158 455542.000   22.302444295  114.188593435     6.2537   4   6   2.5504   1.6732   4.7310  -1.1760  -1.1913   2.7392   0.00    0.0
2158 455543.000   22.302431974  114.188590109     2.9827   4   6   2.5506   1.6733   4.7325  -1.1760  -1.1913   2.7402   0.00    0.0
2158 455544.000   22.302427319  114.188587320     0.8891   4   6   2.5508   1.6733   4.7340  -1.1759  -1.1912   2.7412   0.00    0.0
2158 455545.000   22.302432919  114.188590164     1.1712   4   6   2.5510   1.6733   4.7352  -1.1757  -1.1911   2.7421   0.00    0.0
2158 455546.000   22.302430632  114.188586036     0.7851   4   6   2.5511   1.6734   4.7363  -1.1756  -1.1909   2.7428   0.00    0.0
2158 455547.000   22.302433147  114.188583444     1.0298   4   6   2.5512   1.6734   4.7374  -1.1755  -1.1907   2.7436   0.00    0.0
2158 455548.000   22.302437499  114.188581942     1.2586   4   6   2.5513   1.6735   4.7384  -1.1753  -1.1905   2.7443   0.00    0.0
2158 455549.000   22.302429987  114.188585889     1.5311   4   6   2.5515   1.6735   4.7394  -1.1752  -1.1903   2.7450   0.00    0.0
2158 455550.000   22.302436198  114.188585316     2.1053   4   6   2.5516   1.6735   4.7404  -1.1750  -1.1901   2.7457   0.00    0.0
2158 455551.000   22.302436441  114.188585929     3.0368   4   6   2.5517   1.6736   4.7415  -1.1749  -1.1899   2.7464   0.00    0.0
2158 455552.000   22.302437682  114.188586859     4.6360   4   6   2.5518   1.6736   4.7425  -1.1747  -1.1897   2.7471   0.00    0.0
2158 455553.000   22.302434130  114.188588680     4.7165   4   6   2.5519   1.6737   4.7435  -1.1746  -1.1895   2.7479   0.00    0.0
2158 455554.000   22.302437693  114.188591780     5.3618   4   6   2.5520   1.6737   4.7445  -1.1745  -1.1893   2.7486   0.00    0.0
2158 455555.000   22.302438772  114.188593447     4.2283   4   6   2.5521   1.6737   4.7455  -1.1743  -1.1890   2.7493   0.00    0.0
2158 455556.000   22.302438465  114.188590979     2.1022   4   4   2.8101   2.0512   5.3400  -1.0346   1.1431   3.0224   0.00    0.0
2158 455557.000   22.302436588  114.188590268     0.1995   4   4   2.8566   2.0937   5.5912  -0.9661   1.4010   3.1404   0.00    0.0
2158 455558.000   22.302417129  114.188567908    -5.5302   4   5   2.7235   1.7969   4.9427  -1.3778  -0.9876   2.7583   0.00    0.0
2158 455559.000   22.302423449  114.188583558    -3.2387   4   5   2.7026   1.7947   4.7977  -1.3967  -1.0653   2.6827   0.00    0.0
2158 455560.000   22.302430209  114.188588501     0.7221   4   4   2.8170   2.0677   5.3645  -1.0539   1.1880   3.0174   0.00    0.0
2158 455561.000   22.302447373  114.188591300     1.0247   4   4   2.8620   2.0957   5.6115  -0.9683   1.4044   3.1525   0.00    0.0
2158 455562.000   22.302446323  114.188598084    -1.0297   4   4   2.8719   2.0959   5.6644  -0.9694   1.4021   3.1818   0.00    0.0
2158 455563.000   22.302444767  114.188593650    -0.2351   4   4   2.9774   1.9124   5.0147  -1.6375  -0.7067   2.5999   0.00    0.0
2158 455564.000   22.302377430  114.188652293     5.9716   4   6   2.5674   1.6852   4.7921  -1.1937  -1.1839   2.7553   0.00    0.0
2158 455565.000   22.302420739  114.188680059    11.6680   4   5   2.7694   1.8352   5.2135  -0.7751   0.3906   3.1424   0.00    0.0
2158 455566.000   22.302493913  114.188623917     4.8255   4   4   2.8628   2.0747   5.5636  -0.9661   1.3182   3.1587   0.00    0.0
2158 455567.000   22.302535018  114.188593676     0.5832   4   4   2.8666   2.0963   5.6614  -0.9643   1.4086   3.1771   0.00    0.0
2158 455568.004   22.302578091  114.188574394     1.1795   4   3   2.9450   2.1535   5.9849  -1.1189   1.0236   3.3766   0.00    0.0
2158 455569.000   22.302617442  114.188565454     1.0164   4   4   2.8912   2.0990   5.7541  -0.9810   1.3788   3.2372   0.00    0.0
2158 455570.000   22.302601722  114.188595543    -1.0973   4   7   1.6492   1.6643   3.2862  -0.9193  -0.5913   0.8718   0.00    0.0
2158 455571.000   22.302661972  114.188569239    -3.4467   4   7   1.8232   1.6543   3.3720  -0.9368  -0.6822   1.2949   0.00    0.0
2158 455572.000   22.302740960  114.188535371    -3.7413   4   7   1.8358   1.6527   3.4490  -0.9421  -0.7037   1.3653   0.00    0.0
2158 455573.000   22.302793202  114.188497958    -4.3636   4   7   1.8322   1.6515   3.4388  -0.9395  -0.7028   1.3535   0.00    0.0
2158 455574.000   22.302857709  114.188447320    -4.4751   4   7   1.8322   1.6514   3.4173  -0.9391  -0.6967   1.3477   0.00    0.0
2158 455575.000   22.302917212  114.188395289    -4.8342   4   6   1.8440   1.8323   3.4532  -0.8459  -0.2206   1.3887   0.00    0.0
2158 455576.000   22.302979458  114.188336994    -4.6774   4   5   1.8459   2.1333   3.6475  -0.8784  -1.1054   1.4204   0.00    0.0
2158 455577.000   22.303027390  114.188272084    -3.4113   4   5   1.8478   2.1603   3.7057  -0.8941  -1.2003   1.4398   0.00    0.0
2158 455578.000   22.303081002  114.188196811    -1.2774   4   5   1.8484   2.1616   3.7122  -0.8931  -1.1972   1.4437   0.00    0.0
2158 455579.000   22.303146743  114.188179004    -0.5391   4   6   1.8371   1.9660   3.6843  -0.9902  -1.3558   1.4116   0.00    0.0
2158 455580.000   22.303185491  114.188115358    -3.0877   4   6   1.8367   1.9604   3.6801  -0.9936  -1.3687   1.4097   0.00    0.0
2158 455581.000   22.303225513  114.188063575    -4.2744   4   5   2.4803   2.0419   4.8727  -1.3950  -1.9249   2.7038   0.00    0.0
2158 455582.000   22.303309514  114.187951083    -0.7654   4   6   1.8821   2.6295   4.5912  -1.1670  -2.5292   1.6937   0.00    0.0
2158 455583.000   22.303361953  114.187841770     2.5902   4   5   2.7215   3.1803   6.9036  -2.1463  -3.9346   3.5736   0.00    0.0
2158 455584.000   22.303424759  114.187719545    12.0925   4   6   1.8974   2.7819   4.9766  -1.2508  -2.8470   1.8223   0.00    0.0
2158 455585.000   22.303526356  114.187618580    17.8690   4   5   2.7666   3.2206   7.1277  -2.2039  -4.0469   3.6952   0.00    0.0
2158 455586.000   22.303613037  114.187530496    23.3319   4   5   3.3921   3.7639   9.3232  -2.9480  -5.2994   5.0478   0.00    0.0
2158 455587.000   22.303668291  114.187436451    27.0001   4   4   3.8526   4.2040  10.7997  -3.1699  -5.8613   5.9263   0.00    0.0
2158 455588.000   22.303709202  114.187467518    23.9998   4   3   4.0255   4.5338  11.7288  -3.2521  -6.4245   6.2094   0.00    0.0
2158 455590.000   22.303522960  114.187040612    -7.0422   4   4   4.9520   6.8891  13.6377  -2.4323  -6.3069   7.6654   0.00    0.0
2158 455591.000   22.303599975  114.186698693     8.2289   4   5   5.1115   3.4037   9.9183   2.7589   3.8999   6.5857   0.00    0.0
2158 455592.000   22.303982254  114.186377213    82.0483   4   4   4.1462   3.7109   8.8792   2.4583   3.5983   5.6320   0.00    0.0
2158 455596.000   22.304049423  114.186854666     0.6174   4   5   4.3961   4.8911  13.3354  -4.1228  -7.5482   7.1720   0.00    0.0
2158 455597.000   22.304076677  114.186783621    -0.4113   4   5   3.7970   4.2180  11.1068  -3.4173  -6.2492   5.9447   0.00    0.0
2158 455598.000   22.304139736  114.186693187     5.0313   4   5   3.9948   4.4383  11.8640  -3.6560  -6.6898   6.3626   0.00    0.0
2158 455599.000   22.304187248  114.186599037    18.5126   4   5   4.2989   4.7774  13.0476  -4.0325  -7.3830   7.0191   0.00    0.0
2158 455600.000   22.304192341  114.186610597    13.3702   4   5   4.3484   4.8303  13.2692  -4.1074  -7.5192   7.1482   0.00    0.0
2158 455601.000   22.304223320  114.186596039     8.4873   4   5   4.2869   4.7597  13.0376  -4.0398  -7.3914   7.0272   0.00    0.0
2158 455602.000   22.304242895  114.186581893     8.4803   4   5   4.2009   4.6636  12.7013  -3.9383  -7.2004   6.8465   0.00    0.0
2158 455603.000   22.304252648  114.186555480     7.8330   4   5   4.1152   4.5677  12.3685  -3.8362  -7.0092   6.6662   0.00    0.0
2158 455604.000   22.304274425  114.186541872     7.0499   4   5   4.0389   4.4821  12.0723  -3.7448  -6.8384   6.5053   0.00    0.0
2158 455605.000   22.304295617  114.186523437     4.9817   4   5   3.9759   4.4111  11.8258  -3.6686  -6.6960   6.3714   0.00    0.0
2158 455606.000   22.304305857  114.186491553     7.1603   4   5   3.9274   4.3564  11.6350  -3.6097  -6.5856   6.2679   0.00    0.0
2158 455607.000   22.304318032  114.186454184    11.1570   4   5   3.8933   4.3174  11.5003  -3.5678  -6.5073   6.1948   0.00    0.0
2158 455608.000   22.304334906  114.186416103    15.1998   4   5   3.8718   4.2925  11.4158  -3.5411  -6.4576   6.1488   0.00    0.0
2158 455609.000   22.304346455  114.186383253    17.8858   4   5   3.8600   4.2782  11.3701  -3.5262  -6.4300   6.1239   0.00    0.0
2158 455610.000   22.304359480  114.186357063    20.6469   4   5   3.8545   4.2709  11.3497  -3.5188  -6.4166   6.1125   0.00    0.0
2158 455611.000   22.304364201  114.186333911    22.9245   4   5   3.8523   4.2672  11.3423  -3.5154  -6.4107   6.1082   0.00    0.0
2158 455612.000   22.304367502  114.186312062    24.9817   4   5   3.8512   4.2648  11.3397  -3.5135  -6.4075   6.1065   0.00    0.0
2158 455613.000   22.304374471  114.186298540    26.2883   4   5   3.8504   4.2625  11.3376  -3.5117  -6.4046   6.1051   0.00    0.0
2158 455614.000   22.304386010  114.186304149    24.7360   4   5   3.8493   4.2601  11.3350  -3.5097  -6.4014   6.1034   0.00    0.0
2158 455615.000   22.304390251  114.186310921    23.0252   4   5   3.8482   4.2575  11.3319  -3.5076  -6.3980   6.1014   0.00    0.0
2158 455616.000   22.304388104  114.186306656    22.8854   4   5   3.8471   4.2551  11.3291  -3.5056  -6.3947   6.0996   0.00    0.0
2158 455617.000   22.304389370  114.186303236    23.5182   4   5   3.8462   4.2528  11.3269  -3.5038  -6.3917   6.0981   0.00    0.0
2158 455618.000   22.304399843  114.186289206    27.8038   4   5   3.8454   4.2506  11.3253  -3.5021  -6.3891   6.0969   0.00    0.0
2158 455619.000   22.304406862  114.186280683    30.1942   4   5   3.8447   4.2486  11.3241  -3.5006  -6.3867   6.0960   0.00    0.0
2158 455620.000   22.304414511  114.186273533    32.1066   4   5   3.8441   4.2466  11.3232  -3.4991  -6.3845   6.0952   0.00    0.0
2158 455621.000   22.304418388  114.186263997    34.5719   4   5   3.8435   4.2447  11.3223  -3.4977  -6.3823   6.0944   0.00    0.0
2158 455622.000   22.304428291  114.186267469    34.7090   4   5   3.8429   4.2428  11.3214  -3.4962  -6.3801   6.0936   0.00    0.0
2158 455623.000   22.304436780  114.186280632    32.2617   4   5   3.8423   4.2408  11.3206  -3.4948  -6.3779   6.0929   0.00    0.0
2158 455624.000   22.304428496  114.186286441    29.7985   4   5   3.8417   4.2389  11.3197  -3.4934  -6.3757   6.0921   0.00    0.0
2158 455625.000   22.304420572  114.186303281    24.2719   4   5   3.8411   4.2370  11.3188  -3.4919  -6.3735   6.0913   0.00    0.0
2158 455626.000   22.304424183  114.186324160    18.4016   4   5   3.8405   4.2351  11.3179  -3.4905  -6.3713   6.0906   0.00    0.0
2158 455627.000   22.304419918  114.186333988    14.4980   4   5   3.8399   4.2331  11.3171  -3.4891  -6.3691   6.0898   0.00    0.0
2158 455628.000   22.304421757  114.186346249    11.3054   4   5   3.8394   4.2312  11.3163  -3.4877  -6.3669   6.0891   0.00    0.0
2158 455629.000   22.304424272  114.186352080     9.5185   4   5   3.8388   4.2293  11.3155  -3.4862  -6.3648   6.0883   0.00    0.0
2158 455630.000   22.304426787  114.186344811     9.5829   4   5   3.8382   4.2274  11.3147  -3.4848  -6.3626   6.0876   0.00    0.0
2158 455631.000   22.304439541  114.186330854     9.3563   4   5   3.8376   4.2255  11.3138  -3.4834  -6.3604   6.0868   0.00    0.0
2158 455632.000   22.304457446  114.186311395     7.9741   4   5   3.8370   4.2236  11.3130  -3.4820  -6.3582   6.0861   0.00    0.0
2158 455633.000   22.304489340  114.186279650     8.5598   4   5   3.8364   4.2217  11.3122  -3.4805  -6.3561   6.0853   0.00    0.0
2158 455634.000   22.304533694  114.186243725    12.3181   4   5   3.8358   4.2198  11.3114  -3.4791  -6.3539   6.0846   0.00    0.0
2158 455635.000   22.304577637  114.186195771    17.2939   4   5   3.8352   4.2178  11.3106  -3.4777  -6.3517   6.0838   0.00    0.0
2158 455636.000   22.304613868  114.186144196    20.2206   4   5   4.1298   4.2448  11.3108  -3.3654  -6.3437   6.1019   0.00    0.0
2158 455637.000   22.304626626  114.186093455    21.5005   4   5   4.1608   4.2452  11.3106  -3.3533  -6.3402   6.1061   0.00    0.0
2158 455638.000   22.304680089  114.186095474    24.0476   4   4   4.6422   4.4096  11.6313  -2.9605  -6.0761   6.5472   0.00    0.0
2158 455639.000   22.304629075  114.186064611    12.4010   4   4   4.0927   4.3008  11.6964  -3.3080  -6.1673   6.4159   0.00    0.0
2158 455640.000   22.304732588  114.186098241    10.8448   4   4   4.0651   4.3108  11.7240  -3.3318  -6.2023   6.4088   0.00    0.0
2158 455641.000   22.304799745  114.186091250    12.1172   4   4   4.0653   4.3177  11.7268  -3.3339  -6.2077   6.4107   0.00    0.0
2158 455642.000   22.304847608  114.186053664    18.1521   4   5   4.1778   4.2567  11.4386  -3.3764  -6.3723   6.1866   0.00    0.0
2158 455643.000   22.304833055  114.185939243    32.7845   4   4   4.6426   4.4259  11.6537  -2.9596  -6.0908   6.5537   0.00    0.0
2158 455644.000   22.304856453  114.185850948    48.5680   4   5   4.2174   4.2400  11.4036  -3.3484  -6.3372   6.1863   0.00    0.0
2158 455645.000   22.304915202  114.185797952    59.8642   4   5   3.8502   4.2152  11.3372  -3.4717  -6.3545   6.0957   0.00    0.0
2158 455646.000   22.304934708  114.185799210    63.6955   4   5   4.1314   4.2373  11.3159  -3.3495  -6.3337   6.0986   0.00    0.0
2158 455647.000   22.304961033  114.185837364    60.4745   4   5   4.1600   4.2302  11.3112  -3.3394  -6.3236   6.1043   0.00    0.0
2158 455648.000   22.304965501  114.185869748    58.2586   4   5   4.1574   4.2273  11.3094  -3.3384  -6.3204   6.1032   0.00    0.0
2158 455649.000   22.304960987  114.185884622    62.9299   4   5   4.1583   4.2256  11.3072  -3.3352  -6.3176   6.1013   0.00    0.0
2158 455650.000   22.304932816  114.185848239    78.2203   4   5   4.1579   4.2230  11.3045  -3.3329  -6.3141   6.0999   0.00    0.0
2158 455651.000   22.304957780  114.185782657   102.6582   4   5   4.1571   4.2204  11.3021  -3.3310  -6.3108   6.0987   0.00    0.0
2158 455652.000   22.305046698  114.185820737   109.9569   4   5   4.1565   4.2183  11.3003  -3.3291  -6.3079   6.0976   0.00    0.0
2158 455653.000   22.305164935  114.185840894   125.1879   4   5   4.1559   4.2163  11.2991  -3.3274  -6.3055   6.0967   0.00    0.0
2158 455654.000   22.305236062  114.185918815   114.3862   4   5   4.1553   4.2145  11.2981  -3.3258  -6.3032   6.0960   0.00    0.0
2158 455655.000   22.305341934  114.186051002   105.5716   4   5   3.8372   4.1812  11.2959  -3.4453  -6.3085   6.0713   0.00    0.0
2158 455656.000   22.305413122  114.186133650    99.0504   4   5   4.1249   4.2090  11.2956  -3.3320  -6.3002   6.0889   0.00    0.0
2158 455657.000   22.305398310  114.186117349    95.4924   4   5   4.1535   4.2086  11.2954  -3.3216  -6.2962   6.0945   0.00    0.0
2158 455658.000   22.305375834  114.186062942   102.5426   4   5   4.1512   4.2065  11.2948  -3.3210  -6.2940   6.0940   0.00    0.0
2158 455659.000   22.305395921  114.186058779   107.5491   4   5   4.1525   4.2051  11.2940  -3.3183  -6.2920   6.0930   0.00    0.0
2158 455660.000   22.305452171  114.186056989   114.7923   4   5   4.1523   4.2033  11.2931  -3.3165  -6.2897   6.0923   0.00    0.0
2158 455661.000   22.305463228  114.186035314   117.0533   4   5   4.1517   4.2014  11.2923  -3.3150  -6.2875   6.0918   0.00    0.0
2158 455662.000   22.305453108  114.186020486   115.6962   4   5   4.1513   4.1996  11.2915  -3.3135  -6.2852   6.0912   0.00    0.0
2158 455663.000   22.305460761  114.185981746   120.5116   4   5   4.1508   4.1978  11.2908  -3.3119  -6.2830   6.0905   0.00    0.0
2158 455664.000   22.305477566  114.185956070   125.9371   4   5   4.1504   4.1959  11.2900  -3.3104  -6.2808   6.0900   0.00    0.0
2158 455665.000   22.305470475  114.185917405   126.2481   4   5   4.1499   4.1941  11.2892  -3.3088  -6.2786   6.0894   0.00    0.0
2158 455666.000   22.305456911  114.185898094   120.5405   4   5   4.1494   4.1922  11.2885  -3.3073  -6.2764   6.0888   0.00    0.0
2158 455667.000   22.305424493  114.185886260   115.9063   4   5   4.1489   4.1904  11.2877  -3.3058  -6.2742   6.0883   0.00    0.0
2158 455668.000   22.305400722  114.185842803   111.8418   4   5   4.1484   4.1886  11.2870  -3.3043  -6.2720   6.0877   0.00    0.0
2158 455669.000   22.305429870  114.185806364   114.8091   4   5   4.1480   4.1867  11.2862  -3.3027  -6.2698   6.0871   0.00    0.0
2158 455670.000   22.305549232  114.185819121   133.1261   4   4   4.6269   4.3609  11.6086  -2.8951  -5.9955   6.5288   0.00    0.0
2158 455671.000   22.305636234  114.185812073   150.9418   4   4   4.7779   4.3680  11.7950  -2.8362  -5.9450   6.7168   0.00    0.0
2158 455672.000   22.305704580  114.185772715   162.9005   4   4   4.7973   4.3764  11.8608  -2.8569  -5.9735   6.7570   0.00    0.0
2158 455673.000   22.305770003  114.185617839   194.6314   4   6   3.4610   2.0538   6.4410  -1.4767  -2.2571   3.9548   0.00    0.0
2158 455674.000   22.305807598  114.185645545   199.3056   4   6   3.2900   1.9847   5.7820  -1.3306  -1.9571   3.5569   0.00    0.0
2158 455675.000   22.305823801  114.185683194   199.4635   4   6   3.2748   1.9784   5.7361  -1.3318  -1.9514   3.5260   0.00    0.0
2158 455676.000   22.305823655  114.185715538   194.8322   4   6   3.2737   1.9742   5.7325  -1.3317  -1.9451   3.5252   0.00    0.0
2158 455677.000   22.305892767  114.185691770   185.3423   4   4   5.1048   2.1315   6.0286  -2.0980  -2.1601   4.4160   0.00    0.0
2158 455678.000   22.305954606  114.185686525   180.8613   4   4   5.6541   2.1784   6.1805  -2.3401  -2.2915   4.7869   0.00    0.0
2158 455679.000   22.306009177  114.185706164   178.8016   4   4   5.6888   2.1826   6.2083  -2.3576  -2.3099   4.8279   0.00    0.0
2158 455685.000   22.306247566  114.186029386    49.0862   4   4   5.4197   4.8920  13.9044  -3.3861  -6.9663   7.8873   0.00    0.0
2158 455686.000   22.306271411  114.186004856    51.4144   4   4   4.7157   4.3536  11.5876  -2.6547  -5.7716   6.5380   0.00    0.0
2158 455687.000   22.306285762  114.185963081    53.7153   4   4   4.9442   4.5248  12.3617  -2.9013  -6.1690   6.9901   0.00    0.0
2158 455688.000   22.306293215  114.185902690    58.2839   4   4   5.3038   4.7687  13.6578  -3.3501  -6.8391   7.7509   0.00    0.0
2158 455689.000   22.306288603  114.185830283    64.2594   4   4   5.3589   4.7827  13.9324  -3.4747  -6.9861   7.9196   0.00    0.0
2158 455690.000   22.306287248  114.185747220    70.8098   4   5   4.6039   4.5976  13.0673  -3.7945  -7.1749   7.0764   0.00    0.0
2158 455691.000   22.306200757  114.185605792    63.4534   4   5   4.4668   4.5105  12.6483  -3.6903  -6.9875   6.8217   0.00    0.0
2158 455692.000   22.306090261  114.185330307    50.1517   4   5   4.3859   4.4173  12.3131  -3.5870  -6.7981   6.6408   0.00    0.0
2158 455693.000   22.306061841  114.185217371    46.1943   4   5   4.3134   4.3387  12.0225  -3.4981  -6.6364   6.4814   0.00    0.0
2158 455694.000   22.306066547  114.185191780    47.7484   4   5   4.2535   4.2740  11.7770  -3.4212  -6.4992   6.3469   0.00    0.0
2158 455695.000   22.306076611  114.185180862    50.5155   4   5   4.2078   4.2214  11.5831  -3.3600  -6.3889   6.2421   0.00    0.0
2158 455696.000   22.306084114  114.185145664    55.6010   4   5   4.1756   4.1829  11.4436  -3.3158  -6.3087   6.1673   0.00    0.0
2158 455697.000   22.306084889  114.185067511    66.0808   4   5   4.1549   4.1582  11.3548  -3.2872  -6.2573   6.1194   0.00    0.0
2158 455698.000   22.306119085  114.184994826    76.1281   4   4   4.6194   4.3260  11.6344  -2.8573  -5.9489   6.5367   0.00    0.0
2158 455699.000   22.306196737  114.184980291    79.2688   4   4   4.7637   4.3297  11.7992  -2.7874  -5.8839   6.7119   0.00    0.0
2158 455700.000   22.306242028  114.184956123    79.5568   4   4   4.7809   4.3364  11.8567  -2.8051  -5.9079   6.7472   0.00    0.0
2158 455701.000   22.306274065  114.184936929    77.9284   4   4   4.7802   4.3492  11.8700  -2.8073  -5.9228   6.7489   0.00    0.0
2158 455702.000   22.306306592  114.184940739    75.4298   4   4   4.7793   4.3515  11.8691  -2.8033  -5.9221   6.7469   0.00    0.0
2158 455703.000   22.306347844  114.184949579    75.2785   4   5   4.2081   4.1549  11.4408  -3.2798  -6.2519   6.1942   0.00    0.0
2158 455704.000   22.306332567  114.184901981    73.3794   4   5   4.1370   4.1517  11.3086  -3.2632  -6.2322   6.0854   0.00    0.0
2158 455705.000   22.306324208  114.184891556    70.6438   4   4   4.6070   4.3234  11.5956  -2.8246  -5.9199   6.5099   0.00    0.0
2158 455706.000   22.306309697  114.184886690    65.4869   4   5   4.1894   4.1244  11.3616  -3.2508  -6.1978   6.1524   0.00    0.0
2158 455707.000   22.306308545  114.184879899    58.9269   4   5   4.1360   4.1358  11.3003  -3.2584  -6.2162   6.0843   0.00    0.0
2158 455708.000   22.306293466  114.184873400    55.1508   4   5   4.1309   4.1267  11.2749  -3.2472  -6.1981   6.0709   0.00    0.0
2158 455709.000   22.306280043  114.184872557    49.1275   4   5   4.1300   4.1169  11.2653  -3.2437  -6.1867   6.0683   0.00    0.0
2158 455710.000   22.306287757  114.184892694    44.9821   4   5   4.1289   4.1137  11.2614  -3.2415  -6.1825   6.0664   0.00    0.0
2158 455711.000   22.306284160  114.184901922    40.4142   4   5   4.1279   4.1119  11.2593  -3.2395  -6.1798   6.0649   0.00    0.0
2158 455712.000   22.306287173  114.184918115    37.5731   4   5   4.1272   4.1097  11.2576  -3.2377  -6.1769   6.0639   0.00    0.0
2158 455713.000   22.306283811  114.184927722    36.7768   4   5   4.1267   4.1075  11.2561  -3.2359  -6.1741   6.0630   0.00    0.0
2158 455714.000   22.306293962  114.184946592    33.9311   4   5   4.1261   4.1055  11.2548  -3.2342  -6.1714   6.0622   0.00    0.0
2158 455715.000   22.306302268  114.184960979    30.6192   4   5   4.1255   4.1036  11.2536  -3.2325  -6.1690   6.0613   0.00    0.0
2158 455716.000   22.306304117  114.184972672    28.1832   4   5   4.1249   4.1017  11.2525  -3.2309  -6.1666   6.0606   0.00    0.0
2158 455717.000   22.306302678  114.184972521    26.8843   4   5   4.1243   4.0999  11.2515  -3.2293  -6.1643   6.0599   0.00    0.0
2158 455718.000   22.306302421  114.184987131    25.1393   4   5   4.1238   4.0981  11.2507  -3.2277  -6.1620   6.0592   0.00    0.0
2158 455719.000   22.306300202  114.184983215    25.7879   4   5   4.1233   4.0963  11.2498  -3.2262  -6.1598   6.0586   0.00    0.0
2158 455720.000   22.306300414  114.184970280    27.7280   4   5   4.1227   4.0945  11.2490  -3.2246  -6.1575   6.0579   0.00    0.0
2158 455721.000   22.306314720  114.184974132    26.9815   4   5   4.1222   4.0927  11.2482  -3.2230  -6.1553   6.0573   0.00    0.0
2158 455722.000   22.306320440  114.184983469    26.0383   4   5   4.1217   4.0909  11.2475  -3.2215  -6.1531   6.0567   0.00    0.0
2158 455723.000   22.306319588  114.184988671    25.2769   4   5   4.1212   4.0891  11.2467  -3.2200  -6.1509   6.0561   0.00    0.0
2158 455724.000   22.306332329  114.184991891    22.6286   4   5   4.1207   4.0873  11.2460  -3.2184  -6.1487   6.0555   0.00    0.0
2158 455725.000   22.306328838  114.184982454    22.1975   4   5   4.1202   4.0855  11.2453  -3.2169  -6.1465   6.0550   0.00    0.0
2158 455726.000   22.306334981  114.184948932    23.9346   4   5   4.1197   4.0838  11.2446  -3.2153  -6.1443   6.0544   0.00    0.0
2158 455727.000   22.306452530  114.184836426    41.0488   4   6   2.9729   3.6285   7.7515  -2.2354  -4.7429   3.6641   0.00    0.0
2158 455728.000   22.306512882  114.184765550    46.0628   4   6   2.6233   3.3782   7.0215  -2.2641  -4.2903   3.4889   0.00    0.0
2158 455729.000   22.306589446  114.184748234    45.2699   4   6   2.6097   3.3348   6.9175  -2.2453  -4.2140   3.4599   0.00    0.0
2158 455730.000   22.306627181  114.184721111    45.3231   4   6   2.6051   3.3330   6.9135  -2.2432  -4.2116   3.4548   0.00    0.0
2158 455731.000   22.306657743  114.184683627    48.5750   4   7   2.7078   2.0252   4.7663  -1.3826  -2.1058   2.5746   0.00    0.0
2158 455732.000   22.306719259  114.184635242    54.6424   4   7   2.7010   1.9608   4.4684  -1.3001  -1.8954   2.4380   0.00    0.0
2158 455733.000   22.306792113  114.184676734    47.9313   4   7   2.6840   1.7115   4.1627  -1.3881  -1.4502   2.5005   0.00    0.0
2158 455734.000   22.306759842  114.184709679    39.9364   4   6   2.3365   2.0260   4.4193  -1.4200  -1.9624   2.3916   0.00    0.0
2158 455735.000   22.306770665  114.184687253    41.7119   4   6   2.3257   2.0618   4.5096  -1.4454  -2.0541   2.4146   0.00    0.0
2158 455736.000   22.306709885  114.184664327    25.0047   4   5   2.6235   2.0622   5.4287  -1.4808  -2.1130   3.0843   0.00    0.0
2158 455737.000   22.306691667  114.184669188    11.2818   4   5   3.3936   3.1179   7.7928  -2.1275  -4.0680   4.2698   0.00    0.0
2158 455738.000   22.306722190  114.184591688    28.2371   4   6   3.3154   2.0280   6.0874  -1.4064  -2.1471   3.7084   0.00    0.0
2158 455739.000   22.306691769  114.184611822    27.8022   4   6   2.6422   1.6922   5.1457  -1.1659  -1.2128   3.0152   0.00    0.0
2158 455740.000   22.306635025  114.184627560    19.0988   4   6   2.5714   1.6823   4.9512  -1.1332  -1.1245   2.8803   0.00    0.0
2158 455741.000   22.306625500  114.184638444    12.6966   4   6   3.1295   1.7003   5.2762  -1.3243  -1.3254   3.4010   0.00    0.0
2158 455742.000   22.306571897  114.184635679    -0.6688   4   5   3.6465   1.8625   6.1885  -0.7637   0.5819   4.1968   0.00    0.0
2158 455743.000   22.306519859  114.184629512   -12.7793   4   5   3.9277   2.2674   6.5706   0.9447   0.6286   4.4357   0.00    0.0
2158 455744.000   22.306583060  114.184674207    -4.6842   4   6   3.3267   1.9712   5.8956  -1.2653  -1.8710   3.6599   0.00    0.0
2158 455745.000   22.306599437  114.184677382     0.5390   4   6   3.2487   1.9715   5.7286  -1.2891  -1.9054   3.5208   0.00    0.0
2158 455746.000   22.306614454  114.184675691     4.1042   4   6   3.2467   1.9672   5.7058  -1.2759  -1.8826   3.5106   0.00    0.0
2158 455747.000   22.306634543  114.184680730     8.6218   4   6   3.2491   1.9661   5.7184  -1.2788  -1.8858   3.5180   0.00    0.0
2158 455748.000   22.306636877  114.184676821    10.1397   4   6   3.2502   1.9667   5.7270  -1.2799  -1.8889   3.5225   0.00    0.0
2158 455749.000   22.306627102  114.184673995    10.2146   4   6   3.2503   1.9662   5.7272  -1.2784  -1.8866   3.5230   0.00    0.0
2158 455750.000   22.306617009  114.184678992    10.5983   4   6   3.2498   1.9657   5.7247  -1.2768  -1.8838   3.5220   0.00    0.0
2158 455751.000   22.306616448  114.184679627    10.8454   4   6   3.2493   1.9655   5.7235  -1.2757  -1.8824   3.5214   0.00    0.0
2158 455752.000   22.306625439  114.184664432     9.9576   4   6   2.6728   1.9629   5.5737  -1.3453  -1.9160   3.1612   0.00    0.0
2158 455753.000   22.306611041  114.184633815     4.9323   4   5   2.7984   2.2066   5.8342  -0.9096  -1.3324   3.3823   0.00    0.0
2158 455754.000   22.306603991  114.184639511     3.4479   4   6   2.6546   1.9648   5.6024  -1.3212  -1.8759   3.1624   0.00    0.0
2158 455755.000   22.306597781  114.184635913     1.2230   4   6   2.6335   1.9646   5.5440  -1.3399  -1.9136   3.1206   0.00    0.0
2158 455756.000   22.306585923  114.184632888    -0.3539   4   6   2.6315   1.9625   5.5322  -1.3353  -1.9028   3.1149   0.00    0.0
2158 455757.000   22.306574869  114.184632749    -1.2663   4   6   2.6316   1.9610   5.5326  -1.3349  -1.9011   3.1156   0.00    0.0
2158 455758.000   22.306556586  114.184631572    -2.3902   4   6   2.6318   1.9612   5.5337  -1.3351  -1.9018   3.1164   0.00    0.0
2158 455759.000   22.306539097  114.184632388    -3.3547   4   6   2.6317   1.9610   5.5337  -1.3346  -1.9009   3.1165   0.00    0.0
2158 455760.000   22.306528654  114.184626374    -4.7222   4   6   2.6315   1.9607   5.5337  -1.3340  -1.8998   3.1165   0.00    0.0
2158 455761.000   22.306520637  114.184627405    -5.1171   4   6   2.6314   1.9606   5.5340  -1.3336  -1.8992   3.1167   0.00    0.0
2158 455762.000   22.306534524  114.184635560    -2.3248   4   6   2.6314   1.9605   5.5349  -1.3333  -1.8988   3.1172   0.00    0.0
2158 455763.000   22.306547801  114.184639637     1.1436   4   6   2.6314   1.9604   5.5360  -1.3330  -1.8985   3.1177   0.00    0.0
2158 455764.000   22.306557956  114.184638268     4.0268   4   6   2.6315   1.9603   5.5370  -1.3327  -1.8982   3.1183   0.00    0.0
2158 455765.000   22.306556579  114.184630979     4.6596   4   6   2.6315   1.9602   5.5381  -1.3324  -1.8979   3.1189   0.00    0.0
2158 455766.000   22.306565764  114.184629440     5.6308   4   6   2.6315   1.9602   5.5391  -1.3322  -1.8976   3.1194   0.00    0.0
2158 455767.000   22.306595698  114.184666185    12.6678   4   5   2.7950   2.2065   5.8391  -0.9054  -1.3156   3.3869   0.00    0.0
2158 455768.000   22.306574180  114.184642033     9.9462   4   6   2.6534   1.9635   5.6124  -1.3166  -1.8693   3.1687   0.00    0.0
2158 455769.000   22.306565704  114.184637384     8.9401   4   6   2.6334   1.9632   5.5545  -1.3354  -1.9077   3.1268   0.00    0.0
2158 455770.000   22.306609408  114.184683317    17.5306   4   5   2.7948   2.2088   5.8423  -0.9032  -1.3136   3.3883   0.00    0.0
2158 455771.000   22.306634348  114.184700305    23.7031   4   5   2.8366   2.2233   5.9629  -0.8281  -1.1846   3.4730   0.00    0.0
2158 455772.000   22.306569386  114.184688127    20.0377   4   5   3.7407   2.3038   6.4379   0.8682  -0.2059   4.2304   0.00    0.0
2158 455773.000   22.306516363  114.184669004    12.8743   4   5   3.9423   2.3176   6.6537   1.0190   0.5742   4.4703   0.00    0.0
2158 455774.000   22.306484986  114.184665672     6.9725   4   5   3.9588   2.3180   6.7124   1.0206   0.5796   4.5063   0.00    0.0
2158 455775.000   22.306531438  114.184640215     3.7264   4   6   2.7232   1.9698   5.7646  -1.3364  -1.9119   3.2845   0.00    0.0
2158 455776.000   22.306526688  114.184625153    -0.6930   4   6   2.6365   1.9675   5.5807  -1.3344  -1.9189   3.1352   0.00    0.0
2158 455777.000   22.306511842  114.184622652    -3.3608   4   6   2.6363   1.9616   5.5651  -1.3310  -1.9009   3.1337   0.00    0.0
2158 455778.000   22.306528098  114.184634024    -1.1990   4   6   2.6353   1.9607   5.5714  -1.3325  -1.9032   3.1362   0.00    0.0
2158 455779.000   22.306553245  114.184638981     2.3283   4   6   2.6344   1.9604   5.5690  -1.3315  -1.9016   3.1344   0.00    0.0
2158 455780.000   22.306582775  114.184639887     6.5739   4   6   2.6334   1.9596   5.5624  -1.3297  -1.8970   3.1317   0.00    0.0
2158 455781.000   22.306595360  114.184640510     9.4724   4   6   2.6326   1.9590   5.5579  -1.3284  -1.8940   3.1297   0.00    0.0
2158 455782.000   22.306598461  114.184641363    10.9944   4   6   2.6322   1.9589   5.5571  -1.3277  -1.8929   3.1292   0.00    0.0
2158 455783.000   22.306602258  114.184646787    12.0794   4   6   2.6322   1.9588   5.5582  -1.3275  -1.8927   3.1297   0.00    0.0
2158 455784.000   22.306592164  114.184653989    11.4049   4   6   2.6323   1.9587   5.5596  -1.3272  -1.8925   3.1305   0.00    0.0
2158 455785.000   22.306583324  114.184652673     9.4106   4   6   2.6324   1.9586   5.5606  -1.3269  -1.8921   3.1310   0.00    0.0
2158 455786.000   22.306580645  114.184650593     7.5057   4   6   2.6323   1.9585   5.5613  -1.3266  -1.8917   3.1314   0.00    0.0
2158 455787.000   22.306535164  114.184601816    -3.0062   4   5   2.7932   2.2077   5.8609  -0.8983  -1.3016   3.3962   0.00    0.0
2158 455788.000   22.306507785  114.184588769   -10.3864   4   5   2.8343   2.2246   5.9795  -0.8213  -1.1704   3.4793   0.00    0.0
