% program   : RTKPOST demo5 b34k
% inp file  : C:\Users\user\Desktop\AAE6102_Laboratory-main\AAE6102_Laboratory-main\GNSS Data\UrbanNav - Medium\20210521.medium-urban.whampoa.ublox.f9p.obs
% inp file  : C:\Users\user\Desktop\AAE6102_Laboratory-main\AAE6102_Laboratory-main\GNSS Data\UrbanNav - Medium\hksc141g.21o
% inp file  : C:\Users\user\Desktop\AAE6102_Laboratory-main\AAE6102_Laboratory-main\GNSS Data\UrbanNav - Medium\hksc141g.21n
% obs start : 2021/05/21 06:29:02.0 GPST (week2158 455342.0s)
% obs end   : 2021/05/21 06:54:39.0 GPST (week2158 456879.0s)
% pos mode  : Kinematic
% freqs     : L1+L2/E5b
% solution  : Forward
% elev mask : 15.0 deg
% dynamics  : on
% tidecorr  : off
% ionos opt : Broadcast
% tropo opt : Saastamoinen
% ephemeris : Broadcast
% navi sys  : GPS GLONASS Galileo QZSS BDS NavIC SBAS
% amb res   : Fix and Hold
% amb glo   : Fix and Hold
% val thres : 3.0
% antenna1  :                       ( 0.0000  0.0000  0.0000)
% antenna2  :                       ( 0.0000  0.0000  0.0000)
% ref pos   : 22.322172082  114.141187963    20.2386
%
% (lat/lon/height=WGS84/ellipsoidal,Q=1:fix,2:float,3:sbas,4:dgps,5:single,6:ppp,ns=# of satellites)
%  GPST          latitude(deg) longitude(deg)  height(m)   Q  ns   sdn(m)   sde(m)   sdu(m)  sdne(m)  sdeu(m)  sdun(m) age(s)  ratio
2158 455342.000   22.301561384  114.190303788     4.9013   2   5   1.6024   1.5987   3.3434  -0.9135  -0.6929   0.6005   0.00    0.0
2158 455343.000   22.301561790  114.190303646     4.9312   2   5   1.1637   1.1671   2.4215  -0.6646  -0.5100   0.4421   0.00    0.0
2158 455344.000   22.301561916  114.190303933     4.9864   2   5   0.9596   0.9638   1.9937  -0.5485  -0.4229   0.3676   0.00    0.0
2158 455345.000   22.301562400  114.190303650     5.0069   2   6   0.8250   0.8391   1.7232  -0.4743  -0.3624   0.2800   0.00    0.0
2158 455346.000   22.301562446  114.190303436     4.9782   2   5   0.7394   0.7522   1.5467  -0.4234  -0.3248   0.2560   0.00    0.0
2158 455347.000   22.301562774  114.190302825     4.9742   2   5   0.6760   0.6876   1.4154  -0.3861  -0.2973   0.2381   0.00    0.0
2158 455348.000   22.301563073  114.190299802     4.9570   2   5   0.6283   0.6380   1.3130  -0.3591  -0.2773   0.2264   0.00    0.0
2158 455349.000   22.301563973  114.190292451     4.9535   2   5   0.5866   0.5966   1.2295  -0.3339  -0.2581   0.2109   0.00    0.0
2158 455350.000   22.301564193  114.190282139     4.9114   2   4   0.5549   0.5634   1.1608  -0.3162  -0.2451   0.2037   0.00    0.0
2158 455351.000   22.301567477  114.190269712     4.8918   2   4   0.5275   0.5351   1.1022  -0.3007  -0.2333   0.1955   0.00    0.0
2158 455352.000   22.301576608  114.190259344     5.0187   2   4   0.5408   0.5589   1.2370  -0.3568  -0.4444   0.4045   0.00    0.0
2158 455353.000   22.301587919  114.190252597     4.8476   2   6   0.4828   0.4894   1.0065  -0.2756  -0.2138   0.1810   0.00    0.0
2158 455354.000   22.301600655  114.190245087     4.8514   2   6   0.4642   0.4705   0.9675  -0.2650  -0.2053   0.1746   0.00    0.0
2158 455355.000   22.301614548  114.190237137     4.8289   2   7   0.4474   0.4528   0.9268  -0.2566  -0.2051   0.1639   0.00    0.0
2158 455356.000   22.301630039  114.190228691     4.7895   2   6   0.4324   0.4376   0.8934  -0.2488  -0.2031   0.1570   0.00    0.0
2158 455357.000   22.301651315  114.190217446     4.6947   2   5   0.4189   0.4237   0.8634  -0.2417  -0.2003   0.1517   0.00    0.0
2158 455358.000   22.301679640  114.190203358     4.6898   2   5   0.4064   0.4108   0.8357  -0.2347  -0.1963   0.1455   0.00    0.0
2158 455359.000   22.301713300  114.190187231     4.6335   2   5   0.3950   0.3991   0.8105  -0.2284  -0.1926   0.1400   0.00    0.0
2158 455360.000   22.301751447  114.190168563     4.6835   2   5   0.3844   0.3883   0.7875  -0.2226  -0.1890   0.1352   0.00    0.0
2158 455361.000   22.301794103  114.190147980     4.7569   2   5   0.3747   0.3784   0.7663  -0.2172  -0.1856   0.1307   0.00    0.0
2158 455362.000   22.301840783  114.190125324     4.7566   2   5   0.3655   0.3692   0.7467  -0.2122  -0.1823   0.1266   0.00    0.0
2158 455363.000   22.301891440  114.190100091     4.8783   2   5   0.3572   0.3606   0.7286  -0.2074  -0.1791   0.1230   0.00    0.0
2158 455364.000   22.301944222  114.190073732     4.8798   2   5   0.3493   0.3526   0.7117  -0.2030  -0.1760   0.1196   0.00    0.0
2158 455365.000   22.301996648  114.190047320     4.8634   2   6   0.3420   0.3450   0.6975  -0.1987  -0.1712   0.1180   0.00    0.0
2158 455366.000   22.302047834  114.190022439     4.7536   2   5   0.3352   0.3383   0.6842  -0.1947  -0.1672   0.1166   0.00    0.0
2158 455367.000   22.302097180  114.189997228     4.8187   2   5   0.3286   0.3317   0.6715  -0.1907  -0.1632   0.1149   0.00    0.0
2158 455368.000   22.302144969  114.189972491     4.7737   2   4   0.3228   0.3257   0.6598  -0.1867  -0.1600   0.1123   0.00    0.0
2158 455369.000   22.302190421  114.189945948     4.6078   4   3   0.3469   0.4826   1.1413   0.1305  -0.6029  -0.3459   0.00    0.0
2158 455370.000   22.302229072  114.189912218     4.1364   4   2   0.7643   1.3304   2.3414   0.9214  -0.9457  -0.3614   0.00    0.0
2158 455371.000   22.302248832  114.189872999     4.5005   4   2   1.4848   1.2787   3.3284   0.3720  -2.0146   0.1075   0.00    0.0
2158 455372.000   22.302261960  114.189824588     5.5484   4   3   1.5514   1.4051   3.6789   0.1240  -2.2299   0.6443   0.00    0.0
2158 455373.000   22.302277464  114.189781041     5.2631   4   3   1.1472   1.3693   3.6405  -0.6485  -2.1910   1.1595   0.00    0.0
2158 455374.000   22.302278960  114.189732673     6.4801   4   3   1.0655   1.3151   3.5272  -0.7699  -2.1116   1.3327   0.00    0.0
2158 455375.000   22.302273514  114.189684763     8.1769   2   4   0.4015   0.9222   2.2688   0.4578  -1.3900  -0.7617   0.00    0.0
2158 455376.000   22.302256344  114.189645441     8.3890   4   3   0.7368   1.1277   2.9851  -0.5526  -1.7879   0.9543   0.00    0.0
2158 455377.000   22.302232413  114.189609537     8.1403   2   4   0.5613   1.3224   3.3641   0.7701  -2.0720  -1.2584   0.00    0.0
2158 455378.000   22.302210994  114.189576862     7.1463   2   5   0.3852   0.8421   2.0394   0.4254  -1.2524  -0.7079   0.00    0.0
2158 455379.000   22.302187561  114.189546078     5.9244   2   5   0.5272   0.7659   1.8522   0.2406  -1.1269  -0.3722   0.00    0.0
2158 455380.000   22.302169433  114.189512615     6.3269   2   5   0.3399   0.6974   1.6287   0.3209  -0.9976  -0.5438   0.00    0.0
2158 455381.000   22.302150351  114.189492335     3.8888   2   4   0.4241   0.6825   1.6602  -0.0464  -0.9951   0.0498   0.00    0.0
2158 455382.000   22.302133808  114.189467003     3.4203   2   5   0.3097   0.5748   1.3183   0.2346  -0.7900  -0.4202   0.00    0.0
2158 455383.000   22.302115330  114.189440373     3.5369   2   5   0.2996   0.5324   1.2127   0.2036  -0.7177  -0.3778   0.00    0.0
2158 455384.000   22.302095177  114.189411181     3.8216   2   5   0.3049   0.5110   1.1691   0.1565  -0.6849  -0.3096   0.00    0.0
2158 455385.000   22.302071886  114.189370401     5.9754   2   5   0.2839   0.4673   1.0515   0.1527  -0.6056  -0.3118   0.00    0.0
2158 455386.000   22.302049142  114.189329521     6.8953   2   4   0.2859   0.4527   0.9854   0.1553  -0.5561  -0.2816   0.00    0.0
2158 455387.000   22.302028241  114.189282537     7.0964   4   2   0.7895   1.1339   1.3034   0.7905  -0.5709   0.5648   0.00    0.0
2158 455388.000   22.302012069  114.189234768     6.3267   4   2   1.0199   1.2967   2.1681   0.6443  -1.0757   1.1806   0.00    0.0
2158 455389.000   22.302007642  114.189191010     5.3378   4   2   1.1088   1.3495   2.4947   0.5089  -1.2745   1.3889   0.00    0.0
2158 455390.000   22.302012444  114.189147750     3.9784   4   2   1.1202   1.3558   2.5210   0.4983  -1.2936   1.4086   0.00    0.0
2158 455391.000   22.302052934  114.189102430     5.7100   4   2   1.7457   1.5521   3.0071  -0.8294  -0.9299   1.4397   0.00    0.0
2158 455392.000   22.302073707  114.189043287     3.7813   4   0   2.3545   1.6498   3.9939  -1.1036  -1.0093   2.2196   0.00    0.0
2158 455393.000   22.302106121  114.188992521     2.6313   4   0   2.4893   1.6585   4.4337  -1.1618  -1.1587   2.5395   0.00    0.0
2158 455394.000   22.302128957  114.188940266     3.0184   4   0   2.5174   1.6356   4.4597  -1.1893  -1.1935   2.5947   0.00    0.0
2158 455395.000   22.302171833  114.188889543     5.4052   4   0   2.4852   1.2210   3.8711  -1.2388  -1.3808   2.7568   0.00    0.0
2158 455396.000   22.302192394  114.188847666     4.5661   4   0   2.4580   1.0816   3.4673  -1.2488  -1.3343   2.6302   0.00    0.0
2158 455397.000   22.302201889  114.188813573     3.3472   4   0   2.3991   1.3056   3.4162  -1.2676  -0.7787   2.4730   0.00    0.0
2158 455398.000   22.302210634  114.188788709     3.1655   4   0   1.9045   1.0875   3.5199  -0.2561   0.9538   2.3314   0.00    0.0
2158 455399.000   22.302216214  114.188771345     3.3131   4   0   1.6537   1.1090   3.4017   0.4609   1.2303   2.1275   0.00    0.0
2158 455400.000   22.302220992  114.188755448     3.4902   4   0   1.5035   1.0978   3.2729   0.5576   1.3079   1.9883   0.00    0.0
2158 455401.000   22.302217332  114.188737983     3.0542   4   2   2.0836   1.4880   3.6828  -0.7924  -0.0943   2.0439   0.00    0.0
2158 455402.000   22.302207147  114.188722616     2.9443   2   4   2.3185   1.5880   4.2392  -1.0650  -1.2751   2.4563   0.00    0.0
2158 455403.000   22.302194032  114.188716839     1.8532   2   4   1.8826   1.2711   4.2770  -1.1032  -1.6841   2.4380   0.00    0.0
2158 455404.000   22.302181118  114.188713679     1.3754   2   6   1.5115   1.0454   3.2913  -0.8630  -1.2684   1.8761   0.00    0.0
2158 455405.000   22.302179159  114.188709155     2.4461   2   4   1.3058   0.8603   2.7106  -0.6845  -0.9250   1.5534   0.00    0.0
2158 455406.000   22.302181254  114.188705415     3.4388   2   6   1.1669   0.7571   2.3490  -0.5851  -0.7413   1.3494   0.00    0.0
2158 455407.000   22.302175325  114.188701723     2.3319   2   6   1.0489   0.6911   2.0683  -0.5316  -0.6520   1.1791   0.00    0.0
2158 455408.000   22.302173559  114.188698362     2.2356   2   5   0.9634   0.6428   1.8805  -0.4942  -0.5986   1.0641   0.00    0.0
2158 455409.000   22.302173457  114.188696247     2.4983   2   5   0.8965   0.6034   1.7365  -0.4639  -0.5566   0.9770   0.00    0.0
2158 455410.000   22.302174677  114.188694486     3.0762   2   5   0.8421   0.5706   1.6216  -0.4387  -0.5225   0.9081   0.00    0.0
2158 455411.000   22.302176873  114.188692664     3.8813   2   6   0.7962   0.5422   1.5258  -0.4166  -0.4929   0.8508   0.00    0.0
2158 455412.000   22.302178634  114.188691733     4.5346   2   6   0.7573   0.5179   1.4459  -0.3979  -0.4684   0.8035   0.00    0.0
2158 455413.000   22.302180371  114.188690945     5.1798   2   5   0.7239   0.4967   1.3780  -0.3818  -0.4478   0.7638   0.00    0.0
2158 455414.000   22.302182037  114.188690478     5.8181   2   5   0.6945   0.4779   1.3186  -0.3674  -0.4294   0.7291   0.00    0.0
2158 455415.000   22.302184123  114.188690186     6.5227   2   5   0.6684   0.4611   1.2663  -0.3545  -0.4132   0.6987   0.00    0.0
2158 455416.000   22.302185720  114.188690189     7.0975   2   6   0.6443   0.4456   1.2186  -0.3421  -0.3974   0.6705   0.00    0.0
2158 455417.000   22.302187720  114.188690119     7.7516   2   6   0.6229   0.4316   1.1763  -0.3312  -0.3837   0.6459   0.00    0.0
2158 455418.000   22.302189835  114.188690240     8.4251   2   5   0.6039   0.4192   1.1392  -0.3217  -0.3722   0.6247   0.00    0.0
2158 455419.000   22.302191955  114.188690451     9.0671   2   6   0.5857   0.4074   1.1037  -0.3122  -0.3603   0.6039   0.00    0.0
2158 455420.000   22.302193806  114.188690761     9.6712   2   6   0.5692   0.3965   1.0719  -0.3036  -0.3497   0.5853   0.00    0.0
2158 455421.000   22.302196306  114.188690922    10.3993   2   5   0.5546   0.3866   1.0429  -0.2962  -0.3403   0.5693   0.00    0.0
2158 455422.000   22.302198524  114.188691393    11.0384   2   6   0.5401   0.3772   1.0151  -0.2885  -0.3307   0.5529   0.00    0.0
2158 455423.000   22.302198201  114.188691767    10.9359   2   6   0.5293   0.3681   0.9963  -0.2811  -0.3205   0.5437   0.00    0.0
2158 455424.000   22.302197797  114.188692087    10.8231   2   5   0.5197   0.3602   0.9811  -0.2751  -0.3135   0.5364   0.00    0.0
2158 455425.000   22.302197603  114.188692409    10.7435   2   6   0.5100   0.3525   0.9642  -0.2686  -0.3051   0.5277   0.00    0.0
2158 455426.000   22.302197304  114.188692737    10.6449   2   6   0.5010   0.3454   0.9493  -0.2629  -0.2981   0.5201   0.00    0.0
2158 455427.000   22.302196916  114.188693129    10.5442   2   6   0.4924   0.3387   0.9351  -0.2575  -0.2917   0.5128   0.00    0.0
2158 455428.000   22.302196521  114.188693492    10.4213   2   6   0.4842   0.3325   0.9215  -0.2524  -0.2855   0.5058   0.00    0.0
2158 455429.000   22.302196393  114.188693716    10.3616   2   5   0.4766   0.3266   0.9092  -0.2479  -0.2803   0.4995   0.00    0.0
2158 455430.000   22.302196080  114.188694129    10.2822   2   5   0.4692   0.3211   0.8969  -0.2434  -0.2751   0.4931   0.00    0.0
2158 455431.000   22.302195714  114.188694410    10.1944   2   5   0.4621   0.3158   0.8851  -0.2391  -0.2700   0.4868   0.00    0.0
2158 455432.000   22.302195310  114.188694754    10.1004   2   5   0.4552   0.3107   0.8737  -0.2350  -0.2652   0.4808   0.00    0.0
2158 455433.000   22.302194945  114.188695087    10.0228   2   5   0.4486   0.3059   0.8627  -0.2311  -0.2607   0.4749   0.00    0.0
2158 455434.000   22.302194431  114.188695377     9.9446   2   5   0.4423   0.3013   0.8520  -0.2273  -0.2562   0.4691   0.00    0.0
2158 455435.000   22.302194171  114.188695660     9.8927   2   5   0.4361   0.2969   0.8417  -0.2237  -0.2520   0.4635   0.00    0.0
2158 455436.000   22.302193879  114.188695836     9.8537   2   5   0.4302   0.2927   0.8318  -0.2203  -0.2480   0.4580   0.00    0.0
2158 455437.000   22.302193810  114.188695997     9.8557   2   5   0.4244   0.2886   0.8221  -0.2169  -0.2440   0.4527   0.00    0.0
2158 455438.000   22.302193679  114.188696045     9.8779   2   5   0.4188   0.2847   0.8127  -0.2137  -0.2403   0.4475   0.00    0.0
2158 455439.000   22.302193577  114.188696008     9.8818   2   5   0.4134   0.2810   0.8037  -0.2106  -0.2366   0.4424   0.00    0.0
2158 455440.000   22.302193700  114.188695898     9.9331   2   5   0.4082   0.2774   0.7948  -0.2076  -0.2331   0.4374   0.00    0.0
2158 455441.000   22.302195195  114.188695977    10.4249   2   5   0.4018   0.2739   0.7822  -0.2048  -0.2299   0.4296   0.00    0.0
2158 455442.000   22.302194160  114.188695857    10.4378   2   5   0.3969   0.2705   0.7740  -0.2020  -0.2267   0.4250   0.00    0.0
2158 455443.000   22.302183883  114.188694180    10.4650   2   5   0.3921   0.2673   0.7660  -0.1993  -0.2235   0.4204   0.00    0.0
2158 455444.000   22.302159140  114.188686208    10.4482   2   5   0.3874   0.2642   0.7582  -0.1966  -0.2204   0.4159   0.00    0.0
2158 455445.000   22.302120953  114.188670311    10.4215   2   5   0.3829   0.2612   0.7506  -0.1940  -0.2173   0.4115   0.00    0.0
2158 455446.000   22.302073929  114.188645078    10.7730   2   4   0.3774   0.2588   0.7398  -0.1920  -0.2145   0.4047   0.00    0.0
2158 455447.000   22.302019903  114.188613772    11.8726   4   3   0.4814   0.4044   1.1682   0.2431   0.4902   0.6610   0.00    0.0
2158 455448.000   22.301968367  114.188582736    15.5254   4   2   0.8126   1.3892   2.4269   0.2003  -0.4471   1.3490   0.00    0.0
2158 455449.000   22.301926472  114.188541845    21.6243   4   2   1.0887   1.5468   3.4339  -0.5551  -1.1895   1.8926   0.00    0.0
2158 455450.000   22.301880655  114.188482256    25.5053   4   3   1.1689   1.5543   3.7092  -0.6080  -1.2724   2.0448   0.00    0.0
2158 455451.000   22.301819240  114.188445177    22.2640   4   3   0.8813   0.8753   2.5033   0.8011   1.4047   1.4428   0.00    0.0
2158 455452.000   22.301772140  114.188376974    23.1048   4   2   1.0142   1.4836   3.1498  -0.2831  -0.8039   1.7459   0.00    0.0
2158 455453.000   22.301730048  114.188346837    19.5954   4   0   2.0300   1.6301   3.6997  -1.0789  -1.2737   2.0035   0.00    0.0
2158 455454.000   22.301663184  114.188281303    14.7536   4   2   1.0039   1.8317   3.2652  -0.7253  -1.5332   1.7678   0.00    0.0
2158 455455.000   22.301592132  114.188223937     8.7695   4   0   1.7829   2.0917   3.2847  -0.8644  -1.4077   1.2724   0.00    0.0
2158 455456.000   22.301507668  114.188180612     7.1887   4   2   2.2109   2.1076   3.6728  -1.1709  -1.7708   1.8455   0.00    0.0
2158 455457.000   22.301394194  114.188140882     5.4659   4   2   2.2451   1.9637   3.8354  -1.3588  -1.8977   1.9998   0.00    0.0
2158 455458.000   22.301391749  114.188030011     6.2544   4   0   2.4949   2.0807   4.1539  -1.5772  -1.8385   2.1399   0.00    0.0
2158 455459.000   22.301420951  114.187906296    13.6128   4   3   1.9886   1.6788   3.3098  -1.1952  -1.0153   1.1405   0.00    0.0
2158 455460.000   22.301401056  114.187858755    15.7427   4   2   1.4392   1.4708   3.2077  -0.5140  -0.7582   0.9114   0.00    0.0
2158 455461.000   22.301343537  114.187822562     8.5096   4   0   1.9279   1.2144   3.2757  -0.8727  -1.5090   1.6515   0.00    0.0
2158 455462.000   22.301352032  114.187770715     5.7067   4   2   2.4519   1.6796   3.5249  -1.3932  -1.4346   2.0115   0.00    0.0
2158 455463.000   22.301358256  114.187756161     6.2942   4   2   2.4093   1.2971   3.5858  -1.1796  -1.6656   2.1429   0.00    0.0
2158 455464.000   22.301359829  114.187740467     5.6954   4   3   2.2390   1.6070   3.0788  -1.5044  -1.6956   1.5556   0.00    0.0
2158 455465.000   22.301363053  114.187723528     7.4289   4   3   1.8786   1.5839   2.9092  -1.4934  -1.7777   1.8392   0.00    0.0
2158 455466.000   22.301366104  114.187717550     8.0549   4   2   1.8686   1.6947   3.0002  -1.6040  -1.5403   1.6863   0.00    0.0
2158 455467.000   22.301378961  114.187708338     8.3777   4   2   2.3046   1.7647   3.5152  -1.4699  -1.1619   1.7273   0.00    0.0
2158 455468.000   22.301369608  114.187703868     7.4348   4   2   2.4309   1.7627   3.7565  -1.4444  -1.1596   1.9121   0.00    0.0
2158 455469.000   22.301354957  114.187717504     4.8430   2   4   2.0952   1.6738   3.6872  -1.5721  -1.2245   1.7056   0.00    0.0
2158 455470.000   22.301329778  114.187750215    -0.6236   4   3   1.8835   1.5841   3.2427  -1.5001  -1.7058   1.9420   0.00    0.0
2158 455471.000   22.301317396  114.187767416    -4.3711   4   2   1.8917   1.6944   3.1307  -1.6159  -1.5488   1.7270   0.00    0.0
2158 455472.000   22.301309589  114.187777051    -5.7855   4   3   1.7458   1.6062   2.7571  -1.5187  -1.7247   1.8497   0.00    0.0
2158 455473.000   22.301324977  114.187758626    -4.7819   4   2   1.8249   1.7090   3.0450  -1.6405  -1.4254   1.5125   0.00    0.0
2158 455474.000   22.301336762  114.187739218     0.2298   4   2   1.8134   1.7118   3.4631  -1.6525  -1.2916   1.3215   0.00    0.0
2158 455475.000   22.301345618  114.187718774     6.3810   4   2   1.7996   1.7147   3.5823  -1.6593  -1.3494   1.3496   0.00    0.0
2158 455476.000   22.301357296  114.187690020     9.3161   4   2   2.2798   1.7192   3.6676  -1.4077  -1.1136   1.7294   0.00    0.0
2158 455477.000   22.301370708  114.187684774     7.3178   4   2   2.0722   1.2350   3.5776  -0.6137   0.4190   1.4923   0.00    0.0
2158 455478.000   22.301408427  114.187666253     7.6652   4   2   2.1781   1.5539   3.5115  -1.0743  -0.4192   1.5576   0.00    0.0
2158 455479.000   22.301424973  114.187677521    11.4560   4   0   2.4556   1.7721   3.7159  -1.4366  -1.1532   1.9109   0.00    0.0
2158 455480.000   22.301425900  114.187710326    13.0826   4   2   2.4764   1.7401   3.7915  -1.4301  -1.2755   2.0152   0.00    0.0
2158 455481.000   22.301424652  114.187747053    11.6865   4   3   2.4651   1.7395   3.7720  -1.4375  -1.2873   1.9867   0.00    0.0
2158 455482.000   22.301449836  114.187786117     8.2138   4   3   1.7572   1.1540   3.3107  -0.5660   0.9343   1.5925   0.00    0.0
2158 455483.000   22.301471775  114.187824246     6.8801   4   3   1.5080   1.2464   3.2582   0.1531   1.4074   1.6163   0.00    0.0
2158 455484.000   22.301490191  114.187880662     7.0362   4   3   1.3303   1.1458   2.8298   0.0499   1.2324   1.4204   0.00    0.0
2158 455485.000   22.301527170  114.187948557     9.8517   4   3   1.2288   1.1111   2.6850   0.2691   1.2262   1.3617   0.00    0.0
2158 455486.000   22.301560751  114.188014209    11.5828   4   3   1.1633   1.0895   2.6365   0.3819   1.2552   1.3504   0.00    0.0
2158 455487.000   22.301591080  114.188073767    11.8590   4   3   1.1513   1.2690   3.0312   0.6328   0.7675   1.1702   0.00    0.0
2158 455488.000   22.301611147  114.188123051    10.9759   4   2   1.0740   1.0729   2.8902   0.5002   1.1881   1.3260   0.00    0.0
2158 455489.000   22.301626219  114.188168394     8.2690   4   0   1.9055   1.5699   3.1541  -1.0905   1.2097   1.8209   0.00    0.0
2158 455490.000   22.301655314  114.188199048     6.3577   4   0   2.3835   1.7766   3.2755  -1.5071   0.9311   2.1918   0.00    0.0
2158 455491.000   22.301692998  114.188235054     7.4493   4   2   1.0567   1.2145   2.9953   0.7287   1.5893   1.4907   0.00    0.0
2158 455492.000   22.301768302  114.188258859    14.6681   4   2   1.8097   1.7325   2.5070  -1.3406   1.1921   1.3467   0.00    0.0
2158 455493.000   22.301759448  114.188305363    13.9429   4   3   0.8584   1.0723   2.4058   0.5581   1.3137   1.1431   0.00    0.0
2158 455494.000   22.301773002  114.188336026    17.2947   2   4   0.8149   0.9627   2.2312   0.5078   1.1748   1.0769   0.00    0.0
2158 455495.000   22.301772022  114.188329689    14.2755   4   3   0.8647   0.9051   2.2398   0.5137   1.1339   1.1487   0.00    0.0
2158 455496.000   22.301765978  114.188319522    11.3735   4   3   0.8805   0.8682   2.2459   0.5352   1.1223   1.1882   0.00    0.0
2158 455497.000   22.301778410  114.188310491    11.9149   4   3   1.5949   1.3960   2.2558  -1.0832   0.9748   1.3460   0.00    0.0
2158 455498.000   22.301788707  114.188307530    13.0252   4   3   1.7983   1.5388   2.2566  -1.3100   0.8992   1.4176   0.00    0.0
2158 455499.000   22.301789133  114.188309155    13.2154   2   4   1.3334   1.1256   2.2135  -0.6926   0.9943   1.3174   0.00    0.0
2158 455500.000   22.301774078  114.188319486    12.1042   2   4   0.7823   0.9506   2.3523   0.6337   1.3238   1.1778   0.00    0.0
2158 455501.000   22.301776982  114.188323067    12.8012   2   4   0.6183   0.6891   1.6477   0.3273   0.8256   0.7797   0.00    0.0
2158 455502.000   22.301778337  114.188325476    13.0473   2   5   0.5617   0.6113   1.4231   0.2081   0.6671   0.6447   0.00    0.0
2158 455503.000   22.301780577  114.188329026    13.7231   2   4   0.5314   0.5619   1.2899   0.1217   0.5683   0.5715   0.00    0.0
2158 455504.000   22.301782471  114.188331940    14.2414   2   4   0.5092   0.5277   1.2004  -0.0277   0.5020   0.5225   0.00    0.0
2158 455505.000   22.301783838  114.188334370    14.5890   2   4   0.4912   0.5016   1.1319  -0.1014   0.4527   0.4854   0.00    0.0
2158 455506.000   22.301786686  114.188338267    15.3837   4   3   0.5858   0.5911   1.4841   0.3181   0.7232   0.7462   0.00    0.0
2158 455507.000   22.301793850  114.188347239    17.6510   4   3   0.7441   0.7475   2.0226   0.5672   1.0807   1.0958   0.00    0.0
2158 455508.000   22.301803030  114.188359375    20.6741   4   3   0.8361   0.8435   2.3444   0.6930   1.2829   1.2904   0.00    0.0
2158 455509.000   22.301804942  114.188363165    21.2791   4   3   0.8465   0.8565   2.3933   0.7132   1.3158   1.3195   0.00    0.0
2158 455510.000   22.301803213  114.188362444    20.5897   4   3   0.8446   0.8581   2.4000   0.7186   1.3240   1.3236   0.00    0.0
2158 455511.000   22.301798294  114.188357804    18.8321   4   3   0.8442   0.8612   2.4091   0.7252   1.3340   1.3295   0.00    0.0
2158 455512.000   22.301795099  114.188355212    17.6687   4   3   0.8432   0.8627   2.4139   0.7302   1.3409   1.3334   0.00    0.0
2158 455513.000   22.301794614  114.188355641    17.4467   4   3   0.8411   0.8621   2.4135   0.7331   1.3439   1.3344   0.00    0.0
2158 455514.000   22.301796136  114.188358493    17.9588   4   3   0.8388   0.8607   2.4117   0.7350   1.3455   1.3347   0.00    0.0
2158 455515.000   22.301796575  114.188360420    18.1374   4   3   0.8368   0.8594   2.4105   0.7369   1.3470   1.3351   0.00    0.0
2158 455516.000   22.301795134  114.188359716    17.6402   4   3   0.8349   0.8583   2.4096   0.7387   1.3486   1.3357   0.00    0.0
2158 455517.000   22.301783975  114.188348115    13.8991   2   4   0.4111   0.4098   0.9575   0.0527   0.3987   0.4287   0.00    0.0
2158 455518.000   22.301784180  114.188349586    13.9753   2   4   0.4020   0.4044   0.9328   0.0401   0.3895   0.4138   0.00    0.0
2158 455519.000   22.301786110  114.188352755    14.6506   4   3   0.5268   0.5395   1.4046   0.3574   0.7305   0.7313   0.00    0.0
2158 455520.000   22.301784652  114.188352256    14.2292   2   4   0.3843   0.3825   0.8757  -0.0713   0.3494   0.3803   0.00    0.0
2158 455521.000   22.301783752  114.188352044    13.9380   2   4   0.3784   0.3752   0.8590  -0.0780   0.3392   0.3718   0.00    0.0
2158 455522.000   22.301784294  114.188353519    14.1601   2   4   0.3720   0.3678   0.8407  -0.0858   0.3278   0.3619   0.00    0.0
2158 455523.000   22.301784968  114.188355603    14.4415   2   4   0.3661   0.3609   0.8239  -0.0917   0.3175   0.3529   0.00    0.0
2158 455524.000   22.301787033  114.188358743    14.4973   2   4   0.3607   0.3546   0.8086  -0.0960   0.3083   0.3449   0.00    0.0
2158 455525.000   22.301794060  114.188367492    14.5808   2   4   0.3571   0.3517   0.8011  -0.0910   0.3078   0.3428   0.00    0.0
2158 455526.000   22.301814568  114.188395799    17.2826   4   3   0.5157   0.5234   1.3958   0.3741   0.7367   0.7405   0.00    0.0
2158 455527.000   22.301837990  114.188427545    18.7019   4   3   0.6798   0.7096   1.9581   0.5970   1.0981   1.0780   0.00    0.0
2158 455528.000   22.301865685  114.188459537    18.8815   4   3   0.7054   0.7416   2.0497   0.6333   1.1582   1.1320   0.00    0.0
2158 455529.000   22.301903294  114.188493773    19.4693   4   3   0.7773   0.8090   2.2751   0.7143   1.2904   1.2682   0.00    0.0
2158 455530.000   22.301926692  114.188503039    12.5609   4   3   0.7977   0.8265   2.3396   0.7375   1.3274   1.3078   0.00    0.0
2158 455531.000   22.301958880  114.188513685     6.2967   4   3   0.8018   0.8307   2.3562   0.7440   1.3376   1.3181   0.00    0.0
2158 455532.000   22.301999778  114.188527794     1.7918   4   2   0.9356   0.9560   2.7660   0.8855   1.5743   1.5618   0.00    0.0
2158 455533.000   22.302055343  114.188551767     1.1453   4   3   0.9736   0.9889   2.8805   0.9246   1.6386   1.6309   0.00    0.0
2158 455534.000   22.302108322  114.188567777    -0.6257   4   2   0.9773   0.9919   2.8927   0.9290   1.6456   1.6387   0.00    0.0
2158 455535.000   22.302161296  114.188581645    -1.7729   4   2   0.9756   0.9932   2.8923   0.9295   1.6472   1.6379   0.00    0.0
2158 455536.000   22.302233292  114.188578546    -1.0952   4   2   1.9941   1.3289   3.1429  -0.8385   1.2345   2.2094   0.00    0.0
2158 455537.000   22.302307251  114.188586708     2.8600   4   2   2.4273   0.9811   3.2148  -1.0819  -0.6133   2.6588   0.00    0.0
2158 455538.000   22.302364708  114.188599415     5.7651   4   0   2.4530   1.3025   3.1571  -1.2996  -0.2372   2.5488   0.00    0.0
2158 455539.000   22.302412475  114.188608822     8.3467   4   2   2.4142   1.4463   3.3430  -1.2334   0.8847   2.5434   0.00    0.0
2158 455540.000   22.302432890  114.188612320     7.7212   4   0   2.4522   1.4565   3.4572  -1.2053   0.9643   2.6165   0.00    0.0
2158 455541.000   22.302446033  114.188611867     8.9329   4   0   2.4924   1.5843   4.0807  -1.1522  -0.7800   2.5563   0.00    0.0
2158 455542.000   22.302443982  114.188607187     4.4778   4   0   2.4969   1.1525   3.3020  -1.1844  -0.4075   2.6912   0.00    0.0
2158 455543.000   22.302428334  114.188608406     1.5289   4   0   2.4585   0.9518   3.1925  -1.1213  -0.7666   2.6811   0.00    0.0
2158 455544.000   22.302423999  114.188606203     0.2121   4   0   2.4821   0.9053   3.5614  -1.1835  -0.7423   2.5162   0.00    0.0
2158 455545.000   22.302430841  114.188602822     1.1709   4   0   2.4577   0.8619   3.0136  -1.1925  -1.0383   2.6343   0.00    0.0
2158 455546.000   22.302432962  114.188599876     0.8309   4   0   2.4334   0.8699   3.6228  -1.2215  -0.7161   2.4056   0.00    0.0
2158 455547.000   22.302427836  114.188595396    -0.3987   4   0   1.9337   0.9314   3.3413   0.3796   1.2018   2.4149   0.00    0.0
2158 455548.000   22.302431736  114.188595382     0.3007   4   0   1.4576   0.6457   2.1583  -0.5317   0.3710   1.6680   0.00    0.0
2158 455549.000   22.302431457  114.188594997     0.2171   4   0   1.2640   0.5926   1.8548  -0.5081   0.2780   1.4251   0.00    0.0
2158 455550.000   22.302432018  114.188594211     0.2414   4   0   1.1555   0.5552   1.7103  -0.4691   0.2666   1.3019   0.00    0.0
2158 455551.000   22.302432384  114.188593866     0.2617   4   0   1.0708   0.5243   1.5974  -0.4381   0.2533   1.2061   0.00    0.0
2158 455552.000   22.302432844  114.188593826     0.4548   4   0   1.0025   0.4982   1.5063  -0.4127   0.2397   1.1291   0.00    0.0
2158 455553.000   22.302432371  114.188594032     0.4415   4   0   0.9458   0.4758   1.4307  -0.3914   0.2265   1.0653   0.00    0.0
2158 455554.000   22.302432674  114.188594267     0.5777   4   0   0.8978   0.4563   1.3667  -0.3732   0.2139   1.0115   0.00    0.0
2158 455555.000   22.302432916  114.188594525     0.6840   4   0   0.8565   0.4391   1.3116  -0.3574   0.2021   0.9652   0.00    0.0
2158 455556.000   22.302433609  114.188594116     0.7523   4   0   1.1325   0.4715   1.5483  -0.5165  -0.3502   1.2439   0.00    0.0
2158 455557.000   22.302435430  114.188593553     0.9871   4   0   2.0488   0.6330   2.4677  -0.9993  -0.9770   2.1986   0.00    0.0
2158 455558.000   22.302433250  114.188591125    -0.7116   4   0   0.9056   0.5322   2.2542  -0.5120   0.8290  -0.3442   0.00    0.0
2158 455559.000   22.302431270  114.188592377     0.1434   4   0   0.7508   0.4004   1.1759  -0.3158   0.1973   0.8464   0.00    0.0
2158 455560.000   22.302430069  114.188593296     0.6583   4   0   1.9055   0.7629   2.0003  -1.0991   0.5660   0.7972   0.00    0.0
2158 455561.000   22.302446173  114.188587111     0.6675   4   0   2.4738   0.8663   3.8304  -1.3260   0.2763   2.0378   0.00    0.0
2158 455562.000   22.302443023  114.188589519     1.4953   4   0   2.7227   0.7604   3.1766  -1.3469  -1.3823   2.9071   0.00    0.0
2158 455563.000   22.302446451  114.188589993     1.4850   4   0   2.7049   0.7690   3.1283  -1.3564  -1.3891   2.8754   0.00    0.0
2158 455564.000   22.302442420  114.188597390     0.3029   4   0   0.6828   0.3671   1.0798  -0.2903   0.1694   0.7686   0.00    0.0
2158 455565.000   22.302459570  114.188601623     0.5035   4   0   0.6562   0.3584   1.0534  -0.2737   0.1838   0.7420   0.00    0.0
2158 455566.000   22.302487258  114.188601198     0.3831   4   0   0.6953   0.4800   1.4672  -0.3966  -0.5488   0.8976   0.00    0.0
2158 455567.000   22.302522342  114.188600345    -0.0698   4   0   2.1011   1.7551   3.0412  -0.9453  -0.6070   1.7353   0.00    0.0
2158 455568.004   22.302570806  114.188585675     1.5412   4   0   1.1798   1.1800   3.7997  -1.0941  -2.0237   2.0425   0.00    0.0
2158 455569.000   22.302620786  114.188568763     2.3785   4   0   2.5076   1.9056   4.5138  -1.1094  -0.6601   2.5728   0.00    0.0
2158 455570.000   22.302613227  114.188564388    -3.7160   4   0   1.5734   0.9636   2.7852  -0.4292  -1.5157   1.2066   0.00    0.0
2158 455571.000   22.302667420  114.188551098    -5.7478   4   3   1.7392   0.9659   2.8672  -0.5817  -1.5437   1.4603   0.00    0.0
2158 455572.000   22.302763949  114.188528421    -6.0485   4   2   0.9768   1.4809   3.1275  -0.5589  -1.1401   1.6628   0.00    0.0
2158 455573.000   22.302802137  114.188495770    -5.9165   4   0   1.7773   1.6294   3.3477  -0.8815  -0.7310   1.3929   0.00    0.0
2158 455574.000   22.302854466  114.188448428    -4.9885   4   2   1.7781   1.6390   3.3870  -0.9040  -0.7022   1.3640   0.00    0.0
2158 455575.000   22.302913749  114.188397393    -4.5545   2   4   1.7991   1.7904   3.3857  -0.7758  -0.4961   1.4421   0.00    0.0
2158 455576.000   22.302971651  114.188344462    -4.5618   4   2   1.4165   1.8751   3.5896   0.6534  -0.8650   1.2065   0.00    0.0
2158 455577.000   22.303021267  114.188278709    -3.5582   4   2   1.2893   1.8258   3.6294   0.8524  -0.8064   1.0851   0.00    0.0
2158 455578.000   22.303077619  114.188200790    -1.6462   4   0   1.7076   2.0570   3.6598  -0.5732  -1.0321   1.3034   0.00    0.0
2158 455579.000   22.303147472  114.188178594    -0.7667   4   0   1.8324   1.9621   3.6689  -0.9824  -1.3491   1.4092   0.00    0.0
2158 455580.000   22.303185931  114.188114800    -3.2518   4   3   1.8079   1.9433   3.6512  -0.9506  -1.3971   1.4452   0.00    0.0
2158 455581.000   22.303211853  114.188074164    -2.2573   4   3   2.2885   1.9234   4.7179  -1.1365  -2.0955   2.8691   0.00    0.0
2158 455582.000   22.303285688  114.187967694     4.5164   2   4   1.4365   2.2830   4.1527   0.2691  -2.3284   1.5557   0.00    0.0
2158 455583.000   22.303333804  114.187867383     1.4589   4   3   1.4717   2.1974   3.4061   0.7598  -1.9091   1.4987   0.00    0.0
2158 455584.000   22.303412841  114.187743809     5.5495   4   0   1.7130   2.4451   3.3188  -0.7639  -1.9900   1.3011   0.00    0.0
2158 455585.000   22.303464352  114.187688681     0.7997   4   2   1.3724   2.0767   4.2226   1.0026  -1.7515   1.1612   0.00    0.0
2158 455586.000   22.303539193  114.187615862    -1.9794   4   0   2.3459   2.7081   5.9154  -1.5128  -3.0571   2.8237   0.00    0.0
2158 455587.000   22.303598113  114.187510534     0.5981   4   0   3.3196   3.7306   8.5326  -2.5022  -4.6424   4.7112   0.00    0.0
2158 455588.000   22.303659753  114.187525310     3.1082   4   0   3.8204   4.3121  10.6030  -2.9667  -5.8531   5.6753   0.00    0.0
2158 455590.000   22.303502545  114.187054649   -14.2426   4   0   4.9025   6.8781  13.4567  -2.3767  -6.2395   7.5639   0.00    0.0
2158 455591.000   22.303593846  114.186697067     7.1495   4   0   5.0993   3.4022   9.8946   2.7526   3.8912   6.5675   0.00    0.0
2158 455592.000   22.303791591  114.186242859    57.8549   4   0   4.7330   3.9881   9.2575   3.0665   4.1189   6.1489   0.00    0.0
2158 455593.000   22.303963927  114.186160892    49.1625   4   2   4.8563   8.6502  13.0880   4.5020   7.1763   7.4712   0.00    0.0
2158 455594.000   22.304137940  114.186426794    94.9629   4   0   4.2309   3.2898   9.3959   2.7431   4.4036   5.8979   0.00    0.0
2158 455595.000   22.304279456  114.186508894   116.4979   4   0   2.7317   1.9809   5.7659  -1.3696  -1.9287   3.2731   0.00    0.0
2158 455596.000   22.304331924  114.186613615   102.7773   4   0   3.2090   3.5358   8.1614  -2.2670  -4.2515   4.4773   0.00    0.0
2158 455597.000   22.304260074  114.186667680    62.3411   4   2   3.6443   4.0562  10.1410  -2.8967  -5.4508   5.5198   0.00    0.0
2158 455598.000   22.304181039  114.186650555    20.8366   4   3   3.7093   4.1488  10.8547  -3.3681  -6.1682   5.8225   0.00    0.0
2158 455599.000   22.304137591  114.186642326     0.6065   4   2   3.7862   4.1902  11.1313  -3.4404  -6.3016   5.9805   0.00    0.0
2158 455600.000   22.304115752  114.186691753   -14.9890   4   2   3.8177   4.2244  11.1957  -3.4791  -6.3531   6.0315   0.00    0.0
2158 455601.000   22.304143735  114.186688977   -21.6818   4   2   3.7893   4.2448  11.1978  -3.4822  -6.3492   6.0373   0.00    0.0
2158 455602.000   22.304175988  114.186651950   -18.5936   4   3   3.7571   3.7403  11.2039  -3.3394  -6.2793   6.0216   0.00    0.0
2158 455603.000   22.304207190  114.186611736   -12.4481   4   3   3.7285   3.6823  11.2278  -3.3166  -6.2716   6.0227   0.00    0.0
2158 455604.000   22.304247462  114.186569046    -4.9720   4   3   3.4811   3.6384  11.2555  -3.3496  -6.2702   6.0271   0.00    0.0
2158 455605.000   22.304284177  114.186533101     0.5767   4   2   3.6847   4.0327  11.2839  -3.4225  -6.3354   6.0511   0.00    0.0
2158 455606.000   22.304317897  114.186481110     8.8099   4   3   3.4873   4.0503  11.2951  -3.2120  -6.3422   6.0150   0.00    0.0
2158 455607.000   22.304350792  114.186434925    16.9545   2   4   3.2958   3.6991  10.9962  -3.2361  -6.1571   5.8549   0.00    0.0
2158 455608.000   22.304331504  114.186439021     5.9373   2   4   2.2809   2.7564   6.8798  -1.8414  -3.9063   3.6678   0.00    0.0
2158 455609.000   22.304347824  114.186415271     7.6888   2   4   1.9156   2.2164   5.8890  -1.7214  -3.3406   3.1498   0.00    0.0
2158 455610.000   22.304360494  114.186393273     9.5422   2   4   1.7796   2.0340   5.4914  -1.6273  -3.1099   2.9421   0.00    0.0
2158 455611.000   22.304369278  114.186374550    11.1071   2   4   1.6702   1.8990   5.1640  -1.5410  -2.9235   2.7686   0.00    0.0
2158 455612.000   22.304367558  114.186342247    12.7032   2   4   1.7495   2.2386   4.8894  -1.0654  -2.7815   2.6139   0.00    0.0
2158 455613.000   22.304376441  114.186336974    13.7402   2   4   1.5505   1.8279   4.6543  -1.3031  -2.6360   2.4959   0.00    0.0
2158 455614.000   22.304381222  114.186330008    14.5197   2   4   1.4679   1.7045   4.4502  -1.2787  -2.5180   2.3883   0.00    0.0
2158 455615.000   22.304383566  114.186326031    15.0529   2   4   1.4026   1.6165   4.2708  -1.2411  -2.4150   2.2931   0.00    0.0
2158 455616.000   22.304384252  114.186323035    15.6864   2   4   1.3461   1.5425   4.1115  -1.2043  -2.3237   2.2083   0.00    0.0
2158 455617.000   22.304384558  114.186321218    16.2752   2   4   1.2963   1.4788   3.9686  -1.1693  -2.2421   2.1322   0.00    0.0
2158 455618.000   22.304386061  114.186318119    17.2718   2   4   1.2520   1.4229   3.8397  -1.1363  -2.1684   2.0634   0.00    0.0
2158 455619.000   22.304387728  114.186315181    18.2008   4   3   1.2412   1.4031   3.8427  -1.1398  -2.1657   2.0636   0.00    0.0
2158 455620.000   22.304388830  114.186312400    18.9691   2   5   1.1757   1.3280   3.6151  -1.0770  -2.0397   1.9437   0.00    0.0
2158 455621.000   22.304390561  114.186309312    19.9308   2   4   1.2005   1.3471   3.7536  -1.1172  -2.1103   2.0147   0.00    0.0
2158 455622.000   22.304394725  114.186304766    21.5268   2   4   1.5107   1.6646   5.0027  -1.4741  -2.7813   2.6686   0.00    0.0
2158 455623.000   22.304394079  114.186307123    20.9069   2   5   1.0842   1.2170   3.3420  -1.0015  -1.8837   1.7976   0.00    0.0
2158 455624.000   22.304396617  114.186305455    21.2390   2   4   1.0581   1.1858   3.2635  -0.9792  -1.8389   1.7555   0.00    0.0
2158 455625.000   22.304400056  114.186303136    21.2466   4   3   1.0724   1.1965   3.3478  -1.0026  -1.8813   1.7984   0.00    0.0
2158 455626.000   22.304405451  114.186300193    20.8865   4   3   1.3300   1.4608   4.3861  -1.2964  -2.4378   2.3414   0.00    0.0
2158 455627.000   22.304410525  114.186296832    20.8521   2   4   0.9901   1.1052   3.0582  -0.9202  -1.7218   1.6453   0.00    0.0
2158 455628.000   22.304413054  114.186297393    20.6202   2   5   0.9694   1.0814   2.9963  -0.9021  -1.6865   1.6117   0.00    0.0
2158 455629.000   22.304416163  114.186297385    20.2987   2   5   0.9503   1.0591   2.9382  -0.8851  -1.6533   1.5804   0.00    0.0
2158 455630.000   22.304423452  114.186292341    20.0862   2   4   0.9327   1.0381   2.8840  -0.8692  -1.6224   1.5515   0.00    0.0
2158 455631.000   22.304437919  114.186279082    19.7559   4   3   0.9559   1.0595   2.9961  -0.8997  -1.6801   1.6091   0.00    0.0
2158 455632.000   22.304459582  114.186257391    19.4225   2   4   0.9001   1.0000   2.7848  -0.8400  -1.5657   1.4982   0.00    0.0
2158 455633.000   22.304487585  114.186228761    19.0514   4   3   0.9613   1.0607   3.0480  -0.9127  -1.7043   1.6349   0.00    0.0
2158 455634.000   22.304535240  114.186218110    18.8319   4   3   1.2115   1.7954   2.6958   0.7831  -1.5426   1.4334   0.00    0.0
2158 455635.000   22.304582984  114.186194608    18.7850   4   2   1.3732   2.0463   3.0002   0.9774  -1.6899   1.5999   0.00    0.0
2158 455636.000   22.304622298  114.186149289    18.8967   4   3   1.4388   2.2612   2.6146   1.3325  -1.5178   1.3758   0.00    0.0
2158 455637.000   22.304650417  114.186089033    18.9991   4   3   1.4529   2.2896   2.5765   1.3751  -1.4972   1.3545   0.00    0.0
2158 455638.000   22.304707285  114.186089746    18.9602   4   3   1.8658   3.0364   2.5407   2.0653  -1.4346   1.3616   0.00    0.0
2158 455639.000   22.304702994  114.185986831    18.6605   4   3   1.5409   2.4575   2.5078   1.5574  -1.3982   1.3545   0.00    0.0
2158 455640.000   22.304780875  114.186037906    18.1655   2   4   1.4952   2.3944   2.4769   1.5007  -1.3866   1.3339   0.00    0.0
2158 455641.000   22.304837095  114.186047374    18.0786   4   2   1.5046   2.4236   2.6404   1.5331  -1.3664   1.3276   0.00    0.0
2158 455642.000   22.304882515  114.186032844    20.7204   4   2   1.4375   2.3182   3.6430   1.4370  -1.7245   1.0970   0.00    0.0
2158 455643.000   22.304878693  114.185924472    35.3309   4   2   1.8562   3.0820   4.8061   2.1159  -1.9837   0.8923   0.00    0.0
2158 455644.000   22.304876912  114.185838184    51.7662   4   2   1.4775   2.4223   5.2247   1.5372  -2.2933   0.2125   0.00    0.0
2158 455645.000   22.304894613  114.185816785    57.6867   4   2   1.2638   2.0238   5.0052   1.1716  -1.8132   1.0394   0.00    0.0
2158 455646.000   22.304910089  114.185808755    63.4343   4   2   1.4240   2.3548   5.1648   1.4801  -2.2213   0.3454   0.00    0.0
2158 455647.000   22.304956896  114.185831218    64.1700   4   0   2.3933   2.7801   6.1393  -0.6343  -3.1416   2.4235   0.00    0.0
2158 455648.000   22.304982352  114.185849690    64.9069   4   0   3.4997   3.5047   8.3799  -2.4195  -4.6922   4.5084   0.00    0.0
2158 455649.000   22.304970434  114.185875713    65.5669   4   0   3.9285   3.9187  10.0007  -2.9953  -5.6192   5.4825   0.00    0.0
2158 455650.000   22.304932483  114.185850602    77.2024   4   0   4.0715   4.1064  10.8253  -3.2063  -6.0549   5.8722   0.00    0.0
2158 455651.000   22.304951683  114.185790290   100.1161   4   0   4.1101   4.1644  11.0839  -3.2663  -6.1896   5.9849   0.00    0.0
2158 455652.000   22.305039779  114.185828383   107.5052   4   0   4.1166   4.1721  11.1211  -3.2750  -6.2083   6.0026   0.00    0.0
2158 455653.000   22.305158425  114.185847932   122.9156   4   0   4.1166   4.1705  11.1221  -3.2739  -6.2068   6.0030   0.00    0.0
2158 455654.000   22.305232844  114.185922258   113.2586   4   0   4.1205   4.1745  11.1455  -3.2787  -6.2176   6.0139   0.00    0.0
2158 455655.000   22.305340858  114.186052230   105.1555   4   0   3.8101   4.1521  11.1873  -3.4126  -6.2473   6.0125   0.00    0.0
2158 455656.000   22.305413131  114.186133745    99.0118   4   0   4.1095   4.1921  11.2315  -3.3118  -6.2642   6.0537   0.00    0.0
2158 455657.000   22.305398759  114.186116889    95.6417   4   0   4.1458   4.2001  11.2628  -3.3114  -6.2779   6.0767   0.00    0.0
2158 455658.000   22.305376414  114.186062288   102.7598   4   0   4.1474   4.2023  11.2787  -3.3160  -6.2850   6.0853   0.00    0.0
2158 455659.000   22.305396567  114.186058031   107.7983   4   0   4.1501   4.2025  11.2838  -3.3151  -6.2863   6.0874   0.00    0.0
2158 455660.000   22.305452773  114.186056289   115.0245   4   0   4.1502   4.2009  11.2840  -3.3137  -6.2846   6.0874   0.00    0.0
2158 455661.000   22.305461956  114.186036421   116.7548   4   2   3.9766   4.0657  10.8866  -3.1186  -6.0295   5.7907   0.00    0.0
2158 455662.000   22.305469342  114.186006835   119.1792   4   2   2.9016   3.4798   9.6075  -2.0023  -5.0581   4.4284   0.00    0.0
2158 455663.000   22.305480396  114.185963492   125.7987   4   2   2.5417   3.1949   8.5477  -1.4419  -4.4196   3.6701   0.00    0.0
2158 455664.000   22.305491804  114.185941148   130.7390   4   2   2.9291   3.2732   8.2792  -1.8138  -4.4046   3.8780   0.00    0.0
2158 455665.000   22.305483838  114.185901275   131.8697   4   2   3.5698   3.6215   9.0742  -2.5499  -5.0253   4.8088   0.00    0.0
2158 455666.000   22.305470765  114.185880336   126.7962   4   0   3.9436   3.9301  10.1674  -3.0104  -5.6783   5.5494   0.00    0.0
2158 455667.000   22.305432927  114.185875386   119.6512   4   0   4.0847   4.0993  10.9002  -3.2089  -6.0678   5.9111   0.00    0.0
2158 455668.000   22.305407356  114.185824277   113.7645   4   2   4.1283   4.0826  11.1992  -3.2568  -6.2048   6.0423   0.00    0.0
2158 455669.000   22.305431111  114.185802317   114.9545   4   0   4.1424   4.1729  11.2618  -3.2927  -6.2525   6.0744   0.00    0.0
2158 455670.000   22.305550939  114.185819758   133.1518   4   2   4.4170   4.2417  11.1123  -2.6441  -5.7058   6.1657   0.00    0.0
2158 455671.000   22.305633632  114.185816553   149.7706   4   2   4.5046   4.2212  11.1053  -2.5028  -5.5587   6.2304   0.00    0.0
2158 455672.000   22.305699961  114.185777700   161.2407   4   0   4.6977   4.3156  11.5287  -2.7308  -5.8018   6.5539   0.00    0.0
2158 455673.000   22.305710700  114.185640192   187.5065   4   2   2.4851   1.8713   5.9254  -0.3767  -1.7258   3.1003   0.00    0.0
2158 455674.000   22.305772948  114.185657481   193.1519   4   0   2.8274   1.9072   5.1486  -0.9205  -1.5452   2.8685   0.00    0.0
2158 455675.000   22.305813514  114.185686121   196.3218   4   0   3.1999   1.9691   5.4066  -1.2807  -1.8549   3.3315   0.00    0.0
2158 455676.000   22.305821865  114.185715922   193.6206   4   0   3.2675   1.9737   5.6361  -1.3281  -1.9330   3.4961   0.00    0.0
2158 455677.000   22.305895226  114.185691227   185.3318   4   0   5.1005   2.1310   6.0204  -2.0959  -2.1604   4.4172   0.00    0.0
2158 455678.000   22.305957256  114.185685943   181.3060   4   0   5.6507   2.1781   6.1741  -2.3385  -2.2891   4.7812   0.00    0.0
2158 455679.000   22.306011570  114.185705588   179.3647   4   0   5.6858   2.1822   6.1927  -2.3559  -2.3059   4.8194   0.00    0.0
2158 455681.000   22.306018648  114.185685357   163.4672   4   2   2.4256   2.5627   6.0938   1.7515   2.1151   2.5187   0.00    0.0
2158 455682.000   22.306062622  114.185705209   160.6456   4   2   2.3502   2.4204   5.7064   1.7170   1.9396   2.5894   0.00    0.0
2158 455685.000   22.306340060  114.185951206    80.8139   4   0   5.0967   4.6721  12.7563  -2.9605  -6.3606   7.2143   0.00    0.0
2158 455686.000   22.306297136  114.186030397    49.2095   4   0   4.8978   4.4749  12.1048  -2.9821  -6.1424   6.9339   0.00    0.0
2158 455687.000   22.306243969  114.186018672    35.7744   4   0   4.8055   4.4012  11.8455  -2.8205  -5.9567   6.7493   0.00    0.0
2158 455688.000   22.306215051  114.185964244    33.6626   4   0   4.7565   4.3572  11.7381  -2.7798  -5.8918   6.6761   0.00    0.0
2158 455689.000   22.306206985  114.185885007    39.8251   4   0   4.7516   4.3530  11.7337  -2.7858  -5.8922   6.6733   0.00    0.0
2158 455690.000   22.306235632  114.185796605    53.1785   4   0   4.1964   4.1627  11.3680  -3.2778  -6.2404   6.1578   0.00    0.0
2158 455691.000   22.306179799  114.185627487    55.8293   4   0   4.1344   4.1674  11.2798  -3.2716  -6.2414   6.0715   0.00    0.0
2158 455692.000   22.306095225  114.185321598    51.3895   4   2   4.1317   4.0851  11.2688  -3.2465  -6.2077   6.0676   0.00    0.0
2158 455693.000   22.306078057  114.185198468    51.8768   4   0   4.1369   4.1409  11.2768  -3.2660  -6.2200   6.0763   0.00    0.0
2158 455694.000   22.306111571  114.185147233    62.2646   4   3   1.7575   2.5157   6.1789   1.2083  -2.8688   1.2654   0.00    0.0
2158 455695.000   22.306127587  114.185127319    68.5267   4   0   3.1150   3.2202   7.7889  -1.8932  -4.1792   3.8379   0.00    0.0
2158 455696.000   22.306125243  114.185095868    71.4611   4   2   3.8775   3.7739  10.0276  -2.8872  -5.5263   5.4322   0.00    0.0
2158 455697.000   22.306140477  114.185009171    84.5581   4   2   1.6475   2.5227   6.1995   1.3278  -2.7897   1.1728   0.00    0.0
2158 455698.000   22.306159611  114.184958291    90.6357   4   2   2.0164   3.1527   5.8139   2.0205  -2.4142   1.4207   0.00    0.0
2158 455699.000   22.306224938  114.184955478    90.7832   4   0   2.9170   3.4631   6.6409   1.4048  -3.0701   3.0002   0.00    0.0
2158 455700.000   22.306247883  114.184948079    84.9518   4   2   2.0663   3.2243   5.6800   2.1399  -2.2409   1.3498   0.00    0.0
2158 455701.000   22.306279195  114.184931162    80.9486   4   2   2.0543   3.2306   5.6162   2.1513  -2.2243   1.3000   0.00    0.0
2158 455702.000   22.306315358  114.184934499    77.2487   4   2   2.0418   3.2334   5.5933   2.1590  -2.2131   1.2603   0.00    0.0
2158 455703.000   22.306351193  114.184949451    74.4188   4   2   1.6008   2.4792   5.5509   1.4477  -2.4516   0.9021   0.00    0.0
2158 455704.000   22.306343352  114.184896314    73.7571   4   2   1.5660   2.4536   5.5290   1.4257  -2.4626   0.8124   0.00    0.0
2158 455705.000   22.306345183  114.184878811    73.9579   4   2   1.9478   3.1352   5.5351   2.0876  -2.2351   1.0877   0.00    0.0
2158 455706.000   22.306340533  114.184860417    73.1215   4   2   1.5706   2.4587   5.5033   1.4750  -2.4051   0.7835   0.00    0.0
2158 455707.000   22.306336276  114.184851453    68.2252   4   2   1.5391   2.4277   5.4827   1.4500  -2.4141   0.6889   0.00    0.0
2158 455708.000   22.306327363  114.184837412    66.0423   4   3   1.5128   2.3886   5.4330   1.4254  -2.4501   0.5168   0.00    0.0
2158 455709.000   22.306327964  114.184843073    63.3669   4   3   1.3160   2.0029   5.3135   1.0541  -2.6939  -0.7436   0.00    0.0
2158 455710.000   22.306332610  114.184856292    59.6030   4   3   1.2782   1.9395   5.1902   1.0005  -2.7718  -0.9523   0.00    0.0
2158 455711.000   22.306334211  114.184863289    56.5983   4   3   1.2610   1.9167   5.0911   0.9911  -2.8019  -1.0527   0.00    0.0
2158 455712.000   22.306336931  114.184872810    53.6876   4   3   1.2481   1.9017   5.0130   0.9897  -2.8177  -1.1210   0.00    0.0
2158 455713.000   22.306336600  114.184875808    52.8909   4   3   1.2364   1.8888   4.9567   0.9899  -2.8269  -1.1731   0.00    0.0
2158 455714.000   22.306342509  114.184891892    49.4607   4   3   1.3868   2.1982   5.0663   1.3130  -2.5739  -0.8267   0.00    0.0
2158 455715.000   22.306347718  114.184906197    45.5113   4   3   1.2377   1.9089   4.9831   1.0380  -2.7628  -1.1520   0.00    0.0
2158 455716.000   22.306351264  114.184917680    42.8131   4   3   1.2145   1.8719   4.9507   1.0108  -2.7892  -1.2177   0.00    0.0
2158 455717.000   22.306352337  114.184923175    41.4574   4   3   1.2019   1.8556   4.9137   1.0048  -2.7989  -1.2586   0.00    0.0
2158 455718.000   22.306353598  114.184929997    40.0376   4   3   1.1923   1.8450   4.8750   1.0043  -2.8042  -1.2917   0.00    0.0
2158 455719.000   22.306351315  114.184929019    40.5133   4   3   1.1840   1.8366   4.8418   1.0059  -2.8075  -1.3203   0.00    0.0
2158 455720.000   22.306347617  114.184924491    41.6863   4   3   1.1763   1.8289   4.8151   1.0078  -2.8093  -1.3454   0.00    0.0
2158 455721.000   22.306350601  114.184933486    39.3216   4   3   1.1688   1.8212   4.7935   1.0093  -2.8099  -1.3675   0.00    0.0
2158 455722.000   22.306353106  114.184941350    37.3046   4   3   1.1615   1.8135   4.7752   1.0106  -2.8092  -1.3870   0.00    0.0
2158 455723.000   22.306355536  114.184948396    36.4037   4   2   1.3417   2.1748   4.9423   1.3608  -2.5037  -1.0304   0.00    0.0
2158 455724.000   22.306361975  114.184956557    32.3554   4   3   1.1507   1.8051   4.7506   1.0189  -2.8122  -1.4272   0.00    0.0
2158 455725.000   22.306366742  114.184946027    32.5781   4   3   1.1422   1.7934   4.7310   1.0155  -2.8040  -1.4355   0.00    0.0
2158 455726.000   22.306367152  114.184920534    32.9381   4   2   2.1207   1.8985   5.5669  -0.3376  -3.1210   1.7868   0.00    0.0
2158 455727.000   22.306406568  114.184896288    31.2372   4   3   1.1369   1.7671   4.5989   1.0385  -2.7557  -1.5005   0.00    0.0
2158 455728.000   22.306441358  114.184868795    27.8809   4   3   0.9957   1.5101   3.9669   0.7919  -2.3462  -1.0935   0.00    0.0
2158 455729.000   22.306491207  114.184862453    18.8365   4   3   0.9567   1.4627   3.8454   0.7524  -2.2753  -1.0521   0.00    0.0
2158 455730.000   22.306533460  114.184839243    16.0554   4   2   1.0798   1.7933   4.0212   1.0628  -1.9526  -0.7056   0.00    0.0
2158 455731.000   22.306546773  114.184749212    28.3903   4   2   1.1067   1.6078   3.7700   1.0384  -1.0751   0.5864   0.00    0.0
2158 455732.000   22.306578766  114.184704367    36.4698   4   2   1.1095   1.5825   3.6836   1.0541  -0.9433   0.4694   0.00    0.0
2158 455733.000   22.306647852  114.184741226    31.9738   4   3   0.9987   1.3311   3.3653   0.8626   0.4500   0.8613   0.00    0.0
2158 455734.000   22.306692455  114.184756103    31.0409   4   3   0.9959   1.4828   2.3554   0.9475  -0.5523   0.7063   0.00    0.0
2158 455735.000   22.306713325  114.184733024    32.3970   4   2   0.9779   1.4923   2.2217   0.9527  -0.6421   0.6740   0.00    0.0
2158 455736.000   22.306701571  114.184673040    26.9787   4   2   1.0286   1.5504   3.1832   1.0344   0.1322   0.9263   0.00    0.0
2158 455737.000   22.306705705  114.184650978    18.3511   4   2   1.3071   2.1945   4.4765   1.5261  -1.6647  -0.6076   0.00    0.0
2158 455738.000   22.306694815  114.184601122    24.0817   4   2   1.1350   1.7041   4.2528   1.2017  -0.3482   0.9494   0.00    0.0
2158 455739.000   22.306703803  114.184604238    28.1278   4   2   0.9948   1.3961   3.9553   0.9686   1.1120   1.2277   0.00    0.0
2158 455740.000   22.306700512  114.184599882    27.6579   4   2   0.9784   1.3937   3.8692   0.9649   1.1263   1.1970   0.00    0.0
2158 455741.000   22.306705385  114.184614496    24.9742   4   2   0.9959   1.4189   3.8685   0.9980   1.1322   1.1762   0.00    0.0
2158 455742.000   22.306702956  114.184617658    20.9864   4   2   1.1632   1.7284   4.1709   1.2656   1.6794   1.5147   0.00    0.0
2158 455743.000   22.306698867  114.184618055    16.0309   4   3   1.3578   2.1231   4.2436   1.5732   1.6807   1.5232   0.00    0.0
2158 455744.000   22.306705693  114.184636883    16.3286   4   2   1.1089   1.7005   4.1254   1.2189   0.6105   0.9453   0.00    0.0
2158 455745.000   22.306702685  114.184637232    18.7571   2   4   1.0639   1.6300   3.9509   1.1597   0.8081   1.0027   0.00    0.0
2158 455746.000   22.306703136  114.184643223    19.0432   4   3   0.9266   1.3254   3.7232   0.9270   1.3930   1.2984   0.00    0.0
2158 455747.000   22.306703840  114.184649022    19.4341   2   4   0.8398   1.1333   2.9923   0.7747   1.0794   1.1060   0.00    0.0
2158 455748.000   22.306702705  114.184650685    19.3943   2   4   0.8086   1.0678   2.7541   0.7233   1.0415   1.0767   0.00    0.0
2158 455749.000   22.306700990  114.184652295    19.6211   4   3   0.8625   1.2014   2.9878   0.8351   1.4098   1.2850   0.00    0.0
2158 455750.000   22.306700582  114.184656542    20.9426   2   4   0.8872   1.2648   3.1235   0.8881   1.5938   1.3969   0.00    0.0
2158 455751.000   22.306699211  114.184658156    21.3052   4   3   0.8834   1.2647   3.1286   0.8893   1.6399   1.4213   0.00    0.0
2158 455752.000   22.306689797  114.184645277    18.4106   4   3   0.8496   1.2255   3.0761   0.8498   1.6206   1.3948   0.00    0.0
2158 455753.000   22.306676649  114.184624395    13.5607   4   3   0.9532   1.4426   3.5166   1.0299   2.0046   1.6571   0.00    0.0
2158 455754.000   22.306669965  114.184616134    11.6633   4   3   0.8504   1.2514   3.1098   0.8721   1.7080   1.4460   0.00    0.0
2158 455755.000   22.306663403  114.184607817     9.6815   4   3   0.8245   1.2118   3.0201   0.8387   1.6583   1.4067   0.00    0.0
2158 455756.000   22.306658601  114.184603428     8.6659   4   3   0.8174   1.2077   3.0011   0.8359   1.6640   1.4065   0.00    0.0
2158 455757.000   22.306655796  114.184602696     8.5491   4   3   0.8131   1.2071   2.9878   0.8366   1.6725   1.4092   0.00    0.0
2158 455758.000   22.306651930  114.184601218     8.2948   4   3   0.8086   1.2049   2.9720   0.8364   1.6769   1.4095   0.00    0.0
2158 455759.000   22.306648311  114.184600333     8.2100   4   3   0.8042   1.2028   2.9580   0.8360   1.6807   1.4093   0.00    0.0
2158 455760.000   22.306642263  114.184595071     7.0530   4   3   0.8002   1.2014   2.9470   0.8361   1.6851   1.4092   0.00    0.0
2158 455761.000   22.306638239  114.184594396     7.0647   2   4   0.7962   1.2002   2.9371   0.8362   1.6891   1.4091   0.00    0.0
2158 455762.000   22.306639698  114.184602172     8.9944   4   3   0.7924   1.1993   2.9297   0.8363   1.6934   1.4087   0.00    0.0
2158 455763.000   22.306641656  114.184610628    11.0704   4   3   0.7887   1.1984   2.9224   0.8364   1.6971   1.4080   0.00    0.0
2158 455764.000   22.306641919  114.184615761    12.3159   4   3   0.7852   1.1976   2.9155   0.8365   1.7004   1.4071   0.00    0.0
2158 455765.000   22.306638272  114.184613195    11.7155   4   3   0.7820   1.1969   2.9092   0.8367   1.7034   1.4063   0.00    0.0
2158 455766.000   22.306636311  114.184612669    11.5961   4   3   0.7789   1.1963   2.9033   0.8370   1.7063   1.4054   0.00    0.0
2158 455767.000   22.306651155  114.184643772    18.9988   4   3   0.8955   1.4255   3.4070   1.0237   2.0763   1.6653   0.00    0.0
2158 455768.000   22.306641788  114.184629408    15.5675   4   3   0.7951   1.2348   2.9783   0.8714   1.7746   1.4496   0.00    0.0
2158 455769.000   22.306637343  114.184624067    14.3125   4   3   0.7724   1.1971   2.8923   0.8405   1.7173   1.4056   0.00    0.0
2158 455770.000   22.306655330  114.184660786    23.0469   4   3   0.8878   1.4254   3.3987   1.0244   2.0844   1.6629   0.00    0.0
2158 455771.000   22.306667844  114.184686501    29.1354   4   3   0.9252   1.4973   3.5562   1.0830   2.1995   1.7451   0.00    0.0
2158 455772.000   22.306672264  114.184696902    31.6302   4   3   0.9611   1.5530   3.6754   1.1330   2.2876   1.8149   0.00    0.0
2158 455773.000   22.306667845  114.184691648    30.2773   4   3   0.9699   1.5650   3.6991   1.1454   2.3078   1.8313   0.00    0.0
2158 455774.000   22.306663175  114.184686015    28.8452   4   3   0.9709   1.5680   3.7042   1.1485   2.3144   1.8346   0.00    0.0
2158 455775.000   22.306631025  114.184627264    14.7695   4   3   0.7911   1.2463   2.9816   0.8869   1.8099   1.4605   0.00    0.0
2158 455776.000   22.306613572  114.184597464     7.5483   4   3   0.7589   1.2002   2.8791   0.8449   1.7394   1.4011   0.00    0.0
2158 455777.000   22.306605695  114.184585984     4.7507   4   3   0.7542   1.1989   2.8743   0.8427   1.7394   1.3968   0.00    0.0
2158 455778.000   22.306609240  114.184596463     7.1501   4   3   0.7523   1.1973   2.8675   0.8426   1.7384   1.3951   0.00    0.0
2158 455779.000   22.306615441  114.184610220    10.3809   4   3   0.7505   1.1944   2.8576   0.8421   1.7351   1.3927   0.00    0.0
2158 455780.000   22.306621439  114.184623399    13.3987   4   3   0.7493   1.1929   2.8514   0.8424   1.7341   1.3916   0.00    0.0
2158 455781.000   22.306625019  114.184631536    15.2344   4   3   0.7480   1.1927   2.8483   0.8431   1.7352   1.3912   0.00    0.0
2158 455782.000   22.306625944  114.184634874    15.8849   4   3   0.7462   1.1926   2.8459   0.8435   1.7365   1.3903   0.00    0.0
