% program   : RTKPOST demo5 b34k
% inp file  : C:\Users\user\Desktop\AAE6102_Laboratory-main\AAE6102_Laboratory-main\GNSS Data\UrbanNav - Medium\20210521.medium-urban.whampoa.ublox.f9p.obs
% inp file  : C:\Users\user\Desktop\AAE6102_Laboratory-main\AAE6102_Laboratory-main\GNSS Data\UrbanNav - Medium\hksc141g.21n
% obs start : 2021/05/21 06:29:02.0 GPST (week2158 455342.0s)
% obs end   : 2021/05/21 06:54:39.0 GPST (week2158 456879.0s)
% pos mode  : Single
% elev mask : 15.0 deg
% ionos opt : Broadcast
% tropo opt : Saastamoinen
% ephemeris : Broadcast
% navi sys  : GPS GLONASS Galileo QZSS BDS NavIC SBAS
%
% (lat/lon/height=WGS84/ellipsoidal,Q=1:fix,2:float,3:sbas,4:dgps,5:single,6:ppp,ns=# of satellites)
%  GPST          latitude(deg) longitude(deg)  height(m)   Q  ns   sdn(m)   sde(m)   sdu(m)  sdne(m)  sdeu(m)  sdun(m) age(s)  ratio
2158 455342.000   22.301592919  114.190327504     7.2029   5   7   3.6243   3.8727   7.6772  -1.7772  -1.7225  -1.7299   0.00    0.0
2158 455343.000   22.301593694  114.190327384     7.3317   5   7   3.6241   3.8729   7.6766  -1.7772  -1.7214  -1.7291   0.00    0.0
2158 455344.000   22.301594878  114.190328287     7.5547   5   7   3.6239   3.8731   7.6759  -1.7771  -1.7203  -1.7283   0.00    0.0
2158 455345.000   22.301595647  114.190325911     7.1920   5   7   3.6236   3.8733   7.6753  -1.7770  -1.7192  -1.7275   0.00    0.0
2158 455346.000   22.301594199  114.190325943     7.0222   5   7   3.6234   3.8735   7.6746  -1.7769  -1.7181  -1.7267   0.00    0.0
2158 455347.000   22.301594640  114.190326272     7.0825   5   7   3.6232   3.8737   7.6740  -1.7769  -1.7169  -1.7260   0.00    0.0
2158 455348.000   22.301595242  114.190323882     7.1493   5   7   3.6230   3.8739   7.6734  -1.7768  -1.7158  -1.7252   0.00    0.0
2158 455349.000   22.301593968  114.190315204     7.0124   5   7   3.6228   3.8740   7.6727  -1.7767  -1.7147  -1.7244   0.00    0.0
2158 455350.000   22.301594185  114.190304363     6.9036   5   7   3.6226   3.8742   7.6721  -1.7766  -1.7136  -1.7236   0.00    0.0
2158 455351.000   22.301597389  114.190292487     6.8878   5   7   3.6223   3.8744   7.6715  -1.7765  -1.7125  -1.7228   0.00    0.0
2158 455352.000   22.301606738  114.190282520     6.7852   5   7   3.6221   3.8746   7.6708  -1.7765  -1.7113  -1.7221   0.00    0.0
2158 455353.000   22.301618535  114.190275599     6.6077   5   7   3.6219   3.8748   7.6702  -1.7764  -1.7102  -1.7213   0.00    0.0
2158 455354.000   22.301631285  114.190266942     6.3824   5   7   3.6217   3.8750   7.6696  -1.7763  -1.7091  -1.7205   0.00    0.0
2158 455355.000   22.301645914  114.190265132     7.9768   5   8   3.6103   3.6998   6.9516  -1.8662  -2.5787  -1.9694   0.00    0.0
2158 455356.000   22.301658911  114.190258585     7.6785   5   8   3.6101   3.6998   6.9511  -1.8662  -2.5783  -1.9686   0.00    0.0
2158 455357.000   22.301670582  114.190249596     6.3385   5   8   3.6098   3.6998   6.9506  -1.8661  -2.5778  -1.9678   0.00    0.0
2158 455358.000   22.301707894  114.190227370     8.1466   5   8   3.6096   3.6998   6.9501  -1.8661  -2.5774  -1.9671   0.00    0.0
2158 455359.000   22.301729070  114.190219170     6.2421   5   8   3.6094   3.6998   6.9496  -1.8660  -2.5769  -1.9663   0.00    0.0
2158 455360.000   22.301772505  114.190188529     8.2594   5   8   3.6092   3.6998   6.9491  -1.8659  -2.5765  -1.9656   0.00    0.0
2158 455361.000   22.301815560  114.190176938     8.4823   5   8   3.6090   3.6998   6.9486  -1.8659  -2.5760  -1.9648   0.00    0.0
2158 455362.000   22.301860908  114.190159936     9.0068   5   8   3.6088   3.6998   6.9482  -1.8658  -2.5756  -1.9640   0.00    0.0
2158 455363.000   22.301915859  114.190139043     9.2735   5   8   3.6085   3.6998   6.9477  -1.8658  -2.5751  -1.9633   0.00    0.0
2158 455364.000   22.301969573  114.190116695     9.6750   5   8   3.6083   3.6998   6.9472  -1.8657  -2.5747  -1.9625   0.00    0.0
2158 455365.000   22.302019037  114.190076381     4.4378   5   7   3.6193   3.8771   7.6626  -1.7754  -1.6967  -1.7120   0.00    0.0
2158 455366.000   22.302068763  114.190043101     5.2251   5   7   3.6190   3.8773   7.6620  -1.7753  -1.6956  -1.7112   0.00    0.0
2158 455367.000   22.302119219  114.190019192     5.1962   5   7   3.6188   3.8774   7.6614  -1.7752  -1.6944  -1.7104   0.00    0.0
2158 455368.000   22.302165265  114.189990358     5.9322   5   7   3.6186   3.8776   7.6608  -1.7751  -1.6933  -1.7097   0.00    0.0
2158 455369.000   22.302212231  114.189963247     6.1018   5   7   3.6184   3.8778   7.6601  -1.7750  -1.6922  -1.7089   0.00    0.0
2158 455370.000   22.302253012  114.189947885     4.7175   5   7   3.6182   3.8780   7.6595  -1.7749  -1.6910  -1.7081   0.00    0.0
2158 455371.000   22.302288743  114.189884382     6.0126   5   6   3.8167   7.4578  10.1479   2.1433  -6.7278  -3.3178   0.00    0.0
2158 455372.000   22.302295551  114.189830137     8.6924   5   6   3.8166   7.4568  10.1461   2.1437  -6.7260  -3.3175   0.00    0.0
2158 455373.000   22.302316732  114.189787041     6.7365   5   6   3.8166   7.4558  10.1444   2.1441  -6.7242  -3.3173   0.00    0.0
2158 455374.000   22.302307768  114.189741362     8.5800   5   6   3.8165   7.4548  10.1427   2.1444  -6.7224  -3.3170   0.00    0.0
2158 455375.000   22.302298476  114.189681910     8.6883   5   6   3.8164   7.4538  10.1410   2.1448  -6.7205  -3.3167   0.00    0.0
2158 455376.000   22.302278730  114.189642756     9.2707   5   6   3.8164   7.4528  10.1393   2.1452  -6.7187  -3.3164   0.00    0.0
2158 455377.000   22.302254021  114.189608388     9.9921   5   6   3.8163   7.4518  10.1375   2.1456  -6.7169  -3.3161   0.00    0.0
2158 455378.000   22.302240553  114.189589049     8.3586   5   6   3.8162   7.4508  10.1358   2.1460  -6.7150  -3.3158   0.00    0.0
2158 455379.000   22.302222521  114.189559058     7.3871   5   6   3.8162   7.4498  10.1341   2.1464  -6.7132  -3.3155   0.00    0.0
2158 455380.000   22.302193749  114.189512360     9.4054   5   6   3.8161   7.4488  10.1324   2.1468  -6.7114  -3.3152   0.00    0.0
2158 455381.000   22.302192591  114.189572767    -0.4503   5   7   3.6157   3.8801   7.6527  -1.7740  -1.6784  -1.6995   0.00    0.0
2158 455382.000   22.302172137  114.189517464     2.5599   5   7   3.6155   3.8803   7.6520  -1.7739  -1.6773  -1.6988   0.00    0.0
2158 455383.000   22.302149335  114.189459851     6.4979   5   7   3.6153   3.8805   7.6514  -1.7738  -1.6761  -1.6980   0.00    0.0
2158 455384.000   22.302119739  114.189418370     6.7078   5   7   3.6150   3.8807   7.6508  -1.7737  -1.6750  -1.6972   0.00    0.0
2158 455385.000   22.302097897  114.189400855     4.5383   5   7   3.6148   3.8809   7.6502  -1.7736  -1.6738  -1.6964   0.00    0.0
2158 455386.000   22.302076152  114.189363740     4.9992   5   7   3.6146   3.8811   7.6496  -1.7735  -1.6727  -1.6956   0.00    0.0
2158 455387.000   22.302062310  114.189319778     6.2127   5   7   3.6144   3.8813   7.6489  -1.7735  -1.6715  -1.6949   0.00    0.0
2158 455388.000   22.302032512  114.189276864     2.3858   5   7   3.6141   3.8815   7.6483  -1.7734  -1.6704  -1.6941   0.00    0.0
2158 455389.000   22.302028529  114.189222189     1.9291   5   7   3.6139   3.8817   7.6477  -1.7733  -1.6692  -1.6933   0.00    0.0
2158 455390.000   22.302024839  114.189170314    -0.6215   5   7   3.6137   3.8818   7.6471  -1.7732  -1.6681  -1.6925   0.00    0.0
2158 455391.000   22.302065612  114.189116628     4.7208   5   6   7.2880   3.9513  13.4371  -2.7939  -3.3041   8.1896   0.00    0.0
2158 455392.000   22.302063595  114.189063910    -0.8962   5   6   7.2888   3.9514  13.4405  -2.7934  -3.3032   8.1923   0.00    0.0
2158 455393.000   22.302087199  114.189003651    -2.6646   5   6   7.2897   3.9515  13.4440  -2.7929  -3.3023   8.1950   0.00    0.0
2158 455394.000   22.302109684  114.188954835    -3.3886   5   6   7.2906   3.9516  13.4474  -2.7925  -3.3014   8.1977   0.00    0.0
2158 455395.000   22.302150856  114.188912499    -0.6762   5   6   7.2915   3.9517  13.4509  -2.7920  -3.3005   8.2004   0.00    0.0
2158 455396.000   22.302179500  114.188873445    -0.5735   5   6   7.2923   3.9518  13.4543  -2.7915  -3.2997   8.2031   0.00    0.0
2158 455397.000   22.302186724  114.188839193    -1.6913   5   6   7.2932   3.9519  13.4578  -2.7911  -3.2988   8.2059   0.00    0.0
2158 455398.000   22.302205385  114.188814169     0.3662   5   6   7.2941   3.9520  13.4612  -2.7906  -3.2979   8.2086   0.00    0.0
2158 455399.000   22.302211753  114.188795616     1.2123   5   6   7.2949   3.9521  13.4647  -2.7901  -3.2970   8.2113   0.00    0.0
2158 455400.000   22.302220159  114.188778227     1.0357   5   6   7.2958   3.9522  13.4682  -2.7896  -3.2961   8.2140   0.00    0.0
2158 455401.000   22.302212199  114.188762159    -0.6804   5   6   7.2967   3.9523  13.4716  -2.7892  -3.2952   8.2167   0.00    0.0
2158 455402.000   22.302204702  114.188746412    -0.4062   5   6   7.2976   3.9524  13.4751  -2.7887  -3.2942   8.2194   0.00    0.0
2158 455403.000   22.302187005  114.188748009    -3.3048   5   6   7.2985   3.9525  13.4785  -2.7882  -3.2933   8.2221   0.00    0.0
2158 455404.000   22.302178098  114.188739786    -2.6649   5   6   7.2993   3.9526  13.4820  -2.7877  -3.2924   8.2248   0.00    0.0
2158 455405.000   22.302175340  114.188733622    -1.6660   5   6   7.3002   3.9527  13.4855  -2.7873  -3.2915   8.2275   0.00    0.0
2158 455406.000   22.302179389  114.188729333     0.3077   5   6   7.3011   3.9528  13.4889  -2.7868  -3.2906   8.2302   0.00    0.0
2158 455407.000   22.302377405  114.188638548    22.5284   5   8   3.5989   3.7000   6.9262  -1.8632  -2.5552  -1.9297   0.00    0.0
2158 455408.000   22.302369161  114.188644632    24.1761   5   8   3.5987   3.7000   6.9258  -1.8631  -2.5548  -1.9290   0.00    0.0
2158 455409.000   22.302412800  114.188640231    31.6393   5   8   3.5985   3.7000   6.9253  -1.8631  -2.5543  -1.9282   0.00    0.0
2158 455410.000   22.302400367  114.188654234    31.6682   5   8   3.5983   3.7000   6.9248  -1.8630  -2.5539  -1.9275   0.00    0.0
2158 455411.000   22.302414594  114.188656427    35.0766   5   8   3.5981   3.7000   6.9243  -1.8629  -2.5534  -1.9267   0.00    0.0
2158 455412.000   22.302221247  114.188735035     9.9362   5   7   5.2926   3.9477   8.3851  -2.9687  -3.6094   3.8275   0.00    0.0
2158 455413.000   22.302227902  114.188736706    11.7833   5   7   5.2926   3.9478   8.3858  -2.9688  -3.6096   3.8290   0.00    0.0
2158 455414.000   22.302239077  114.188739168    14.2297   5   7   5.2925   3.9479   8.3865  -2.9689  -3.6098   3.8305   0.00    0.0
2158 455415.000   22.302257321  114.188740150    18.4274   5   7   5.2925   3.9479   8.3873  -2.9690  -3.6099   3.8320   0.00    0.0
2158 455416.000   22.302262101  114.188740712    19.6553   5   7   5.2925   3.9480   8.3880  -2.9691  -3.6101   3.8335   0.00    0.0
2158 455417.000   22.302273982  114.188742385    22.5283   5   7   5.2924   3.9480   8.3887  -2.9693  -3.6103   3.8350   0.00    0.0
2158 455418.000   22.302286404  114.188743893    25.4548   5   7   5.2924   3.9481   8.3895  -2.9694  -3.6105   3.8365   0.00    0.0
2158 455419.000   22.302292946  114.188746007    27.3718   5   7   5.2924   3.9482   8.3902  -2.9695  -3.6107   3.8380   0.00    0.0
2158 455420.000   22.302303008  114.188747019    29.7397   5   7   5.2924   3.9482   8.3910  -2.9696  -3.6108   3.8395   0.00    0.0
2158 455421.000   22.302322674  114.188748190    34.3436   5   7   5.2923   3.9483   8.3917  -2.9697  -3.6110   3.8410   0.00    0.0
2158 455422.000   22.302330528  114.188749016    35.9580   5   7   5.2923   3.9484   8.3924  -2.9698  -3.6112   3.8425   0.00    0.0
2158 455423.000   22.302347424  114.188748794    39.8058   5   7   5.2923   3.9484   8.3932  -2.9699  -3.6114   3.8439   0.00    0.0
2158 455424.000   22.302358140  114.188748462    42.3263   5   7   5.2922   3.9485   8.3939  -2.9700  -3.6115   3.8454   0.00    0.0
2158 455425.000   22.302367900  114.188749524    44.4131   5   7   5.2922   3.9486   8.3947  -2.9701  -3.6117   3.8469   0.00    0.0
2158 455426.000   22.302375567  114.188747722    46.3228   5   7   5.2922   3.9486   8.3954  -2.9702  -3.6119   3.8484   0.00    0.0
2158 455427.000   22.302385023  114.188746912    48.5786   5   7   5.2921   3.9487   8.3962  -2.9703  -3.6121   3.8499   0.00    0.0
2158 455428.000   22.302387743  114.188745343    49.4268   5   7   5.2921   3.9487   8.3969  -2.9704  -3.6122   3.8514   0.00    0.0
2158 455429.000   22.302384265  114.188743701    48.5365   5   7   5.2921   3.9488   8.3976  -2.9705  -3.6124   3.8529   0.00    0.0
2158 455430.000   22.302656421  114.188636747    85.2068   5   8   3.5939   3.7000   6.9153  -1.8616  -2.5448  -1.9122   0.00    0.0
2158 455431.000   22.302669380  114.188630054    87.0093   5   8   3.5937   3.7001   6.9148  -1.8616  -2.5444  -1.9115   0.00    0.0
2158 455432.000   22.302667033  114.188627412    85.9666   5   8   3.5934   3.7001   6.9143  -1.8615  -2.5439  -1.9107   0.00    0.0
2158 455433.000   22.302675603  114.188620303    86.9006   5   8   3.5932   3.7001   6.9139  -1.8614  -2.5435  -1.9100   0.00    0.0
2158 455434.000   22.302683352  114.188615254    87.8464   5   8   3.5930   3.7001   6.9134  -1.8613  -2.5430  -1.9092   0.00    0.0
2158 455435.000   22.302681516  114.188615376    87.8866   5   8   3.5928   3.7001   6.9129  -1.8613  -2.5426  -1.9084   0.00    0.0
2158 455436.000   22.302689551  114.188609654    88.1664   5   8   3.5925   3.7001   6.9124  -1.8612  -2.5421  -1.9077   0.00    0.0
2158 455437.000   22.302690994  114.188608278    88.3174   5   8   3.5923   3.7001   6.9120  -1.8611  -2.5417  -1.9069   0.00    0.0
2158 455438.000   22.302351999  114.188738952    42.2294   5   7   5.2918   3.9494   8.4044  -2.9714  -3.6140   3.8662   0.00    0.0
2158 455439.000   22.302344976  114.188740421    40.7627   5   7   5.2917   3.9494   8.4051  -2.9715  -3.6141   3.8677   0.00    0.0
2158 455440.000   22.302342123  114.188739913    40.0205   5   7   5.2917   3.9495   8.4059  -2.9716  -3.6143   3.8691   0.00    0.0
2158 455441.000   22.302338347  114.188739066    39.1548   5   7   5.2917   3.9495   8.4066  -2.9717  -3.6145   3.8706   0.00    0.0
2158 455442.000   22.302345411  114.188737667    40.9161   5   7   5.2916   3.9496   8.4074  -2.9718  -3.6146   3.8721   0.00    0.0
2158 455443.000   22.302337983  114.188735305    41.3278   5   7   5.2916   3.9497   8.4081  -2.9719  -3.6148   3.8735   0.00    0.0
2158 455444.000   22.302322579  114.188726965    43.7028   5   7   5.2915   3.9497   8.4089  -2.9720  -3.6150   3.8750   0.00    0.0
2158 455445.000   22.302279163  114.188708604    43.4657   5   7   5.2915   3.9498   8.4096  -2.9721  -3.6151   3.8765   0.00    0.0
2158 455446.000   22.302220438  114.188683813    40.5418   5   7   5.2915   3.9498   8.4104  -2.9722  -3.6153   3.8780   0.00    0.0
2158 455447.000   22.302142544  114.188649736    35.5521   5   7   5.2914   3.9499   8.4111  -2.9723  -3.6155   3.8794   0.00    0.0
2158 455448.000   22.302069165  114.188605502    33.6814   5   7   5.2914   3.9499   8.4119  -2.9724  -3.6156   3.8809   0.00    0.0
2158 455449.000   22.302038591  114.188560832    39.6277   5   7   5.2914   3.9500   8.4126  -2.9724  -3.6158   3.8824   0.00    0.0
2158 455450.000   22.301993826  114.188506750    42.2423   5   7   5.2913   3.9501   8.4134  -2.9725  -3.6160   3.8838   0.00    0.0
2158 455451.000   22.301931379  114.188448848    40.1355   5   7   5.2913   3.9501   8.4141  -2.9726  -3.6161   3.8853   0.00    0.0
2158 455452.000   22.301876422  114.188387522    38.9454   5   7   5.2913   3.9502   8.4149  -2.9727  -3.6163   3.8867   0.00    0.0
2158 455453.000   22.301804751  114.188322303    32.5182   5   7   5.2912   3.9502   8.4156  -2.9728  -3.6164   3.8882   0.00    0.0
2158 455454.000   22.302084908  114.188115795    72.6544   5   8   3.5885   3.7001   6.9040  -1.8599  -2.5339  -1.8939   0.00    0.0
2158 455455.000   22.301983205  114.188117421    58.9631   5   7   3.5884   4.3717   7.0346  -1.8805  -3.0926  -1.8812   0.00    0.0
2158 455456.000   22.301887858  114.188092589    60.8810   5   7   3.5882   4.3718   7.0341  -1.8808  -3.0923  -1.8802   0.00    0.0
2158 455457.000   22.301311297  114.188171325     9.1907   5   7   5.2911   3.9505   8.4186  -2.9732  -3.6171   3.8941   0.00    0.0
2158 455458.000   22.301424454  114.188013623     8.5547   5   6   7.6522   4.7667   8.4204  -4.8566  -3.6665   3.9897   0.00    0.0
2158 455459.000   22.301730291  114.187786704    37.8526   5   7   4.7867   4.0939   7.2028  -3.0016  -1.6730  -3.1786   0.00    0.0
2158 455460.000   22.301691106  114.187742817    34.0479   5   7   4.7861   4.0938   7.2021  -3.0012  -1.6731  -3.1774   0.00    0.0
2158 455461.000   22.301326454  114.187854254    10.1086   5   7   5.2909   3.9507   8.4216  -2.9735  -3.6177   3.8998   0.00    0.0
2158 455462.000   22.301418000  114.187765262    10.6983   5   6   7.6503   4.7661   8.4236  -4.8553  -3.6705   4.0019   0.00    0.0
2158 455463.000   22.301135555  114.187900694     9.7723   5   7   5.2908   3.9508   8.4231  -2.9737  -3.6180   3.9028   0.00    0.0
2158 455464.000   22.301053719  114.187939228     9.6718   5   7   5.2908   3.9508   8.4239  -2.9738  -3.6182   3.9042   0.00    0.0
2158 455465.000   22.301052910  114.187929654    10.3606   5   7   5.2907   3.9509   8.4247  -2.9739  -3.6184   3.9057   0.00    0.0
2158 455466.000   22.301350399  114.187818744    54.1219   5   8   3.5858   3.7002   6.8985  -1.8589  -2.5285  -1.8848   0.00    0.0
2158 455467.000   22.301319119  114.187831818    53.9581   5   8   3.5856   3.7002   6.8980  -1.8588  -2.5280  -1.8840   0.00    0.0
2158 455468.000   22.301308886  114.187833668    52.3806   5   8   3.5853   3.7002   6.8976  -1.8588  -2.5276  -1.8832   0.00    0.0
2158 455469.000   22.301327803  114.187816793    48.5222   5   8   3.5851   3.7002   6.8971  -1.8587  -2.5271  -1.8825   0.00    0.0
2158 455470.000   22.301342568  114.187809561    46.6840   5   8   3.5849   3.7002   6.8966  -1.8586  -2.5267  -1.8817   0.00    0.0
2158 455471.000   22.301345894  114.187804451    44.4187   5   8   3.5847   3.7002   6.8962  -1.8585  -2.5262  -1.8810   0.00    0.0
2158 455472.000   22.301346305  114.187803776    44.8598   5   8   3.5845   3.7002   6.8957  -1.8584  -2.5258  -1.8802   0.00    0.0
2158 455473.000   22.301335587  114.187806658    44.9253   5   8   3.5842   3.7002   6.8953  -1.8583  -2.5253  -1.8794   0.00    0.0
2158 455474.000   22.301613381  114.187638827    28.9825   5   7   4.7778   4.0915   7.1912  -2.9950  -1.6755  -3.1598   0.00    0.0
2158 455475.000   22.301619320  114.187630032    31.4013   5   7   4.7772   4.0914   7.1904  -2.9946  -1.6757  -3.1586   0.00    0.0
2158 455476.000   22.301383325  114.187722543    12.3381   5   6   7.6436   4.7641   8.4349  -4.8509  -3.6845   4.0439   0.00    0.0
2158 455477.000   22.301381991  114.187717856    10.0030   5   6   7.6431   4.7639   8.4357  -4.8505  -3.6855   4.0469   0.00    0.0
2158 455478.000   22.301431651  114.187699645    11.2755   5   6   7.6426   4.7638   8.4365  -4.8502  -3.6865   4.0499   0.00    0.0
2158 455479.000   22.301471355  114.187717727    18.6649   5   6   7.6421   4.7636   8.4374  -4.8499  -3.6875   4.0528   0.00    0.0
2158 455480.000   22.301454712  114.187755000    19.9011   5   6   7.6416   4.7635   8.4382  -4.8495  -3.6885   4.0558   0.00    0.0
2158 455481.000   22.301446183  114.187791953    18.0847   5   6   7.6411   4.7633   8.4390  -4.8492  -3.6895   4.0588   0.00    0.0
2158 455482.000   22.301491880  114.187809347    16.6185   5   6   7.6406   4.7632   8.4398  -4.8489  -3.6905   4.0617   0.00    0.0
2158 455483.000   22.301506968  114.187883573    12.7334   5   5   7.8264   5.9317   8.4542  -5.4322  -3.9139   4.1634   0.00    0.0
2158 455484.000   22.301516594  114.187913285    11.2989   5   6   7.6396   4.7629   8.4415  -4.8482  -3.6925   4.0676   0.00    0.0
2158 455485.000   22.301539068  114.187989277     9.6784   5   6   7.6391   4.7627   8.4423  -4.8479  -3.6935   4.0706   0.00    0.0
2158 455486.000   22.301559061  114.188053707     8.9752   5   6   7.6386   4.7625   8.4431  -4.8475  -3.6944   4.0735   0.00    0.0
2158 455487.000   22.301579973  114.188111666     9.4589   5   6   7.6381   4.7624   8.4439  -4.8472  -3.6954   4.0764   0.00    0.0
2158 455488.000   22.301570302  114.188180942     9.7205   5   6   7.6376   4.7622   8.4448  -4.8469  -3.6964   4.0794   0.00    0.0
2158 455489.000   22.301627805  114.188211493     9.6061   5   5   7.8271   5.9357   8.4598  -5.4371  -3.9250   4.1838   0.00    0.0
2158 455490.000   22.301416497  114.188437469     8.4667   5   6   5.3435   4.4754   8.4514  -2.6951  -3.7246   3.9068   0.00    0.0
2158 455491.000   22.301675391  114.188397817    32.2078   5   7   3.5806   4.3778   7.0176  -1.8902  -3.0802  -1.8464   0.00    0.0
2158 455492.000   22.301624258  114.188476163    29.4820   5   7   3.5804   4.3779   7.0171  -1.8905  -3.0799  -1.8454   0.00    0.0
2158 455493.000   22.301649815  114.188470472    23.9226   5   7   3.5802   4.3781   7.0167  -1.8908  -3.0795  -1.8444   0.00    0.0
2158 455494.000   22.301697716  114.188422300    21.4924   5   8   3.5795   3.7003   6.8857  -1.8565  -2.5159  -1.8635   0.00    0.0
2158 455495.000   22.301802620  114.188345959    15.4760   5   7   4.7652   4.0881   7.1750  -2.9856  -1.6791  -3.1336   0.00    0.0
2158 455496.000   22.301802903  114.188320684    16.1927   5   7   4.7646   4.0880   7.1743  -2.9851  -1.6792  -3.1323   0.00    0.0
2158 455497.000   22.301804036  114.188321567    19.3267   5   7   4.7640   4.0878   7.1735  -2.9847  -1.6794  -3.1310   0.00    0.0
2158 455498.000   22.301793492  114.188333529    20.5130   5   7   4.7634   4.0877   7.1727  -2.9842  -1.6796  -3.1298   0.00    0.0
2158 455499.000   22.301803957  114.188315706    20.0241   5   7   4.7628   4.0875   7.1720  -2.9838  -1.6797  -3.1285   0.00    0.0
2158 455500.000   22.301822499  114.188271195     7.1317   5   6   4.8493   4.5506   8.3015  -3.2757   2.3544  -3.6887   0.00    0.0
2158 455501.000   22.301814397  114.188288175     8.2101   5   6   4.8486   4.5506   8.3003  -3.2753   2.3542  -3.6873   0.00    0.0
2158 455502.000   22.301561698  114.188485595    37.0126   5   7   3.5882   3.9041   7.5811  -1.7614  -1.5340  -1.6057   0.00    0.0
2158 455503.000   22.301559326  114.188483954    36.8574   5   8   3.5775   3.7003   6.8817  -1.8557  -2.5118  -1.8567   0.00    0.0
2158 455504.000   22.301554075  114.188484951    37.2783   5   8   3.5773   3.7003   6.8812  -1.8556  -2.5113  -1.8560   0.00    0.0
2158 455505.000   22.301549259  114.188490039    36.7526   5   8   3.5770   3.7003   6.8808  -1.8556  -2.5109  -1.8552   0.00    0.0
2158 455506.000   22.301545555  114.188483650    36.7989   5   8   3.5768   3.7003   6.8804  -1.8555  -2.5104  -1.8544   0.00    0.0
2158 455507.000   22.301539779  114.188496939    36.4357   5   8   3.5766   3.7003   6.8799  -1.8554  -2.5100  -1.8537   0.00    0.0
2158 455508.000   22.301559424  114.188522295    37.2285   5   7   3.5868   3.9053   7.5778  -1.7607  -1.5265  -1.6010   0.00    0.0
2158 455509.000   22.301564458  114.188503813    36.7961   5   7   3.5866   3.9055   7.5772  -1.7606  -1.5253  -1.6003   0.00    0.0
2158 455510.000   22.301577579  114.188492968    35.6560   5   7   3.5864   3.9057   7.5767  -1.7605  -1.5240  -1.5995   0.00    0.0
2158 455511.000   22.301591547  114.188471333    34.0684   5   7   3.5861   3.9059   7.5761  -1.7604  -1.5228  -1.5987   0.00    0.0
2158 455512.000   22.301597613  114.188462016    33.2522   5   7   3.5859   3.9061   7.5756  -1.7602  -1.5215  -1.5980   0.00    0.0
2158 455513.000   22.301612147  114.188459008    31.4720   5   7   3.5857   3.9063   7.5750  -1.7601  -1.5202  -1.5972   0.00    0.0
2158 455514.000   22.301615210  114.188458010    30.9423   5   7   3.5854   3.9065   7.5744  -1.7600  -1.5190  -1.5964   0.00    0.0
2158 455515.000   22.301612615  114.188456580    31.1938   5   7   3.5852   3.9068   7.5739  -1.7599  -1.5177  -1.5956   0.00    0.0
2158 455516.000   22.301624062  114.188451660    29.8428   5   7   3.5850   3.9070   7.5733  -1.7598  -1.5165  -1.5949   0.00    0.0
2158 455517.000   22.301620910  114.188455599    30.0943   5   7   3.5847   3.9072   7.5728  -1.7596  -1.5152  -1.5941   0.00    0.0
2158 455518.000   22.301624815  114.188454290    29.3352   5   7   3.5845   3.9074   7.5722  -1.7595  -1.5139  -1.5933   0.00    0.0
2158 455519.000   22.301620603  114.188457503    29.4910   5   7   3.5843   3.9076   7.5717  -1.7594  -1.5127  -1.5926   0.00    0.0
2158 455520.000   22.301627065  114.188452953    28.3928   5   7   3.5840   3.9078   7.5711  -1.7593  -1.5114  -1.5918   0.00    0.0
2158 455521.000   22.301622970  114.188457079    28.8283   5   7   3.5838   3.9080   7.5706  -1.7591  -1.5101  -1.5910   0.00    0.0
2158 455522.000   22.301619952  114.188459454    28.5668   5   7   3.5836   3.9082   7.5700  -1.7590  -1.5089  -1.5903   0.00    0.0
2158 455523.000   22.301622916  114.188455654    28.0553   5   7   3.5834   3.9084   7.5695  -1.7589  -1.5076  -1.5895   0.00    0.0
2158 455524.000   22.301610812  114.188469326    29.4987   5   7   3.5831   3.9086   7.5689  -1.7588  -1.5063  -1.5887   0.00    0.0
2158 455525.000   22.301640214  114.188458948    26.6456   5   7   3.5829   3.9088   7.5684  -1.7586  -1.5050  -1.5879   0.00    0.0
2158 455526.000   22.301686872  114.188450595    22.9261   5   7   3.5827   3.9090   7.5678  -1.7585  -1.5038  -1.5872   0.00    0.0
2158 455527.000   22.301698461  114.188481733    24.1252   5   7   3.5824   3.9092   7.5673  -1.7584  -1.5025  -1.5864   0.00    0.0
2158 455528.000   22.301738489  114.188505290    23.4914   5   7   3.5822   3.9094   7.5667  -1.7583  -1.5012  -1.5857   0.00    0.0
2158 455529.000   22.301860345  114.188472808    13.7162   5   7   3.5820   3.9096   7.5662  -1.7581  -1.4999  -1.5849   0.00    0.0
2158 455530.000   22.301947105  114.188458864     7.4377   5   7   3.5817   3.9099   7.5656  -1.7580  -1.4987  -1.5841   0.00    0.0
2158 455531.000   22.302016450  114.188483498     9.0690   5   7   3.5815   3.9101   7.5651  -1.7579  -1.4974  -1.5834   0.00    0.0
2158 455532.000   22.302048952  114.188517014     4.5750   5   6   7.4052   3.9650  13.9327  -2.7102  -3.1496   8.5634   0.00    0.0
2158 455533.000   22.302097847  114.188544180     4.0989   5   6   7.4060   3.9651  13.9363  -2.7095  -3.1483   8.5660   0.00    0.0
2158 455534.000   22.302158410  114.188566663     4.0738   5   6   7.4067   3.9652  13.9398  -2.7087  -3.1470   8.5686   0.00    0.0
2158 455535.000   22.302206159  114.188565888     0.0240   5   6   7.4075   3.9653  13.9434  -2.7080  -3.1456   8.5711   0.00    0.0
2158 455536.000   22.302260907  114.188575584    -0.6271   5   6   7.4083   3.9654  13.9470  -2.7072  -3.1443   8.5737   0.00    0.0
2158 455537.000   22.302285923  114.188588325    -3.1599   5   6   7.4090   3.9655  13.9506  -2.7065  -3.1429   8.5763   0.00    0.0
2158 455538.000   22.302357610  114.188609223     2.7556   5   6   7.4098   3.9656  13.9542  -2.7057  -3.1415   8.5788   0.00    0.0
2158 455539.000   22.302391909  114.188625630     4.4209   5   6   7.4105   3.9657  13.9577  -2.7050  -3.1402   8.5814   0.00    0.0
2158 455540.000   22.302403003  114.188633052     3.7223   5   6   7.4113   3.9658  13.9613  -2.7042  -3.1388   8.5840   0.00    0.0
2158 455541.000   22.302423399  114.188636985     4.0842   5   6   7.4121   3.9659  13.9649  -2.7035  -3.1374   8.5865   0.00    0.0
2158 455542.000   22.302418483  114.188622178    -0.4690   5   6   7.4128   3.9660  13.9685  -2.7027  -3.1360   8.5891   0.00    0.0
2158 455543.000   22.302397727  114.188614346    -4.4429   5   6   7.4136   3.9661  13.9720  -2.7019  -3.1347   8.5917   0.00    0.0
2158 455544.000   22.302416321  114.188613494    -2.7248   5   6   7.4144   3.9662  13.9756  -2.7012  -3.1333   8.5942   0.00    0.0
2158 455545.000   22.302435396  114.188620072     0.2698   5   6   7.4151   3.9663  13.9792  -2.7004  -3.1319   8.5968   0.00    0.0
2158 455546.000   22.302421174  114.188611108    -2.4296   5   6   7.4159   3.9664  13.9828  -2.6996  -3.1305   8.5994   0.00    0.0
2158 455547.000   22.302428085  114.188608509    -2.0111   5   6   7.4167   3.9665  13.9864  -2.6988  -3.1291   8.6019   0.00    0.0
2158 455548.000   22.302434257  114.188607832    -2.3143   5   6   7.4174   3.9666  13.9899  -2.6981  -3.1277   8.6045   0.00    0.0
2158 455549.000   22.302412522  114.188614889    -2.8983   5   6   7.4182   3.9666  13.9935  -2.6973  -3.1263   8.6071   0.00    0.0
2158 455550.000   22.302432979  114.188609996    -1.5485   5   6   7.4189   3.9667  13.9971  -2.6965  -3.1249   8.6096   0.00    0.0
2158 455551.000   22.302427610  114.188610921    -0.7109   5   6   7.4197   3.9668  14.0007  -2.6957  -3.1234   8.6122   0.00    0.0
2158 455552.000   22.302434853  114.188611878     2.1474   5   6   7.4205   3.9669  14.0043  -2.6950  -3.1220   8.6147   0.00    0.0
2158 455553.000   22.302423629  114.188614620     0.8367   5   6   7.4212   3.9670  14.0078  -2.6942  -3.1206   8.6173   0.00    0.0
2158 455554.000   22.302436523  114.188620847     2.9148   5   6   7.4220   3.9671  14.0114  -2.6934  -3.1192   8.6198   0.00    0.0
2158 455555.000   22.302440810  114.188623135     0.9140   5   6   7.4227   3.9672  14.0150  -2.6926  -3.1177   8.6224   0.00    0.0
2158 455558.000   22.302402703  114.188566532   -15.4372   5   5   9.1846   4.7619  14.0279  -4.6339  -3.2155   8.7066   0.00    0.0
2158 455559.000   22.302441160  114.188604800    -4.5712   5   5   9.1851   4.7617  14.0316  -4.6331  -3.2155   8.7101   0.00    0.0
2158 455560.000   22.302914953  114.189235411   171.3695   5   5  14.0548   6.7186  25.6762   7.5808  10.3395  18.1973   0.00    0.0
2158 455561.000   22.302951496  114.189278119   176.2286   5   5  14.0518   6.7200  25.6789   7.5809  10.3419  18.1964   0.00    0.0
2158 455562.000   22.302907018  114.189257008   161.0636   5   5  14.0489   6.7213  25.6816   7.5811  10.3442  18.1956   0.00    0.0
2158 455563.000   22.301954011  114.188873913    18.3866   5   5   8.3051   4.3607  15.0544  -3.7324   0.3979   7.3866   0.00    0.0
2158 455564.000   22.301710708  114.188692891  -125.7608   5   7   5.2846   3.9554   8.5020  -2.9786  -3.6325   4.0431   0.00    0.0
2158 455565.000   22.302631043  114.188890926    60.6385   5   5  14.0403   6.7256  25.6897   7.5818  10.3516  18.1933   0.00    0.0
2158 455570.000   22.302581024  114.188711330    20.0483   5   8   3.5622   3.7005   6.8525  -1.8490  -2.4813  -1.8063   0.00    0.0
2158 455571.000   22.302679938  114.188676623    21.5344   5   8   3.5620   3.7005   6.8521  -1.8489  -2.4808  -1.8055   0.00    0.0
2158 455572.000   22.302745418  114.188562723    -0.0172   5   7   3.5719   3.9187   7.5431  -1.7525  -1.4439  -1.5520   0.00    0.0
2158 455573.000   22.302790160  114.188521095    -1.2658   5   7   3.5717   3.9189   7.5425  -1.7524  -1.4426  -1.5512   0.00    0.0
2158 455574.000   22.302858662  114.188471730    -3.8863   5   7   3.5714   3.9191   7.5420  -1.7522  -1.4413  -1.5505   0.00    0.0
2158 455575.000   22.302925961  114.188433847    -3.9304   5   6   3.5712   5.0450   7.5416  -1.7412  -1.4890  -1.5499   0.00    0.0
2158 455576.000   22.302991927  114.188367053    -3.2231   5   5   4.3511  17.4082  14.1391   6.1957 -14.1943  -5.6686   0.00    0.0
2158 455577.000   22.303032960  114.188233334     4.8349   5   5   4.3507  17.4055  14.1345   6.1944 -14.1899  -5.6668   0.00    0.0
2158 455578.000   22.303098715  114.188129690    11.0593   5   5   4.3502  17.4028  14.1300   6.1931 -14.1855  -5.6651   0.00    0.0
2158 455579.000   22.303228440  114.188487304    22.8402   5   7   3.7747   6.9354   9.5690   1.9855  -6.7332  -3.4090   0.00    0.0
2158 455580.000   22.303209223  114.188149872     0.8389   5   6   3.8022   7.2682   9.8164   2.2225  -6.3665  -3.2580   0.00    0.0
2158 455581.000   22.303253296  114.188050434     2.4502   5   5  10.8372  13.0530  33.7151 -10.2516 -19.7546  17.7967   0.00    0.0
2158 455582.000   22.303326615  114.187947040     5.4180   5   6   3.8020   7.2665   9.8135   2.2232  -6.3632  -3.2575   0.00    0.0
2158 455583.000   22.303362567  114.187846374     1.3155   5   5  10.8348  13.0407  33.7082 -10.2433 -19.7406  17.7926   0.00    0.0
2158 455584.000   22.303454421  114.187726874    15.5520   5   6   3.8019   7.2648   9.8106   2.2240  -6.3599  -3.2570   0.00    0.0
2158 455585.000   22.303530863  114.187629016    17.6866   5   5  10.8323  13.0283  33.7013 -10.2350 -19.7266  17.7886   0.00    0.0
2158 455586.000   22.303598567  114.187578244    15.6271   5   5  10.8311  13.0222  33.6979 -10.2308 -19.7196  17.7865   0.00    0.0
2158 455587.000   22.303747271  114.186826487   110.6482   5   5  13.9746   6.7569  25.7477   7.5862  10.4050  18.1737   0.00    0.0
2158 455588.000   22.303203448  114.186629253    11.0203   5   4  20.0561   7.8073  34.2277  10.6676  14.0162  25.5872   0.00    0.0
2158 455590.000   22.303337075  114.186521030     9.1440   5   5  13.9660   6.7613  25.7557   7.5870  10.4124  18.1712   0.00    0.0
2158 455591.000   22.303999029  114.186907115    90.4076   5   6   7.4489   3.9707  14.1445  -2.6621  -3.0627   8.7131   0.00    0.0
2158 455592.000   22.303887056  114.186818499    37.6507   5   5  13.9598   6.7640  25.7609   7.5871  10.4170  18.1692   0.00    0.0
2158 455593.000   22.304127627  114.186686852    98.1628   5   6   7.4503   3.9709  14.1517  -2.6603  -3.0594   8.7181   0.00    0.0
2158 455594.000   22.304022212  114.186486287    71.8108   5   5  13.9537   6.7670  25.7660   7.5876  10.4219  18.1673   0.00    0.0
2158 455595.000   22.304259118  114.186467354   112.3004   5   6   7.4517   3.9711  14.1589  -2.6585  -3.0561   8.7231   0.00    0.0
2158 455596.000   22.304056398  114.186852764    -1.3826   5   5  10.8188  12.9609  33.6637 -10.1893 -19.6498  17.7665   0.00    0.0
2158 455597.000   22.304068535  114.186772380    -4.0053   5   5  10.8176  12.9548  33.6603 -10.1852 -19.6428  17.7646   0.00    0.0
2158 455598.000   22.304154702  114.186688392     6.0799   5   5  10.8164  12.9487  33.6569 -10.1810 -19.6358  17.7625   0.00    0.0
2158 455599.000   22.304180955  114.186616612    15.2876   5   5  10.8152  12.9426  33.6534 -10.1769 -19.6288  17.7605   0.00    0.0
2158 455600.000   22.304181871  114.186696603    -1.0506   5   5  10.8140  12.9366  33.6501 -10.1728 -19.6220  17.7586   0.00    0.0
2158 455601.000   22.304222026  114.186655174    -1.6107   5   5  10.8128  12.9305  33.6467 -10.1687 -19.6150  17.7566   0.00    0.0
2158 455602.000   22.304230471  114.186639842     3.2682   5   5  10.8116  12.9244  33.6433 -10.1646 -19.6081  17.7546   0.00    0.0
2158 455603.000   22.304257912  114.186612220     1.9809   5   5  10.8103  12.9184  33.6399 -10.1604 -19.6011  17.7526   0.00    0.0
2158 455604.000   22.304284483  114.186587204     1.7465   5   5  10.8091  12.9123  33.6365 -10.1563 -19.5942  17.7506   0.00    0.0
2158 455605.000   22.304308956  114.186573505    -0.1183   5   5  10.8079  12.9063  33.6331 -10.1522 -19.5873  17.7486   0.00    0.0
2158 455606.000   22.304320348  114.186532790     5.6555   5   5  10.8067  12.9002  33.6297 -10.1481 -19.5803  17.7466   0.00    0.0
2158 455607.000   22.304685689  114.185899988   160.8341   5   6   7.4601   3.9723  14.2022  -2.6475  -3.0362   8.7529   0.00    0.0
2158 455608.000   22.304355658  114.186460582    11.5215   5   5  10.8043  12.8881  33.6229 -10.1398 -19.5664  17.7427   0.00    0.0
2158 455609.000   22.304368760  114.186436760    11.8283   5   5  10.8031  12.8820  33.6195 -10.1357 -19.5595  17.7407   0.00    0.0
2158 455610.000   22.304382375  114.186412111    13.9555   5   5  10.8018  12.8760  33.6162 -10.1316 -19.5526  17.7387   0.00    0.0
2158 455611.000   22.304384995  114.186388758    14.9959   5   5  10.8006  12.8699  33.6128 -10.1275 -19.5457  17.7367   0.00    0.0
2158 455612.000   22.304389885  114.186366247    16.3531   5   5  10.7994  12.8639  33.6094 -10.1233 -19.5387  17.7348   0.00    0.0
2158 455613.000   22.304398174  114.186355235    17.1320   5   5  10.7982  12.8579  33.6061 -10.1192 -19.5318  17.7328   0.00    0.0
2158 455614.000   22.304404662  114.186364221    14.6292   5   5  10.7970  12.8519  33.6027 -10.1151 -19.5249  17.7308   0.00    0.0
2158 455615.000   22.304406293  114.186365025    14.0512   5   5  10.7958  12.8459  33.5993 -10.1110 -19.5180  17.7289   0.00    0.0
2158 455616.000   22.304407053  114.186351834    15.6788   5   5  10.7946  12.8399  33.5960 -10.1069 -19.5111  17.7269   0.00    0.0
2158 455617.000   22.304405473  114.186344638    16.7690   5   5  10.7934  12.8339  33.5926 -10.1028 -19.5042  17.7249   0.00    0.0
2158 455618.000   22.304410787  114.186316856    22.7226   5   5  10.7922  12.8278  33.5893 -10.0987 -19.4973  17.7229   0.00    0.0
2158 455619.000   22.304413116  114.186315551    22.6367   5   5  10.7910  12.8218  33.5859 -10.0946 -19.4904  17.7210   0.00    0.0
2158 455620.000   22.304415262  114.186307869    23.7713   5   5  10.7898  12.8158  33.5826 -10.0905 -19.4835  17.7190   0.00    0.0
2158 455621.000   22.304418912  114.186297652    26.3770   5   5  10.7885  12.8098  33.5792 -10.0863 -19.4766  17.7170   0.00    0.0
2158 455622.000   22.304425522  114.186304649    25.5095   5   5  10.7873  12.8039  33.5759 -10.0822 -19.4697  17.7150   0.00    0.0
2158 455623.000   22.304429845  114.186322053    22.5574   5   5  10.7861  12.7979  33.5726 -10.0781 -19.4628  17.7131   0.00    0.0
2158 455624.000   22.304432080  114.186324495    21.8497   5   5  10.7849  12.7919  33.5692 -10.0740 -19.4559  17.7111   0.00    0.0
2158 455625.000   22.304429487  114.186348595    15.8638   5   5  10.7837  12.7859  33.5659 -10.0699 -19.4491  17.7092   0.00    0.0
2158 455626.000   22.304433878  114.186363572    12.2238   5   5  10.7825  12.7800  33.5626 -10.0658 -19.4422  17.7072   0.00    0.0
2158 455627.000   22.304434444  114.186361952    11.5203   5   5  10.7813  12.7740  33.5593 -10.0617 -19.4353  17.7052   0.00    0.0
2158 455628.000   22.304435569  114.186369113     9.7159   5   5  10.7801  12.7680  33.5560 -10.0576 -19.4284  17.7033   0.00    0.0
2158 455629.000   22.304439464  114.186371185     9.1023   5   5  10.7788  12.7621  33.5526 -10.0535 -19.4215  17.7013   0.00    0.0
2158 455630.000   22.304444251  114.186362242     9.5562   5   5  10.7776  12.7561  33.5493 -10.0494 -19.4147  17.6993   0.00    0.0
2158 455631.000   22.304455217  114.186353965     7.9565   5   5  10.7764  12.7501  33.5460 -10.0453 -19.4078  17.6973   0.00    0.0
2158 455632.000   22.304471060  114.186341952     5.1041   5   5  10.7752  12.7442  33.5427 -10.0412 -19.4009  17.6954   0.00    0.0
2158 455633.000   22.304497615  114.186304570     6.5481   5   5  10.7739  12.7382  33.5394 -10.0370 -19.3940  17.6934   0.00    0.0
2158 455634.000   22.304547282  114.186282527    10.1006   5   5  10.7727  12.7322  33.5361 -10.0329 -19.3871  17.6914   0.00    0.0
2158 455635.000   22.304579269  114.186211812    13.8889   5   5  10.7714  12.7263  33.5328 -10.0288 -19.3802  17.6894   0.00    0.0
2158 455636.000   22.304621872  114.186167882    14.2592   5   5  10.7702  12.7203  33.5296 -10.0246 -19.3733  17.6874   0.00    0.0
2158 455637.000   22.304640979  114.186079803    16.0753   5   5  10.7689  12.7143  33.5263 -10.0205 -19.3664  17.6854   0.00    0.0
2158 455638.000   22.304595483  114.185930745     6.1890   5   4  14.1592  17.3765  34.8470   2.9388 -16.1877  20.0046   0.00    0.0
2158 455639.000   22.304693183  114.186026804     4.4675   5   4  14.1557  17.3735  34.8435   2.9478 -16.1794  20.0016   0.00    0.0
2158 455640.000   22.304729360  114.186008956     3.0653   5   4  14.1522  17.3703  34.8401   2.9568 -16.1710  19.9987   0.00    0.0
2158 455641.000   22.304757595  114.185955831     3.8806   5   4  14.1488  17.3672  34.8367   2.9658 -16.1626  19.9958   0.00    0.0
2158 455642.000   22.304876938  114.186017344    21.6209   5   5  10.7626  12.6846  33.5099  -9.9998 -19.3321  17.6754   0.00    0.0
2158 455643.000   22.304673734  114.185580324    11.6663   5   4  14.1420  17.3609  34.8298   2.9842 -16.1457  19.9900   0.00    0.0
2158 455644.000   22.304924386  114.185843579    43.6012   5   5  10.7601  12.6726  33.5033  -9.9915 -19.3183  17.6714   0.00    0.0
2158 455645.000   22.304921634  114.185813607    48.5171   5   5  10.7589  12.6667  33.5001  -9.9874 -19.3114  17.6694   0.00    0.0
2158 455646.000   22.304927787  114.185858198    50.0258   5   5  10.7577  12.6608  33.4968  -9.9833 -19.3046  17.6675   0.00    0.0
2158 455647.000   22.304935669  114.185894358    46.9038   5   5  10.7564  12.6549  33.4935  -9.9792 -19.2977  17.6655   0.00    0.0
2158 455648.000   22.304941104  114.185899877    51.8134   5   5  10.7552  12.6490  33.4903  -9.9751 -19.2909  17.6635   0.00    0.0
2158 455649.000   22.304957745  114.185908979    63.1293   5   5  10.7539  12.6431  33.4870  -9.9710 -19.2840  17.6615   0.00    0.0
2158 455650.000   22.304961194  114.185869925    81.5874   5   5  10.7527  12.6372  33.4837  -9.9668 -19.2771  17.6595   0.00    0.0
2158 455651.000   22.305018723  114.185810573   105.8838   5   5  10.7514  12.6313  33.4804  -9.9627 -19.2702  17.6575   0.00    0.0
2158 455652.000   22.305057401  114.185902063    97.2273   5   5  10.7502  12.6254  33.4772  -9.9586 -19.2635  17.6555   0.00    0.0
2158 455653.000   22.305162691  114.185903760   121.9637   5   5  10.7488  12.6195  33.4739  -9.9544 -19.2566  17.6535   0.00    0.0
2158 455654.000   22.305154754  114.186057235    90.9224   5   5  10.7476  12.6137  33.4707  -9.9504 -19.2499  17.6516   0.00    0.0
2158 455655.000   22.305281079  114.186231947    91.6294   5   5  10.7463  12.6080  33.4674  -9.9463 -19.2431  17.6495   0.00    0.0
2158 455656.000   22.305336059  114.186284721    91.2662   5   5  10.7451  12.6021  33.4642  -9.9421 -19.2363  17.6475   0.00    0.0
2158 455657.000   22.305337174  114.186229150    95.1579   5   5  10.7438  12.5962  33.4610  -9.9380 -19.2295  17.6455   0.00    0.0
2158 455658.000   22.305359756  114.186162197   110.1316   5   5  10.7425  12.5903  33.4577  -9.9339 -19.2226  17.6435   0.00    0.0
2158 455659.000   22.305377365  114.186197672   109.6118   5   5  10.7413  12.5844  33.4545  -9.9298 -19.2158  17.6416   0.00    0.0
2158 455660.000   22.305418137  114.186183430   119.7619   5   5  10.7400  12.5785  33.4513  -9.9256 -19.2089  17.6396   0.00    0.0
2158 455661.000   22.305394347  114.186161574   117.7717   5   5  10.7388  12.5727  33.4481  -9.9215 -19.2021  17.6376   0.00    0.0
2158 455662.000   22.305375627  114.186126761   117.6909   5   5  10.7376  12.5668  33.4448  -9.9174 -19.1952  17.6357   0.00    0.0
2158 455663.000   22.305405751  114.186075699   127.5943   5   5  10.7363  12.5609  33.4416  -9.9133 -19.1884  17.6337   0.00    0.0
2158 455664.000   22.305417488  114.186047809   134.0969   5   5  10.7350  12.5550  33.4384  -9.9091 -19.1815  17.6317   0.00    0.0
2158 455665.000   22.305393998  114.185979772   133.6387   5   5  10.7338  12.5491  33.4352  -9.9050 -19.1747  17.6297   0.00    0.0
2158 455666.000   22.305374887  114.185922501   129.8904   5   5  10.7326  12.5433  33.4320  -9.9009 -19.1679  17.6278   0.00    0.0
2158 455667.000   22.305339849  114.185888865   132.1105   5   5  10.7313  12.5374  33.4288  -9.8968 -19.1610  17.6258   0.00    0.0
2158 455668.000   22.305322255  114.185839693   130.3297   5   5  10.7301  12.5315  33.4256  -9.8927 -19.1542  17.6239   0.00    0.0
2158 455669.000   22.305376743  114.185782848   140.2018   5   5  10.7288  12.5256  33.4224  -9.8885 -19.1473  17.6219   0.00    0.0
2158 455670.000   22.305954939  114.186474402   209.0499   5   4  14.0482  17.2786  34.7379   3.2112 -15.9208  19.9109   0.00    0.0
2158 455671.000   22.305907250  114.186304056   202.2952   5   4  14.0448  17.2755  34.7346   3.2193 -15.9124  19.9081   0.00    0.0
2158 455672.000   22.305910462  114.186205643   197.8327   5   4  14.0413  17.2725  34.7312   3.2274 -15.9040  19.9052   0.00    0.0
2158 455673.000   22.305694327  114.185669801   195.4700   5   6   7.5045   3.9791  14.4412  -2.5817  -2.9157   8.9142   0.00    0.0
2158 455674.000   22.305736379  114.185747092   195.7163   5   6   7.5051   3.9792  14.4448  -2.5806  -2.9138   8.9166   0.00    0.0
2158 455675.000   22.305731057  114.185771222   195.0083   5   6   7.5057   3.9793  14.4484  -2.5795  -2.9118   8.9190   0.00    0.0
2158 455676.000   22.305724338  114.185814812   193.7152   5   6   7.5064   3.9794  14.4521  -2.5784  -2.9098   8.9214   0.00    0.0
2158 455677.000   22.305888832  114.185744914   186.6123   5   4  14.2788   5.3466  16.4790  -6.8883  -5.4452  12.9995   0.00    0.0
2158 455678.000   22.305920897  114.185757320   187.3797   5   4  14.2779   5.3454  16.4858  -6.8856  -5.4449  13.0044   0.00    0.0
2158 455679.000   22.305974181  114.185784903   188.3639   5   4  14.2771   5.3442  16.4926  -6.8829  -5.4445  13.0093   0.00    0.0
2158 455681.000   22.305638342  114.185077033     2.3793   5   4  19.5800   7.9915  34.4922  10.6949  14.3084  25.3850   0.00    0.0
2158 455682.000   22.305708761  114.185146121    11.1518   5   4  19.5749   7.9935  34.4949  10.6952  14.3116  25.3828   0.00    0.0
2158 455685.000   22.306149697  114.185792891    33.3240   5   4  13.9966  17.2335  34.6886   3.3291 -15.7959  19.8677   0.00    0.0
2158 455686.000   22.306176284  114.185787247    35.6284   5   4  13.9931  17.2306  34.6853   3.3367 -15.7876  19.8647   0.00    0.0
2158 455687.000   22.306168249  114.185708233    33.7998   5   4  13.9897  17.2276  34.6821   3.3444 -15.7793  19.8619   0.00    0.0
2158 455688.000   22.306179128  114.185657249    38.8656   5   4  13.9862  17.2246  34.6788   3.3520 -15.7709  19.8590   0.00    0.0
2158 455689.000   22.306141600  114.185521999    38.8940   5   4  13.9828  17.2216  34.6755   3.3597 -15.7626  19.8561   0.00    0.0
2158 455690.000   22.306332381  114.185722935    65.3694   5   5  10.7018  12.4038  33.3565  -9.8018 -19.0048  17.5801   0.00    0.0
2158 455691.000   22.306226775  114.185517966    59.1293   5   5  10.7006  12.3979  33.3534  -9.7977 -18.9979  17.5782   0.00    0.0
2158 455692.000   22.306080026  114.185293250    48.3539   5   5  10.6994  12.3920  33.3504  -9.7935 -18.9910  17.5763   0.00    0.0
2158 455693.000   22.306072860  114.185246124    51.0366   5   5  10.6981  12.3862  33.3472  -9.7894 -18.9842  17.5743   0.00    0.0
2158 455694.000   22.306075865  114.185208883    55.4783   5   5  10.6969  12.3804  33.3441  -9.7853 -18.9774  17.5724   0.00    0.0
2158 455695.000   22.306074934  114.185170541    58.7163   5   5  10.6956  12.3746  33.3410  -9.7812 -18.9706  17.5704   0.00    0.0
2158 455696.000   22.306078390  114.185113251    65.5608   5   5  10.6943  12.3688  33.3379  -9.7770 -18.9638  17.5684   0.00    0.0
2158 455697.000   22.306081405  114.185038857    77.5905   5   5  10.6930  12.3630  33.3348  -9.7729 -18.9570  17.5664   0.00    0.0
2158 455698.000   22.306196377  114.185118703    89.9538   5   4  13.9518  17.1949  34.6459   3.4269 -15.6876  19.8300   0.00    0.0
2158 455699.000   22.306279779  114.185194623    88.4528   5   4  13.9483  17.1920  34.6426   3.4341 -15.6793  19.8271   0.00    0.0
2158 455700.000   22.306277744  114.185103877    82.7924   5   4  13.9449  17.1890  34.6394   3.4414 -15.6710  19.8242   0.00    0.0
2158 455701.000   22.306290354  114.185041982    77.8423   5   4  13.9415  17.1861  34.6362   3.4488 -15.6626  19.8213   0.00    0.0
2158 455702.000   22.306353569  114.185096716    80.4514   5   4  13.9380  17.1832  34.6329   3.4559 -15.6544  19.8184   0.00    0.0
2158 455703.000   22.306326142  114.185008402    72.2324   5   5  10.6852  12.3286  33.3163  -9.7481 -18.9165  17.5545   0.00    0.0
2158 455704.000   22.306306160  114.184925105    71.5795   5   5  10.6839  12.3228  33.3132  -9.7440 -18.9097  17.5525   0.00    0.0
2158 455705.000   22.306376415  114.185011821    77.8928   5   4  13.9277  17.1744  34.6232   3.4776 -15.6295  19.8097   0.00    0.0
2158 455706.000   22.306302110  114.184886179    64.9238   5   5  10.6814  12.3113  33.3070  -9.7357 -18.8962  17.5486   0.00    0.0
2158 455707.000   22.306302886  114.184882112    58.7675   5   5  10.6801  12.3056  33.3040  -9.7316 -18.8894  17.5466   0.00    0.0
2158 455708.000   22.306296023  114.184859634    58.0788   5   5  10.6788  12.2999  33.3009  -9.7275 -18.8827  17.5447   0.00    0.0
2158 455709.000   22.306287001  114.184841764    51.5274   5   5  10.6776  12.2942  33.2979  -9.7234 -18.8759  17.5427   0.00    0.0
2158 455710.000   22.306305487  114.184864754    48.1036   5   5  10.6763  12.2885  33.2948  -9.7193 -18.8692  17.5408   0.00    0.0
2158 455711.000   22.306478794  114.184561466   121.8788   5   6   7.5279   3.9832  14.5793  -2.5383  -2.8353   9.0044   0.00    0.0
2158 455712.000   22.306498221  114.184561136   123.6134   5   6   7.5285   3.9833  14.5829  -2.5372  -2.8331   9.0067   0.00    0.0
2158 455713.000   22.306496367  114.184560149   124.0165   5   6   7.5291   3.9834  14.5866  -2.5360  -2.8309   9.0091   0.00    0.0
2158 455714.000   22.306511096  114.184566354   123.4241   5   6   7.5297   3.9835  14.5902  -2.5348  -2.8286   9.0114   0.00    0.0
2158 455715.000   22.306521269  114.184572157   121.4746   5   6   7.5303   3.9836  14.5939  -2.5336  -2.8264   9.0138   0.00    0.0
2158 455716.000   22.306528970  114.184567331   123.1186   5   6   7.5308   3.9838  14.5975  -2.5324  -2.8242   9.0161   0.00    0.0
2158 455717.000   22.306536121  114.184557148   125.6074   5   6   7.5314   3.9839  14.6011  -2.5312  -2.8219   9.0184   0.00    0.0
2158 455718.000   22.306317965  114.184926793    28.8768   5   5  10.6660  12.2430  33.2705  -9.6864 -18.8153  17.5250   0.00    0.0
2158 455719.000   22.306316994  114.184921819    30.6336   5   5  10.6647  12.2373  33.2674  -9.6823 -18.8086  17.5231   0.00    0.0
2158 455720.000   22.306315392  114.184918821    32.1807   5   5  10.6634  12.2316  33.2644  -9.6781 -18.8019  17.5211   0.00    0.0
2158 455721.000   22.306318140  114.184940556    28.6749   5   5  10.6621  12.2259  33.2613  -9.6740 -18.7952  17.5191   0.00    0.0
2158 455722.000   22.306314412  114.184948738    28.6237   5   5  10.6608  12.2203  33.2583  -9.6699 -18.7884  17.5172   0.00    0.0
2158 455723.000   22.306309948  114.184953100    28.9410   5   5  10.6595  12.2146  33.2553  -9.6658 -18.7817  17.5152   0.00    0.0
2158 455724.000   22.306324839  114.184962927    24.2248   5   5  10.6582  12.2089  33.2523  -9.6617 -18.7750  17.5132   0.00    0.0
2158 455725.000   22.306327738  114.184941779    26.1203   5   5  10.6569  12.2033  33.2493  -9.6576 -18.7683  17.5113   0.00    0.0
2158 455726.000   22.306339028  114.184911973    28.9458   5   5  10.6556  12.1976  33.2462  -9.6534 -18.7615  17.5093   0.00    0.0
2158 455727.000   22.306527631  114.184779615    64.3679   5   6   5.4819   9.3615  15.4284  -4.6640 -11.0341   6.1230   0.00    0.0
2158 455728.000   22.306594019  114.184759310    60.6798   5   6   5.4816   9.3595  15.4281  -4.6630 -11.0325   6.1230   0.00    0.0
2158 455729.000   22.306672359  114.184738517    60.0768   5   6   5.4812   9.3576  15.4279  -4.6619 -11.0310   6.1229   0.00    0.0
2158 455730.000   22.306697300  114.184685566    64.7543   5   6   5.4809   9.3557  15.4276  -4.6609 -11.0294   6.1229   0.00    0.0
2158 455731.000   22.306712473  114.184702585    60.9962   5   7   5.2656   3.9582   8.6397  -2.9721  -3.6459   4.2501   0.00    0.0
2158 455732.000   22.306783469  114.184649579    69.4770   5   7   5.2654   3.9582   8.6406  -2.9720  -3.6460   4.2513   0.00    0.0
2158 455733.000   22.306829948  114.184644578    72.0155   5   7   5.2653   3.9582   8.6414  -2.9719  -3.6460   4.2524   0.00    0.0
2158 455734.000   22.306889331  114.184542945    91.2301   5   6   5.4795   9.3479  15.4265  -4.6567 -11.0231   6.1227   0.00    0.0
2158 455735.000   22.306932293  114.184520293    96.4000   5   6   5.4792   9.3460  15.4262  -4.6556 -11.0215   6.1226   0.00    0.0
2158 455736.000   22.306942128  114.184521539    96.4163   5   6   5.4789   9.3441  15.4260  -4.6546 -11.0200   6.1226   0.00    0.0
2158 455737.000   22.306955787  114.184482835   100.9914   5   6   5.4785   9.3422  15.4257  -4.6536 -11.0184   6.1226   0.00    0.0
2158 455738.000   22.306937352  114.184620610    83.8114   5   7   5.2646   3.9582   8.6457  -2.9714  -3.6462   4.2582   0.00    0.0
2158 455739.000   22.306927731  114.184626179    84.5246   5   7   5.2644   3.9582   8.6465  -2.9713  -3.6462   4.2593   0.00    0.0
2158 455740.000   22.306923269  114.184650206    81.8637   5   7   5.2643   3.9582   8.6473  -2.9712  -3.6463   4.2605   0.00    0.0
2158 455741.000   22.306927087  114.184685927    79.5560   5   7   5.2641   3.9582   8.6482  -2.9712  -3.6463   4.2616   0.00    0.0
2158 455742.000   22.306951440  114.184805416    76.3519   5   6   5.2780   4.5447   8.6665  -2.8230  -3.8110   4.2379   0.00    0.0
2158 455743.000   22.306975409  114.184827401    76.8422   5   6   5.2778   4.5450   8.6674  -2.8234  -3.8113   4.2391   0.00    0.0
2158 455744.000   22.306973258  114.184735383    84.0658   5   7   5.2637   3.9582   8.6507  -2.9709  -3.6464   4.2651   0.00    0.0
2158 455745.000   22.306978610  114.184741927    88.6135   5   7   5.2636   3.9582   8.6516  -2.9708  -3.6465   4.2662   0.00    0.0
2158 455746.000   22.307003591  114.184756563    94.4981   5   7   5.2634   3.9582   8.6524  -2.9707  -3.6465   4.2673   0.00    0.0
2158 455747.000   22.307024048  114.184766843    98.7323   5   7   5.2633   3.9582   8.6533  -2.9706  -3.6465   4.2685   0.00    0.0
2158 455748.000   22.307024093  114.184766035   100.1071   5   7   5.2631   3.9582   8.6541  -2.9705  -3.6466   4.2696   0.00    0.0
2158 455749.000   22.307012025  114.184767008   100.3029   5   7   5.2630   3.9582   8.6550  -2.9704  -3.6466   4.2708   0.00    0.0
2158 455750.000   22.307004207  114.184763741   100.0355   5   7   5.2628   3.9582   8.6558  -2.9703  -3.6466   4.2719   0.00    0.0
2158 455751.000   22.306660150  114.184723153    15.0343   5   6   7.5510   3.9878  14.7247  -2.4887  -2.7417   9.0972   0.00    0.0
2158 455752.000   22.306654597  114.184699418    11.2940   5   6   7.5516   3.9880  14.7284  -2.4874  -2.7392   9.0995   0.00    0.0
2158 455753.000   22.306517019  114.184614019   -19.1547   5   5  13.4717   7.0099  26.1377   7.6244  10.8156  17.9917   0.00    0.0
2158 455754.000   22.306612114  114.184670899     1.9814   5   6   7.5527   3.9882  14.7356  -2.4848  -2.7342   9.1041   0.00    0.0
2158 455755.000   22.306611410  114.184660675     0.0077   5   6   7.5533   3.9883  14.7393  -2.4835  -2.7317   9.1063   0.00    0.0
2158 455756.000   22.306597328  114.184660680    -0.9403   5   6   7.5538   3.9884  14.7429  -2.4822  -2.7292   9.1086   0.00    0.0
2158 455757.000   22.307110207  114.184621253   109.0830   5   7   3.5274   3.9599   7.4534  -1.7232  -1.1696  -1.4118   0.00    0.0
2158 455758.000   22.307099111  114.184627554   110.6977   5   7   3.5271   3.9602   7.4530  -1.7231  -1.1680  -1.4111   0.00    0.0
2158 455759.000   22.307084739  114.184630330   110.7737   5   7   3.5269   3.9604   7.4526  -1.7229  -1.1663  -1.4103   0.00    0.0
2158 455760.000   22.307069860  114.184623989   108.7217   5   7   3.5266   3.9606   7.4521  -1.7227  -1.1646  -1.4095   0.00    0.0
2158 455761.000   22.307054167  114.184622654   108.0654   5   7   3.5264   3.9609   7.4517  -1.7225  -1.1629  -1.4088   0.00    0.0
2158 455762.000   22.307050587  114.184627100   108.9012   5   7   3.5261   3.9611   7.4512  -1.7224  -1.1613  -1.4080   0.00    0.0
2158 455763.000   22.307044009  114.184627482   109.3642   5   7   3.5259   3.9614   7.4508  -1.7222  -1.1596  -1.4073   0.00    0.0
2158 455764.000   22.307039682  114.184621733   107.9509   5   7   3.5256   3.9616   7.4503  -1.7220  -1.1579  -1.4065   0.00    0.0
2158 455765.000   22.306487846  114.184652642    -9.7656   5   6   7.5588   3.9895  14.7756  -2.4703  -2.7064   9.1291   0.00    0.0
2158 455766.000   22.306484802  114.184648152   -10.3731   5   6   7.5593   3.9897  14.7792  -2.4689  -2.7038   9.1314   0.00    0.0
2158 455767.000   22.306511935  114.184671777    -2.7048   5   5  13.4286   7.0328  26.1666   7.6282  10.8511  17.9735   0.00    0.0
2158 455768.000   22.306454979  114.184648576   -12.9595   5   6   7.5604   3.9899  14.7865  -2.4662  -2.6986   9.1359   0.00    0.0
2158 455769.000   22.306440501  114.184647563   -14.2145   5   6   7.5609   3.9900  14.7901  -2.4649  -2.6960   9.1382   0.00    0.0
2158 455770.000   22.306529679  114.184691200     4.5497   5   5  13.4194   7.0378  26.1727   7.6290  10.8588  17.9696   0.00    0.0
2158 455771.000   22.306529338  114.184689659     4.1583   5   5  13.4163   7.0394  26.1747   7.6292  10.8613  17.9683   0.00    0.0
2158 455772.000   22.306556093  114.184726357    13.8706   5   5  13.4132   7.0410  26.1767   7.6295  10.8638  17.9669   0.00    0.0
2158 455773.000   22.306572881  114.184748611    19.8054   5   5  13.4101   7.0427  26.1788   7.6298  10.8664  17.9656   0.00    0.0
2158 455774.000   22.306591220  114.184778720    27.1206   5   5  13.4070   7.0443  26.1808   7.6300  10.8689  17.9643   0.00    0.0
2158 455775.000   22.306363285  114.184659185   -20.9002   5   6   7.5642   3.9908  14.8119  -2.4567  -2.6803   9.1517   0.00    0.0
2158 455776.000   22.306348630  114.184656672   -23.4733   5   6   7.5647   3.9909  14.8155  -2.4554  -2.6776   9.1540   0.00    0.0
2158 455777.000   22.306350496  114.184652868   -23.7497   5   6   7.5652   3.9910  14.8191  -2.4540  -2.6750   9.1563   0.00    0.0
2158 455778.000   22.306418715  114.184673511   -11.9600   5   6   7.5657   3.9912  14.8227  -2.4526  -2.6723   9.1585   0.00    0.0
2158 455779.000   22.306476377  114.184682114    -3.8750   5   6   7.5662   3.9913  14.8264  -2.4512  -2.6697   9.1607   0.00    0.0
2158 455780.000   22.306530774  114.184682188     2.3300   5   6   7.5667   3.9914  14.8300  -2.4498  -2.6670   9.1629   0.00    0.0
2158 455781.000   22.306572473  114.184692878     9.0666   5   6   7.5672   3.9915  14.8336  -2.4484  -2.6643   9.1652   0.00    0.0
2158 455782.000   22.306589612  114.184693399    11.0671   5   6   7.5678   3.9917  14.8372  -2.4470  -2.6616   9.1674   0.00    0.0
2158 455783.000   22.306612582  114.184697813    14.1038   5   6   7.5683   3.9918  14.8409  -2.4457  -2.6589   9.1696   0.00    0.0
2158 455784.000   22.306603902  114.184707093    13.7207   5   6   7.5688   3.9919  14.8445  -2.4443  -2.6562   9.1719   0.00    0.0
2158 455785.000   22.306617300  114.184710125    15.5339   5   6   7.5693   3.9920  14.8481  -2.4429  -2.6535   9.1741   0.00    0.0
2158 455786.000   22.306624588  114.184710876    16.2123   5   6   7.5698   3.9922  14.8517  -2.4415  -2.6508   9.1763   0.00    0.0
2158 455787.000   22.306428699  114.184593728   -27.5916   5   5  13.3670   7.0660  26.2069   7.6338  10.9023  17.9469   0.00    0.0
2158 455788.000   22.306408966  114.184582100   -32.6841   5   5  13.3639   7.0677  26.2089   7.6340  10.9048  17.9456   0.00    0.0
2158 455789.000   22.306382753  114.184571600   -38.2613   5   5  13.3608   7.0694  26.2108   7.6343  10.9074  17.9443   0.00    0.0
2158 455790.000   22.306342062  114.184550585   -47.2468   5   5  13.3577   7.0711  26.2128   7.6346  10.9100  17.9429   0.00    0.0
2158 455791.000   22.306295100  114.184525433   -57.8789   5   5  13.3547   7.0728  26.2148   7.6349  10.9126  17.9416   0.00    0.0
2158 455792.000   22.306283100  114.184520815   -60.4945   5   5  13.3516   7.0744  26.2168   7.6352  10.9151  17.9402   0.00    0.0
