% program   : RTKPOST demo5 b34k
% inp file  : C:\Users\user\Desktop\AAE6102_Laboratory-main\AAE6102_Laboratory-main\GNSS Data\UrbanNav - Medium\20210521.medium-urban.whampoa.ublox.f9p.obs
% inp file  : C:\Users\user\Desktop\AAE6102_Laboratory-main\AAE6102_Laboratory-main\GNSS Data\UrbanNav - Medium\hksc141g.21o
% inp file  : C:\Users\user\Desktop\AAE6102_Laboratory-main\AAE6102_Laboratory-main\GNSS Data\UrbanNav - Medium\hksc141g.21n
% obs start : 2021/05/21 06:29:02.0 GPST (week2158 455342.0s)
% obs end   : 2021/05/21 06:54:39.0 GPST (week2158 456879.0s)
% pos mode  : DGPS
% freqs     : L1
% solution  : Forward
% elev mask : 15.0 deg
% dynamics  : on
% tidecorr  : off
% ionos opt : Broadcast
% tropo opt : Saastamoinen
% ephemeris : Broadcast
% navi sys  : GPS GLONASS Galileo QZSS BDS NavIC SBAS
% antenna1  :                       ( 0.0000  0.0000  0.0000)
% antenna2  :                       ( 0.0000  0.0000  0.0000)
% ref pos   : 22.322172082  114.141187963    20.2386
%
% (lat/lon/height=WGS84/ellipsoidal,Q=1:fix,2:float,3:sbas,4:dgps,5:single,6:ppp,ns=# of satellites)
%  GPST          latitude(deg) longitude(deg)  height(m)   Q  ns   sdn(m)   sde(m)   sdu(m)  sdne(m)  sdeu(m)  sdun(m) age(s)  ratio
2158 455342.000   22.301566268  114.190307521     3.8167   4   7   2.2156   2.2834   4.5165  -1.0873  -1.1561   1.0954   0.00    0.0
2158 455343.000   22.301566672  114.190307314     3.8672   4   7   2.1674   2.2311   4.2161  -1.0404  -1.0576   1.0035   0.00    0.0
2158 455344.000   22.301567435  114.190308474     4.0495   4   7   2.1762   2.2410   4.3197  -1.0520  -1.0932   1.0384   0.00    0.0
2158 455345.000   22.301568548  114.190306363     3.8880   4   7   2.1571   2.2226   4.3462  -1.0520  -1.1082   1.0539   0.00    0.0
2158 455346.000   22.301567534  114.190306079     3.6441   4   7   2.1200   2.1837   4.2462  -1.0289  -1.0859   1.0339   0.00    0.0
2158 455347.000   22.301567835  114.190306379     3.6449   4   7   2.1049   2.1673   4.1182  -1.0127  -1.0537   1.0045   0.00    0.0
2158 455348.000   22.301568178  114.190304647     3.7680   4   7   2.1029   2.1649   4.0012  -1.0085  -1.0230   0.9764   0.00    0.0
2158 455349.000   22.301567357  114.190296404     3.7237   4   7   2.1022   2.1642   3.9137  -1.0072  -0.9994   0.9551   0.00    0.0
2158 455350.000   22.301567568  114.190284880     3.6447   4   7   2.1016   2.1636   3.8620  -1.0060  -0.9852   0.9428   0.00    0.0
2158 455351.000   22.301570743  114.190272512     3.6284   4   7   2.1014   2.1635   3.8403  -1.0056  -0.9791   0.9381   0.00    0.0
2158 455352.000   22.301580144  114.190262356     3.5541   4   7   2.1014   2.1635   3.8351  -1.0055  -0.9774   0.9376   0.00    0.0
2158 455353.000   22.301592124  114.190255588     3.4346   4   7   2.1014   2.1636   3.8348  -1.0054  -0.9769   0.9384   0.00    0.0
2158 455354.000   22.301605240  114.190247648     3.2267   4   7   2.1014   2.1637   3.8345  -1.0054  -0.9765   0.9391   0.00    0.0
2158 455355.000   22.301618362  114.190240037     3.0997   4   8   2.0712   2.1140   3.6109  -1.0839  -1.2438   0.6523   0.00    0.0
2158 455356.000   22.301631369  114.190233310     2.8211   4   8   2.0700   2.1135   3.5644  -1.0855  -1.2542   0.6217   0.00    0.0
2158 455357.000   22.301645223  114.190222932     1.7517   4   8   2.0699   2.1127   3.5603  -1.0860  -1.2502   0.6248   0.00    0.0
2158 455358.000   22.301678786  114.190203623     2.5837   4   8   2.0698   2.1125   3.5598  -1.0863  -1.2507   0.6252   0.00    0.0
2158 455359.000   22.301706189  114.190190380     1.8249   4   8   2.0698   2.1125   3.5576  -1.0863  -1.2502   0.6259   0.00    0.0
2158 455360.000   22.301747083  114.190163663     2.9292   4   8   2.0698   2.1124   3.5558  -1.0864  -1.2491   0.6270   0.00    0.0
2158 455361.000   22.301791765  114.190147041     3.5159   4   8   2.0698   2.1124   3.5550  -1.0864  -1.2486   0.6280   0.00    0.0
2158 455362.000   22.301838466  114.190129559     3.9557   4   8   2.0698   2.1125   3.5548  -1.0865  -1.2485   0.6290   0.00    0.0
2158 455363.000   22.301891348  114.190109354     4.1502   4   8   2.0698   2.1125   3.5547  -1.0865  -1.2485   0.6301   0.00    0.0
2158 455364.000   22.301945596  114.190085741     4.2722   4   8   2.0698   2.1125   3.5545  -1.0866  -1.2484   0.6311   0.00    0.0
2158 455365.000   22.301995191  114.190057060     2.6012   4   7   2.0991   2.1620   3.7621  -1.0101  -0.9959   0.9112   0.00    0.0
2158 455366.000   22.302044983  114.190023894     2.2263   4   7   2.1016   2.1640   3.8203  -1.0055  -0.9649   0.9481   0.00    0.0
2158 455367.000   22.302095128  114.189998543     2.1496   4   7   2.1016   2.1646   3.8273  -1.0054  -0.9702   0.9484   0.00    0.0
2158 455368.000   22.302138465  114.189971121     2.8553   4   7   2.1017   2.1651   3.8274  -1.0050  -0.9695   0.9494   0.00    0.0
2158 455369.000   22.302185568  114.189944165     3.3679   4   7   2.1017   2.1652   3.8293  -1.0049  -0.9691   0.9508   0.00    0.0
2158 455370.000   22.302224245  114.189926889     2.5295   4   7   2.1017   2.1653   3.8315  -1.0049  -0.9698   0.9519   0.00    0.0
2158 455371.000   22.302263017  114.189887967     1.4630   4   6   2.1032   3.3029   4.4804  -0.9030  -2.5940   0.8526   0.00    0.0
2158 455372.000   22.302272167  114.189832325     3.1564   4   6   2.1033   3.6015   4.8285  -0.9179  -3.0516   0.8733   0.00    0.0
2158 455373.000   22.302286894  114.189778232     3.2320   4   6   2.1039   3.6203   4.9071  -0.9272  -3.1041   0.8974   0.00    0.0
2158 455374.000   22.302283822  114.189735810     4.0119   4   6   2.1040   3.6207   4.9117  -0.9259  -3.1005   0.9007   0.00    0.0
2158 455375.000   22.302266448  114.189669892     5.8780   4   6   2.1041   3.6245   4.9140  -0.9262  -3.1042   0.9019   0.00    0.0
2158 455376.000   22.302246592  114.189624313     7.0754   4   6   2.1042   3.6268   4.9229  -0.9272  -3.1103   0.9053   0.00    0.0
2158 455377.000   22.302224492  114.189593036     7.6218   4   6   2.1042   3.6273   4.9311  -0.9275  -3.1138   0.9081   0.00    0.0
2158 455378.000   22.302215235  114.189580217     5.6379   4   6   2.1043   3.6272   4.9349  -0.9274  -3.1148   0.9095   0.00    0.0
2158 455379.000   22.302202061  114.189560389     3.2949   4   6   2.1043   3.6267   4.9355  -0.9272  -3.1144   0.9102   0.00    0.0
2158 455380.000   22.302171234  114.189516614     4.0821   4   6   2.1043   3.6262   4.9352  -0.9269  -3.1136   0.9108   0.00    0.0
2158 455381.000   22.302154784  114.189548289    -2.5187   4   7   2.1035   2.2171   3.9894  -1.0166  -1.1647   1.0039   0.00    0.0
2158 455382.000   22.302140947  114.189505276    -2.3607   4   7   2.1026   2.1759   3.8600  -1.0034  -0.9623   0.9731   0.00    0.0
2158 455383.000   22.302122066  114.189443375     1.4109   4   7   2.1023   2.1718   3.8539  -1.0057  -0.9777   0.9702   0.00    0.0
2158 455384.000   22.302098173  114.189395407     3.9976   4   7   2.1023   2.1674   3.8514  -1.0048  -0.9671   0.9701   0.00    0.0
2158 455385.000   22.302074669  114.189375665     3.5996   4   7   2.1022   2.1672   3.8434  -1.0043  -0.9622   0.9674   0.00    0.0
2158 455386.000   22.302052293  114.189345227     3.3574   4   7   2.1021   2.1672   3.8374  -1.0044  -0.9640   0.9662   0.00    0.0
2158 455387.000   22.302036339  114.189302711     3.8058   4   7   2.1021   2.1672   3.8354  -1.0045  -0.9651   0.9666   0.00    0.0
2158 455388.000   22.302012253  114.189256978     1.5395   4   7   2.1021   2.1673   3.8353  -1.0044  -0.9649   0.9675   0.00    0.0
2158 455389.000   22.302005581  114.189202873    -0.0384   4   7   2.1021   2.1674   3.8353  -1.0044  -0.9646   0.9682   0.00    0.0
2158 455390.000   22.302006525  114.189149864    -2.3873   4   7   2.1022   2.1675   3.8350  -1.0044  -0.9642   0.9690   0.00    0.0
2158 455391.000   22.302044008  114.189097236     0.6401   4   6   2.9344   2.1774   4.8685  -1.1958  -1.2434   2.6611   0.00    0.0
2158 455392.000   22.302070063  114.189041858     1.1984   4   6   3.1879   2.1857   5.4385  -1.2905  -1.4156   3.1786   0.00    0.0
2158 455393.000   22.302101948  114.188980666     0.8999   4   6   3.2157   2.1882   5.5870  -1.3069  -1.4605   3.2627   0.00    0.0
2158 455394.000   22.302121749  114.188929704     0.1209   4   6   3.2159   2.1884   5.6019  -1.3070  -1.4635   3.2651   0.00    0.0
2158 455395.000   22.302153216  114.188888722     1.2806   4   6   3.2178   2.1885   5.6046  -1.3077  -1.4641   3.2682   0.00    0.0
2158 455396.000   22.302187871  114.188851336     1.8997   4   6   3.2205   2.1889   5.6182  -1.3091  -1.4679   3.2764   0.00    0.0
2158 455397.000   22.302198028  114.188816749     1.3954   4   6   3.2228   2.1891   5.6336  -1.3102  -1.4714   3.2845   0.00    0.0
2158 455398.000   22.302209875  114.188791198     2.3885   4   6   3.2243   2.1893   5.6434  -1.3108  -1.4732   3.2898   0.00    0.0
2158 455399.000   22.302214319  114.188772930     3.4785   4   6   3.2250   2.1894   5.6474  -1.3109  -1.4737   3.2923   0.00    0.0
2158 455400.000   22.302224702  114.188756428     3.8193   4   6   3.2252   2.1895   5.6488  -1.3109  -1.4735   3.2934   0.00    0.0
2158 455401.000   22.302218975  114.188739899     2.5892   4   6   3.2254   2.1896   5.6499  -1.3108  -1.4733   3.2944   0.00    0.0
2158 455402.000   22.302207853  114.188724266     1.9314   4   6   3.2256   2.1897   5.6515  -1.3107  -1.4732   3.2956   0.00    0.0
2158 455403.000   22.302191291  114.188723483    -0.1605   4   6   3.2260   2.1898   5.6534  -1.3107  -1.4731   3.2969   0.00    0.0
2158 455404.000   22.302178256  114.188718603    -0.8895   4   6   3.2263   2.1899   5.6550  -1.3107  -1.4731   3.2982   0.00    0.0
2158 455405.000   22.302173685  114.188712670    -0.4252   4   6   3.2265   2.1900   5.6564  -1.3106  -1.4729   3.2992   0.00    0.0
2158 455406.000   22.302176965  114.188708087     1.2293   4   6   3.2267   2.1901   5.6576  -1.3105  -1.4727   3.3002   0.00    0.0
2158 455407.000   22.302139791  114.188702394    -7.2619   4   7   2.8105   2.1759   4.6104  -1.4537  -1.7286   2.3865   0.00    0.0
2158 455408.000   22.302141446  114.188701865    -7.4375   4   7   2.7685   2.1742   4.4140  -1.4392  -1.6949   2.2479   0.00    0.0
2158 455409.000   22.302152085  114.188708770    -5.2503   4   7   2.7675   2.1716   4.3959  -1.4367  -1.6823   2.2420   0.00    0.0
2158 455410.000   22.302168348  114.188711324    -1.5529   4   7   2.7666   2.1716   4.3952  -1.4373  -1.6830   2.2411   0.00    0.0
2158 455411.000   22.302182305  114.188711304     2.2044   4   7   2.7652   2.1712   4.3865  -1.4362  -1.6798   2.2362   0.00    0.0
2158 455412.000   22.302191149  114.188710402     4.8038   4   7   2.7643   2.1706   4.3777  -1.4350  -1.6754   2.2324   0.00    0.0
2158 455413.000   22.302195708  114.188710992     6.5284   4   7   2.7638   2.1704   4.3735  -1.4344  -1.6733   2.2308   0.00    0.0
2158 455414.000   22.302201773  114.188713904     7.9892   4   7   2.7637   2.1704   4.3727  -1.4344  -1.6730   2.2307   0.00    0.0
2158 455415.000   22.302212041  114.188716408    10.1721   4   7   2.7636   2.1704   4.3729  -1.4345  -1.6731   2.2311   0.00    0.0
2158 455416.000   22.302216998  114.188717133    11.3906   4   7   2.7634   2.1705   4.3729  -1.4345  -1.6731   2.2314   0.00    0.0
2158 455417.000   22.302222787  114.188719017    12.7965   4   7   2.7633   2.1705   4.3726  -1.4345  -1.6729   2.2315   0.00    0.0
2158 455418.000   22.302230368  114.188721249    14.6169   4   7   2.7631   2.1706   4.3723  -1.4345  -1.6729   2.2317   0.00    0.0
2158 455419.000   22.302235168  114.188723250    16.1528   4   7   2.7630   2.1706   4.3723  -1.4345  -1.6729   2.2320   0.00    0.0
2158 455420.000   22.302241380  114.188724428    17.8256   4   7   2.7629   2.1707   4.3724  -1.4346  -1.6730   2.2323   0.00    0.0
2158 455421.000   22.302253470  114.188726225    20.6509   4   7   2.7628   2.1707   4.3726  -1.4346  -1.6730   2.2327   0.00    0.0
2158 455422.000   22.302261364  114.188726499    22.4843   4   7   2.7627   2.1708   4.3728  -1.4347  -1.6731   2.2331   0.00    0.0
2158 455423.000   22.302272147  114.188726438    24.9055   4   7   2.7626   2.1708   4.3730  -1.4348  -1.6732   2.2335   0.00    0.0
2158 455424.000   22.302280341  114.188725932    26.9577   4   7   2.7625   2.1709   4.3731  -1.4348  -1.6733   2.2338   0.00    0.0
2158 455425.000   22.302286921  114.188726731    28.6140   4   7   2.7624   2.1710   4.3733  -1.4349  -1.6734   2.2342   0.00    0.0
2158 455426.000   22.302292078  114.188725612    29.9708   4   7   2.7623   2.1710   4.3735  -1.4349  -1.6735   2.2346   0.00    0.0
2158 455427.000   22.302297962  114.188724822    31.3616   4   7   2.7622   2.1711   4.3737  -1.4350  -1.6736   2.2350   0.00    0.0
2158 455428.000   22.302300435  114.188723264    32.1014   4   7   2.7621   2.1711   4.3739  -1.4350  -1.6737   2.2354   0.00    0.0
2158 455429.000   22.302299802  114.188721210    31.9661   4   7   2.7620   2.1712   4.3741  -1.4351  -1.6738   2.2358   0.00    0.0
2158 455430.000   22.302295669  114.188720368    31.1850   4   7   2.7619   2.1713   4.3743  -1.4352  -1.6739   2.2361   0.00    0.0
2158 455431.000   22.302292877  114.188720324    30.6274   4   7   2.7618   2.1713   4.3745  -1.4352  -1.6740   2.2365   0.00    0.0
2158 455432.000   22.302288673  114.188719623    29.5295   4   7   2.7617   2.1714   4.3747  -1.4353  -1.6741   2.2369   0.00    0.0
2158 455433.000   22.302285542  114.188717691    28.7550   4   7   2.7616   2.1714   4.3749  -1.4353  -1.6742   2.2373   0.00    0.0
2158 455434.000   22.302283557  114.188716715    28.3520   4   7   2.7615   2.1715   4.3751  -1.4354  -1.6743   2.2377   0.00    0.0
2158 455435.000   22.302283334  114.188716169    28.5507   4   7   2.7614   2.1715   4.3753  -1.4354  -1.6744   2.2381   0.00    0.0
2158 455436.000   22.302280379  114.188715569    27.9986   4   7   2.7613   2.1716   4.3755  -1.4355  -1.6745   2.2385   0.00    0.0
2158 455437.000   22.302279227  114.188715049    27.8383   4   7   2.7612   2.1717   4.3757  -1.4356  -1.6746   2.2388   0.00    0.0
2158 455438.000   22.302279221  114.188716315    27.9404   4   7   2.7611   2.1717   4.3759  -1.4356  -1.6747   2.2392   0.00    0.0
2158 455439.000   22.302275425  114.188717331    27.2902   4   7   2.7610   2.1718   4.3761  -1.4357  -1.6748   2.2396   0.00    0.0
2158 455440.000   22.302272781  114.188716998    26.6516   4   7   2.7609   2.1718   4.3763  -1.4357  -1.6749   2.2400   0.00    0.0
2158 455441.000   22.302270309  114.188716154    25.9279   4   7   2.7608   2.1719   4.3764  -1.4358  -1.6750   2.2404   0.00    0.0
2158 455442.000   22.302273536  114.188715485    26.5696   4   7   2.7607   2.1720   4.3766  -1.4358  -1.6751   2.2407   0.00    0.0
2158 455443.000   22.302267340  114.188712955    27.1033   4   7   2.7606   2.1720   4.3768  -1.4359  -1.6752   2.2411   0.00    0.0
2158 455444.000   22.302249045  114.188705279    28.6467   4   7   2.7605   2.1721   4.3770  -1.4359  -1.6753   2.2415   0.00    0.0
2158 455445.000   22.302210831  114.188686115    30.1941   4   7   2.7604   2.1721   4.3772  -1.4360  -1.6754   2.2419   0.00    0.0
2158 455446.000   22.302155447  114.188659274    28.8839   4   7   2.7603   2.1722   4.3774  -1.4360  -1.6755   2.2423   0.00    0.0
2158 455447.000   22.302083587  114.188624716    25.0817   4   7   2.7602   2.1722   4.3776  -1.4361  -1.6756   2.2426   0.00    0.0
2158 455448.000   22.302011438  114.188581602    23.0250   4   7   2.7600   2.1723   4.3778  -1.4362  -1.6757   2.2430   0.00    0.0
2158 455449.000   22.301962314  114.188539704    24.3781   4   7   2.7599   2.1724   4.3780  -1.4362  -1.6758   2.2434   0.00    0.0
2158 455450.000   22.301918068  114.188487051    26.8337   4   7   2.7598   2.1724   4.3782  -1.4363  -1.6759   2.2438   0.00    0.0
2158 455451.000   22.301864469  114.188426637    27.0327   4   7   2.7597   2.1725   4.3784  -1.4363  -1.6759   2.2442   0.00    0.0
2158 455452.000   22.301811408  114.188363774    26.5639   4   7   2.7596   2.1725   4.3786  -1.4364  -1.6760   2.2445   0.00    0.0
2158 455453.000   22.301751639  114.188297148    23.1242   4   7   2.7595   2.1726   4.3788  -1.4364  -1.6761   2.2449   0.00    0.0
2158 455454.000   22.301682529  114.188229292    16.7071   4   7   2.7594   2.1726   4.3790  -1.4365  -1.6762   2.2453   0.00    0.0
2158 455455.000   22.301609493  114.188163284    10.2255   4   6   2.8841   2.5026   4.4560  -1.0108  -1.3368   2.3946   0.00    0.0
2158 455456.000   22.301511473  114.188141895     8.5265   4   6   2.9024   2.5301   4.4825  -0.9490  -1.2679   2.4279   0.00    0.0
2158 455457.000   22.301354365  114.188135674     8.4104   4   7   2.7678   2.1832   4.3999  -1.4221  -1.6574   2.2659   0.00    0.0
2158 455458.000   22.301340646  114.188020551     5.4646   4   6   3.2128   2.4005   4.3936  -1.9302  -1.5808   2.1253   0.00    0.0
2158 455459.000   22.301304500  114.187926414     3.0236   4   6   3.2695   2.4255   4.3958  -1.9864  -1.5554   2.1008   0.00    0.0
2158 455460.000   22.301339177  114.187850003     3.4909   4   6   3.2693   2.4243   4.3971  -1.9873  -1.5572   2.1019   0.00    0.0
2158 455461.000   22.301319079  114.187820469     5.0550   4   7   2.7856   2.1855   4.3838  -1.4675  -1.6700   2.2379   0.00    0.0
2158 455462.000   22.301369519  114.187751013     5.0966   4   6   3.2235   2.4021   4.3929  -1.9420  -1.5777   2.1273   0.00    0.0
2158 455463.000   22.301392181  114.187727817     6.0145   4   6   3.2751   2.4270   4.3962  -1.9931  -1.5566   2.1021   0.00    0.0
2158 455464.000   22.301385533  114.187727465     6.0952   4   6   3.2703   2.4248   4.3966  -1.9885  -1.5579   2.1040   0.00    0.0
2158 455465.000   22.301383017  114.187720493     6.2610   4   6   3.2740   2.4267   4.3967  -1.9923  -1.5587   2.1053   0.00    0.0
2158 455466.000   22.301387602  114.187718309     6.9950   4   6   3.2757   2.4275   4.3968  -1.9940  -1.5585   2.1053   0.00    0.0
2158 455467.000   22.301402220  114.187709316     6.5973   4   6   3.2754   2.4274   4.3970  -1.9938  -1.5587   2.1057   0.00    0.0
2158 455468.000   22.301387979  114.187711489     3.9868   4   6   3.2753   2.4275   4.3972  -1.9938  -1.5592   2.1066   0.00    0.0
2158 455469.000   22.301377018  114.187712514     2.3203   4   6   3.2754   2.4276   4.3973  -1.9940  -1.5596   2.1074   0.00    0.0
2158 455470.000   22.301378644  114.187713853     2.7344   4   6   3.2754   2.4276   4.3974  -1.9941  -1.5600   2.1081   0.00    0.0
2158 455471.000   22.301375901  114.187715160     1.9285   4   6   3.2753   2.4277   4.3975  -1.9941  -1.5604   2.1088   0.00    0.0
2158 455472.000   22.301366512  114.187717787    -0.3009   4   6   3.2753   2.4277   4.3977  -1.9942  -1.5608   2.1096   0.00    0.0
2158 455473.000   22.301369689  114.187714479     0.5565   4   6   3.2752   2.4277   4.3978  -1.9942  -1.5612   2.1103   0.00    0.0
2158 455474.000   22.301364831  114.187714082     3.6513   4   6   3.2751   2.4277   4.3979  -1.9942  -1.5616   2.1110   0.00    0.0
2158 455475.000   22.301349970  114.187715336     5.1726   4   6   3.2751   2.4278   4.3980  -1.9942  -1.5619   2.1118   0.00    0.0
2158 455476.000   22.301356761  114.187700928     6.9880   4   6   3.2750   2.4278   4.3982  -1.9942  -1.5623   2.1125   0.00    0.0
2158 455477.000   22.301363839  114.187691435     5.4543   4   6   3.2749   2.4278   4.3983  -1.9942  -1.5627   2.1132   0.00    0.0
2158 455478.000   22.301403153  114.187676568     5.9383   4   6   3.2748   2.4278   4.3984  -1.9943  -1.5631   2.1139   0.00    0.0
2158 455479.000   22.301434598  114.187692591     9.5947   4   6   3.2748   2.4279   4.3986  -1.9943  -1.5635   2.1147   0.00    0.0
2158 455480.000   22.301412905  114.187730764    12.4690   4   6   3.2747   2.4279   4.3987  -1.9943  -1.5638   2.1154   0.00    0.0
2158 455481.000   22.301386938  114.187772354    12.4949   4   6   3.2746   2.4279   4.3988  -1.9943  -1.5642   2.1161   0.00    0.0
2158 455482.000   22.301424926  114.187794645    10.1973   4   6   3.2745   2.4279   4.3990  -1.9943  -1.5646   2.1169   0.00    0.0
2158 455483.000   22.301484394  114.187833428     8.0383   4   5   3.2805   2.9907   4.5089  -1.9054  -0.8497   2.1635   0.00    0.0
2158 455484.000   22.301494535  114.187886681     6.0840   4   6   3.2745   2.4493   4.4201  -1.9916  -1.5206   2.1217   0.00    0.0
2158 455485.000   22.301526614  114.187961681     6.0525   4   6   3.2743   2.4301   4.4020  -1.9946  -1.5707   2.1193   0.00    0.0
2158 455486.000   22.301550223  114.188029859     6.2997   4   6   3.2743   2.4307   4.3995  -1.9949  -1.5659   2.1197   0.00    0.0
2158 455487.000   22.301566541  114.188088571     6.9338   4   6   3.2742   2.4282   4.4002  -1.9945  -1.5659   2.1203   0.00    0.0
2158 455488.000   22.301547422  114.188155148     7.3885   4   6   3.2741   2.4282   4.4005  -1.9944  -1.5676   2.1213   0.00    0.0
2158 455489.000   22.301591031  114.188173284     6.3035   4   5   3.2796   2.9924   4.5088  -1.9090  -0.8599   2.1660   0.00    0.0
2158 455490.000   22.301659569  114.188190313     5.8251   4   5   3.2801   3.0587   4.5487  -1.8986  -0.5984   2.1753   0.00    0.0
2158 455491.000   22.301809040  114.188205401    16.4425   4   6   2.5317   3.0564   3.8094  -1.8294  -0.2357  -0.6866   0.00    0.0
2158 455492.000   22.301815647  114.188240697    17.5360   4   6   2.5113   3.0605   3.6969  -1.8238   0.1084  -0.8743   0.00    0.0
2158 455493.000   22.301801903  114.188263829    14.0077   4   6   2.5083   3.0623   3.6909  -1.8255   0.1442  -0.8582   0.00    0.0
2158 455494.000   22.301700707  114.188399344    17.4624   4   8   2.0893   2.1545   3.5789  -1.1249  -1.2190   0.6932   0.00    0.0
2158 455495.000   22.301750330  114.188348230    13.8527   4   7   2.4340   2.3141   3.6360  -1.5398  -0.9321  -0.6364   0.00    0.0
2158 455496.000   22.301785984  114.188284265    10.1443   4   7   2.4667   2.3263   3.6543  -1.5739  -0.8596  -0.7616   0.00    0.0
2158 455497.000   22.301800640  114.188265570     9.9116   4   7   2.4632   2.3215   3.6547  -1.5687  -0.8674  -0.7499   0.00    0.0
2158 455498.000   22.301795786  114.188276004    10.7958   4   7   2.4654   2.3229   3.6533  -1.5715  -0.8689  -0.7463   0.00    0.0
2158 455499.000   22.301793183  114.188270411    11.1306   4   7   2.4661   2.3231   3.6530  -1.5722  -0.8662  -0.7487   0.00    0.0
2158 455500.000   22.301786006  114.188260960     6.9665   4   6   2.4680   2.4260   3.9407  -1.5493   0.5332  -0.6410   0.00    0.0
2158 455501.000   22.301783263  114.188271142     5.5541   4   6   2.4680   2.4346   4.0271  -1.5497   0.6728  -0.6426   0.00    0.0
2158 455502.000   22.301783220  114.188277586     5.2971   4   6   2.4682   2.4349   4.0385  -1.5496   0.6670  -0.6465   0.00    0.0
2158 455503.000   22.301788183  114.188298771    10.6611   4   7   2.4662   2.3273   3.7226  -1.5722  -0.8240  -0.7556   0.00    0.0
2158 455504.000   22.301788734  114.188297846    13.1506   4   7   2.4661   2.3241   3.6603  -1.5715  -0.8726  -0.7460   0.00    0.0
2158 455505.000   22.301786570  114.188298870    13.7992   4   7   2.4660   2.3235   3.6574  -1.5718  -0.8675  -0.7422   0.00    0.0
2158 455506.000   22.301788018  114.188288372    13.0347   4   7   2.4660   2.3230   3.6582  -1.5718  -0.8703  -0.7411   0.00    0.0
2158 455507.000   22.301788160  114.188298061    12.4071   4   7   2.4659   2.3230   3.6554  -1.5717  -0.8712  -0.7383   0.00    0.0
2158 455508.000   22.301781835  114.188319210    10.0212   4   6   2.4679   2.4267   3.9411  -1.5489   0.5306  -0.6254   0.00    0.0
2158 455509.000   22.301782487  114.188305658     7.7529   4   6   2.4679   2.4354   4.0267  -1.5493   0.6730  -0.6274   0.00    0.0
2158 455510.000   22.301785385  114.188296911     6.8615   4   6   2.4680   2.4356   4.0383  -1.5490   0.6677  -0.6320   0.00    0.0
2158 455511.000   22.301789570  114.188281335     6.0802   4   6   2.4680   2.4363   4.0384  -1.5488   0.6680  -0.6301   0.00    0.0
2158 455512.000   22.301791324  114.188273468     5.7856   4   6   2.4680   2.4364   4.0407  -1.5488   0.6704  -0.6293   0.00    0.0
2158 455513.000   22.301789098  114.188283878     6.4357   4   6   2.4680   2.4365   4.0436  -1.5487   0.6702  -0.6288   0.00    0.0
2158 455514.000   22.301786594  114.188290688     7.1401   4   6   2.4680   2.4366   4.0451  -1.5486   0.6697  -0.6272   0.00    0.0
2158 455515.000   22.301785648  114.188287718     7.3645   4   6   2.4680   2.4367   4.0455  -1.5486   0.6696  -0.6253   0.00    0.0
2158 455516.000   22.301785707  114.188290059     7.6835   4   6   2.4679   2.4368   4.0454  -1.5485   0.6697  -0.6234   0.00    0.0
2158 455517.000   22.301785330  114.188292857     7.8075   4   6   2.4679   2.4369   4.0455  -1.5484   0.6697  -0.6216   0.00    0.0
2158 455518.000   22.301785493  114.188294507     7.5623   4   6   2.4679   2.4370   4.0456  -1.5483   0.6698  -0.6197   0.00    0.0
2158 455519.000   22.301783723  114.188295758     7.2710   4   6   2.4679   2.4371   4.0457  -1.5483   0.6700  -0.6178   0.00    0.0
2158 455520.000   22.301781221  114.188298038     7.0203   4   6   2.4678   2.4371   4.0457  -1.5482   0.6701  -0.6159   0.00    0.0
2158 455521.000   22.301780868  114.188299013     6.8564   4   6   2.4678   2.4372   4.0457  -1.5481   0.6702  -0.6140   0.00    0.0
2158 455522.000   22.301780081  114.188299825     6.4301   4   6   2.4678   2.4373   4.0457  -1.5480   0.6703  -0.6121   0.00    0.0
2158 455523.000   22.301779365  114.188299129     6.3501   4   6   2.4678   2.4374   4.0456  -1.5480   0.6703  -0.6102   0.00    0.0
2158 455524.000   22.301780051  114.188302402     6.3341   4   6   2.4677   2.4375   4.0456  -1.5479   0.6704  -0.6083   0.00    0.0
2158 455525.000   22.301785672  114.188310510     6.2742   4   6   2.4677   2.4376   4.0456  -1.5478   0.6705  -0.6063   0.00    0.0
2158 455526.000   22.301699529  114.188417968    16.2323   4   7   2.1202   2.1942   3.8841  -1.0270  -0.8669   1.0311   0.00    0.0
2158 455527.000   22.301696869  114.188465374    21.2029   4   7   2.1087   2.1852   3.8537  -1.0052  -0.9210   1.0826   0.00    0.0
2158 455528.000   22.301739709  114.188485903    22.3468   4   7   2.1069   2.1842   3.8514  -1.0021  -0.9154   1.0778   0.00    0.0
2158 455529.000   22.301848564  114.188454795    15.8954   4   7   2.1052   2.1830   3.8513  -0.9988  -0.9168   1.0801   0.00    0.0
2158 455530.000   22.301937526  114.188431972     7.7019   4   7   2.1052   2.1830   3.8500  -0.9986  -0.9174   1.0816   0.00    0.0
2158 455531.000   22.302001142  114.188453418     4.6638   4   7   2.1050   2.1830   3.8489  -0.9983  -0.9160   1.0812   0.00    0.0
2158 455532.000   22.302045080  114.188492354     3.2218   4   6   2.9355   2.1913   4.9498  -1.1769  -1.1955   2.7455   0.00    0.0
2158 455533.000   22.302092831  114.188524847     3.9196   4   6   3.2020   2.1986   5.5692  -1.2697  -1.3717   3.2869   0.00    0.0
2158 455534.000   22.302153666  114.188547424     5.3761   4   6   3.2350   2.2008   5.7359  -1.2870  -1.4192   3.3821   0.00    0.0
2158 455535.000   22.302209649  114.188545877     3.9379   4   6   3.2355   2.2011   5.7539  -1.2873  -1.4227   3.3863   0.00    0.0
2158 455536.000   22.302264891  114.188550000     2.8725   4   6   3.2370   2.2012   5.7562  -1.2877  -1.4230   3.3888   0.00    0.0
2158 455537.000   22.302299895  114.188560900     1.3243   4   6   3.2398   2.2015   5.7700  -1.2890  -1.4265   3.3971   0.00    0.0
2158 455538.000   22.302354469  114.188584148     4.0525   4   6   3.2425   2.2017   5.7867  -1.2901  -1.4300   3.4060   0.00    0.0
2158 455539.000   22.302395528  114.188602990     6.8955   4   6   3.2443   2.2019   5.7977  -1.2907  -1.4318   3.4120   0.00    0.0
2158 455540.000   22.302416702  114.188610119     8.3287   4   6   3.2451   2.2020   5.8024  -1.2908  -1.4323   3.4149   0.00    0.0
2158 455541.000   22.302434574  114.188612483     8.9280   4   6   3.2454   2.2021   5.8039  -1.2907  -1.4320   3.4160   0.00    0.0
2158 455542.000   22.302435325  114.188597543     6.0104   4   6   3.2455   2.2022   5.8051  -1.2905  -1.4317   3.4169   0.00    0.0
2158 455543.000   22.302417957  114.188586473     1.8037   4   6   3.2457   2.2023   5.8067  -1.2904  -1.4314   3.4180   0.00    0.0
2158 455544.000   22.302419061  114.188586915     0.1220   4   6   3.2460   2.2024   5.8086  -1.2902  -1.4313   3.4193   0.00    0.0
2158 455545.000   22.302431732  114.188595981     1.2413   4   6   3.2463   2.2025   5.8104  -1.2901  -1.4311   3.4205   0.00    0.0
2158 455546.000   22.302426680  114.188589669     0.4856   4   6   3.2465   2.2026   5.8119  -1.2900  -1.4308   3.4216   0.00    0.0
2158 455547.000   22.302428592  114.188585084     0.4183   4   6   3.2466   2.2026   5.8131  -1.2898  -1.4305   3.4225   0.00    0.0
2158 455548.000   22.302437502  114.188582698     0.7765   4   6   3.2468   2.2027   5.8143  -1.2896  -1.4301   3.4233   0.00    0.0
2158 455549.000   22.302426701  114.188588287     1.1380   4   6   3.2469   2.2028   5.8154  -1.2894  -1.4297   3.4242   0.00    0.0
2158 455550.000   22.302436042  114.188586268     1.8850   4   6   3.2470   2.2029   5.8165  -1.2892  -1.4294   3.4250   0.00    0.0
2158 455551.000   22.302437823  114.188585365     3.2864   4   6   3.2471   2.2030   5.8176  -1.2890  -1.4290   3.4259   0.00    0.0
2158 455552.000   22.302440273  114.188586250     5.5893   4   6   3.2472   2.2031   5.8188  -1.2888  -1.4286   3.4267   0.00    0.0
2158 455553.000   22.302435759  114.188588568     5.8795   4   6   3.2474   2.2032   5.8199  -1.2886  -1.4283   3.4275   0.00    0.0
2158 455554.000   22.302443435  114.188594894     7.0924   4   6   3.2475   2.2033   5.8210  -1.2885  -1.4279   3.4284   0.00    0.0
2158 455555.000   22.302447161  114.188598442     5.5950   4   6   3.2476   2.2034   5.8221  -1.2883  -1.4275   3.4292   0.00    0.0
2158 455558.000   22.302410682  114.188541052   -11.2621   4   5   3.9852   2.6294   7.0063  -2.0347  -1.3034   3.8887   0.00    0.0
2158 455559.000   22.302426616  114.188573786    -6.9738   4   5   3.6454   2.4944   6.0478  -1.8494  -1.1116   3.3460   0.00    0.0
2158 455563.000   22.302085915  114.188835725    22.8966   4   5   4.3285   2.5792   7.1885  -2.1714  -1.1373   3.6884   0.00    0.0
2158 455571.000   22.302686743  114.188615267    12.7382   4   8   2.1798   2.2450   4.1529  -1.1826  -1.4595   0.9547   0.00    0.0
2158 455572.000   22.302733104  114.188544893     0.3832   4   7   2.1726   2.2565   4.2300  -1.0300  -0.9701   1.1972   0.00    0.0
2158 455573.000   22.302774310  114.188499307    -4.0136   4   7   2.1825   2.2665   4.3438  -1.0421  -1.0038   1.2415   0.00    0.0
2158 455574.000   22.302846086  114.188452136    -5.9183   4   7   2.1641   2.2479   4.3730  -1.0425  -1.0175   1.2600   0.00    0.0
2158 455575.000   22.302909347  114.188404792    -6.1778   4   6   2.1536   2.7936   4.3285  -0.6783   0.4404   1.3270   0.00    0.0
2158 455576.000   22.302976297  114.188348003    -5.3306   4   5   2.1696   5.1957   5.0509   1.0814  -3.4436   0.8326   0.00    0.0
2158 455577.000   22.303017391  114.188232157     0.6696   4   5   2.1830   6.3462   5.4908   1.4611  -4.5243  -0.0897   0.00    0.0
2158 455578.000   22.303073677  114.188108524     7.7986   4   5   2.1840   6.4957   5.4960   1.5016  -4.6405  -0.3309   0.00    0.0
2158 455579.000   22.303156660  114.188194802     2.0779   4   6   2.1111   3.6961   4.9940  -0.8446  -3.1288   1.0362   0.00    0.0
2158 455580.000   22.303189386  114.188141260    -0.6178   4   6   2.1107   3.5377   4.8884  -0.8592  -2.9627   1.0415   0.00    0.0
2158 455581.000   22.303235879  114.188034931     2.0928   4   5   3.1278   3.9068   7.1634  -2.1345  -4.1814   3.6309   0.00    0.0
2158 455582.000   22.303304538  114.187931606     3.6880   4   6   2.1501   3.5928   5.2465  -1.0139  -3.1815   1.3661   0.00    0.0
2158 455583.000   22.303361983  114.187804487     6.6175   4   5   3.1433   3.9315   7.3366  -2.1752  -4.2817   3.6983   0.00    0.0
2158 455584.000   22.303427302  114.187701197    12.9957   4   6   2.1506   3.5914   5.2611  -1.0115  -3.1861   1.3648   0.00    0.0
2158 455585.000   22.303523602  114.187611795    17.3434   4   5   3.1448   3.9308   7.3393  -2.1764  -4.2823   3.7016   0.00    0.0
2158 455586.000   22.303615253  114.187542416    21.3919   4   5   3.8165   4.4064   9.5309  -3.0115  -5.5182   5.1873   0.00    0.0
2158 455590.000   22.303398569  114.186526703    16.7809   4   5   5.7985   3.6645  11.2043   3.2623   4.6536   7.5228   0.00    0.0
2158 455591.000   22.303651312  114.186695794    18.2538   4   5   4.9770   3.3884   9.3692   2.7026   3.8386   6.2259   0.00    0.0
2158 455592.000   22.303916308  114.186813498    36.8633   4   5   5.2708   3.4775  10.0444   2.9093   4.1420   6.7052   0.00    0.0
2158 455593.000   22.303969325  114.186948662    28.3806   4   5   4.2885   4.6296  11.3119  -3.3851  -6.2045   6.1730   0.00    0.0
2158 455596.000   22.304060973  114.186826111     1.9373   4   5   4.7579   5.4996  13.3737  -4.1665  -7.7059   7.2227   0.00    0.0
2158 455597.000   22.304080897  114.186741077     1.5109   4   5   4.1597   4.7925  11.1455  -3.4233  -6.3635   5.9789   0.00    0.0
2158 455598.000   22.304151442  114.186668162     6.8918   4   5   4.3539   5.0213  11.8992  -3.6753  -6.8178   6.4014   0.00    0.0
2158 455599.000   22.304182691  114.186580575    19.6601   4   5   4.6508   5.3682  13.0967  -4.0833  -7.5471   7.0769   0.00    0.0
2158 455600.000   22.304197427  114.186620083    13.1967   4   5   4.6908   5.4124  13.3273  -4.1724  -7.6986   7.2158   0.00    0.0
2158 455601.000   22.304228823  114.186612541     7.7388   4   5   4.6256   5.3332  13.0974  -4.1077  -7.5730   7.0974   0.00    0.0
2158 455602.000   22.304238950  114.186613109     6.6722   4   5   4.5430   5.2373  12.7604  -4.0045  -7.3802   6.9169   0.00    0.0
2158 455603.000   22.304257564  114.186584994     6.0985   4   5   4.4618   5.1451  12.4263  -3.8988  -7.1856   6.7354   0.00    0.0
2158 455604.000   22.304281727  114.186553104     6.0642   4   5   4.3891   5.0618  12.1289  -3.8030  -7.0104   6.5728   0.00    0.0
2158 455605.000   22.304310631  114.186537976     4.3073   4   5   4.3289   4.9924  11.8812  -3.7228  -6.8638   6.4374   0.00    0.0
2158 455606.000   22.304320923  114.186511635     6.5592   4   5   4.2828   4.9389  11.6893  -3.6606  -6.7500   6.3326   0.00    0.0
2158 455607.000   22.304328244  114.186468380    10.8165   4   5   4.2504   4.9010  11.5536  -3.6165  -6.6692   6.2586   0.00    0.0
2158 455608.000   22.304348996  114.186427764    15.1313   4   5   4.2300   4.8768  11.4682  -3.5884  -6.6179   6.2121   0.00    0.0
2158 455609.000   22.304369315  114.186393952    18.1191   4   5   4.2189   4.8630  11.4220  -3.5727  -6.5894   6.1868   0.00    0.0
2158 455610.000   22.304385214  114.186365045    21.1372   4   5   4.2138   4.8560  11.4012  -3.5650  -6.5756   6.1754   0.00    0.0
2158 455611.000   22.304389737  114.186335940    23.7157   4   5   4.2118   4.8525  11.3937  -3.5615  -6.5696   6.1712   0.00    0.0
2158 455612.000   22.304391809  114.186308019    26.0630   4   5   4.2109   4.8502  11.3911  -3.5596  -6.5664   6.1696   0.00    0.0
2158 455613.000   22.304399112  114.186292605    27.5308   4   5   4.2102   4.8481  11.3891  -3.5579  -6.5635   6.1684   0.00    0.0
2158 455614.000   22.304411950  114.186300604    25.9550   4   5   4.2094   4.8459  11.3865  -3.5559  -6.5604   6.1669   0.00    0.0
2158 455615.000   22.304413989  114.186308290    24.1339   4   5   4.2084   4.8435  11.3835  -3.5539  -6.5570   6.1652   0.00    0.0
2158 455616.000   22.304407251  114.186300911    23.9343   4   5   4.2075   4.8413  11.3808  -3.5519  -6.5537   6.1636   0.00    0.0
2158 455617.000   22.304400385  114.186292011    24.5105   4   5   4.2068   4.8391  11.3786  -3.5502  -6.5507   6.1623   0.00    0.0
2158 455618.000   22.304396019  114.186266801    28.8179   4   5   4.2062   4.8372  11.3770  -3.5486  -6.5481   6.1614   0.00    0.0
2158 455619.000   22.304403061  114.186255669    31.2687   4   5   4.2057   4.8353  11.3759  -3.5471  -6.5458   6.1607   0.00    0.0
2158 455620.000   22.304410006  114.186246660    33.2472   4   5   4.2052   4.8336  11.3750  -3.5457  -6.5436   6.1601   0.00    0.0
2158 455621.000   22.304414172  114.186236556    35.7757   4   5   4.2048   4.8318  11.3742  -3.5444  -6.5415   6.1595   0.00    0.0
2158 455622.000   22.304425981  114.186242482    35.8994   4   5   4.2044   4.8300  11.3734  -3.5430  -6.5393   6.1590   0.00    0.0
2158 455623.000   22.304437094  114.186262110    33.2851   4   5   4.2039   4.8283  11.3726  -3.5417  -6.5372   6.1585   0.00    0.0
2158 455624.000   22.304438214  114.186273350    30.7887   4   5   4.2035   4.8265  11.3718  -3.5403  -6.5351   6.1579   0.00    0.0
2158 455625.000   22.304437884  114.186296835    25.1680   4   5   4.2031   4.8248  11.3710  -3.5389  -6.5329   6.1574   0.00    0.0
2158 455626.000   22.304440170  114.186321969    19.0967   4   5   4.2027   4.8230  11.3702  -3.5376  -6.5308   6.1568   0.00    0.0
2158 455627.000   22.304434798  114.186332531    15.0829   4   5   4.2022   4.8213  11.3694  -3.5363  -6.5287   6.1563   0.00    0.0
2158 455628.000   22.304432107  114.186344001    11.7623   4   5   4.2018   4.8195  11.3687  -3.5349  -6.5265   6.1558   0.00    0.0
2158 455629.000   22.304433353  114.186351418     9.8461   4   5   4.2014   4.8178  11.3679  -3.5336  -6.5244   6.1553   0.00    0.0
2158 455630.000   22.304435653  114.186344273     9.8705   4   5   4.2010   4.8161  11.3672  -3.5322  -6.5223   6.1548   0.00    0.0
2158 455631.000   22.304448594  114.186331724     9.5964   4   5   4.2005   4.8143  11.3664  -3.5309  -6.5202   6.1543   0.00    0.0
2158 455632.000   22.304470310  114.186315762     8.1736   4   5   4.2001   4.8126  11.3657  -3.5295  -6.5181   6.1537   0.00    0.0
2158 455633.000   22.304495558  114.186280949     8.7153   4   5   4.1997   4.8109  11.3650  -3.5282  -6.5160   6.1532   0.00    0.0
2158 455634.000   22.304537309  114.186250958    12.1762   4   5   4.1993   4.8091  11.3642  -3.5268  -6.5139   6.1527   0.00    0.0
2158 455635.000   22.304569421  114.186178429    17.6575   4   5   4.1988   4.8074  11.3635  -3.5255  -6.5117   6.1522   0.00    0.0
2158 455636.000   22.304615420  114.186117952    21.2415   4   5   4.1984   4.8056  11.3627  -3.5241  -6.5096   6.1517   0.00    0.0
2158 455637.000   22.304641286  114.186028708    24.4808   4   5   4.1980   4.8039  11.3620  -3.5228  -6.5075   6.1511   0.00    0.0
2158 455642.000   22.304857045  114.185982051    23.7850   4   5   4.7807   5.4536  13.5056  -4.1530  -7.6951   7.2915   0.00    0.0
2158 455644.000   22.304890196  114.185756319    55.0930   4   5   4.9284   5.6164  14.0751  -4.3401  -8.0313   7.6091   0.00    0.0
2158 455645.000   22.304906625  114.185703965    66.1787   4   5   4.7122   5.3616  13.3565  -4.1188  -7.6187   7.2187   0.00    0.0
2158 455646.000   22.304933238  114.185774361    64.4754   4   5   4.6357   5.2777  13.1273  -4.0500  -7.4906   7.0990   0.00    0.0
2158 455647.000   22.304951374  114.185854488    55.8695   4   5   4.5510   5.1786  12.8403  -3.9689  -7.3343   6.9509   0.00    0.0
2158 455648.000   22.304951190  114.185897643    52.1876   4   5   4.4723   5.0892  12.5140  -3.8724  -7.1523   6.7780   0.00    0.0
2158 455649.000   22.304946406  114.185914751    57.7928   4   5   4.3977   5.0075  12.2034  -3.7755  -6.9740   6.6095   0.00    0.0
2158 455650.000   22.304923853  114.185865755    75.4339   4   5   4.3322   4.9350  11.9377  -3.6901  -6.8186   6.4638   0.00    0.0
2158 455651.000   22.304955841  114.185782802   102.1106   4   5   4.2811   4.8773  11.7287  -3.6223  -6.6953   6.3491   0.00    0.0
2158 455652.000   22.305044699  114.185822989   109.3462   4   5   4.2448   4.8360  11.5774  -3.5733  -6.6060   6.2664   0.00    0.0
2158 455653.000   22.305157773  114.185872957   123.7571   4   5   4.2210   4.8088  11.4779  -3.5410  -6.5470   6.2121   0.00    0.0
2158 455654.000   22.305219295  114.185992166   110.8267   4   5   4.2070   4.7923  11.4191  -3.5216  -6.5116   6.1801   0.00    0.0
2158 455655.000   22.305324651  114.186202891    98.4633   4   5   4.1994   4.7829  11.3879  -3.5108  -6.4921   6.1630   0.00    0.0
2158 455656.000   22.305370556  114.186313285    89.0450   4   5   4.1955   4.7775  11.3726  -3.5049  -6.4816   6.1545   0.00    0.0
2158 455657.000   22.305352108  114.186292463    84.3940   4   5   4.1934   4.7739  11.3647  -3.5013  -6.4754   6.1501   0.00    0.0
2158 455658.000   22.305331512  114.186220284    91.5228   4   5   4.1920   4.7711  11.3596  -3.4986  -6.4708   6.1472   0.00    0.0
2158 455659.000   22.305351015  114.186220826    96.3694   4   5   4.1907   4.7685  11.3554  -3.4962  -6.4667   6.1448   0.00    0.0
2158 455660.000   22.305404424  114.186236642   103.2181   4   5   4.1895   4.7660  11.3516  -3.4939  -6.4629   6.1426   0.00    0.0
2158 455661.000   22.305414087  114.186224420   105.3295   4   5   4.1885   4.7637  11.3485  -3.4918  -6.4594   6.1408   0.00    0.0
2158 455662.000   22.305406327  114.186199723   104.4683   4   5   4.1877   4.7615  11.3461  -3.4899  -6.4563   6.1394   0.00    0.0
2158 455663.000   22.305415855  114.186154435   109.7919   4   5   4.1870   4.7596  11.3444  -3.4882  -6.4536   6.1383   0.00    0.0
2158 455664.000   22.305432994  114.186129618   115.4434   4   5   4.1865   4.7577  11.3431  -3.4867  -6.4512   6.1375   0.00    0.0
2158 455665.000   22.305429535  114.186075898   116.5692   4   5   4.1860   4.7559  11.3421  -3.4853  -6.4489   6.1368   0.00    0.0
2158 455666.000   22.305423119  114.186026044   112.3894   4   5   4.1855   4.7542  11.3413  -3.4839  -6.4468   6.1362   0.00    0.0
2158 455667.000   22.305392304  114.186012100   108.3933   4   5   4.1851   4.7525  11.3405  -3.4825  -6.4446   6.1357   0.00    0.0
2158 455668.000   22.305366702  114.185981344   104.2284   4   5   4.1846   4.7507  11.3397  -3.4812  -6.4425   6.1351   0.00    0.0
2158 455669.000   22.305396503  114.185941886   107.2752   4   5   4.1842   4.7490  11.3389  -3.4798  -6.4403   6.1346   0.00    0.0
2158 455673.000   22.305777896  114.185645568   203.9768   4   6   3.6539   2.3423   7.1856  -1.4274  -1.6556   4.2456   0.00    0.0
2158 455674.000   22.305801865  114.185719202   204.3315   4   6   3.3479   2.2817   6.3030  -1.2875  -1.4116   3.6627   0.00    0.0
2158 455675.000   22.305817702  114.185745846   205.7727   4   6   3.4652   2.2949   6.6694  -1.3408  -1.5150   3.9092   0.00    0.0
2158 455676.000   22.305828858  114.185782898   207.0977   4   6   3.5194   2.2787   6.8731  -1.3695  -1.5766   4.0547   0.00    0.0
2158 455690.000   22.306308014  114.185655752    74.2152   4   5   4.7184   5.3121  13.3180  -4.0295  -7.4892   7.1800   0.00    0.0
2158 455691.000   22.306236420  114.185464822    71.5094   4   5   4.1252   4.6463  11.0970  -3.3069  -6.1829   5.9429   0.00    0.0
2158 455692.000   22.306113309  114.185266911    56.4289   4   5   4.3186   4.8619  11.8518  -3.5531  -6.6270   6.3651   0.00    0.0
2158 455693.000   22.306071957  114.185236000    48.0245   4   5   4.6090   5.1802  13.0294  -3.9450  -7.3271   7.0279   0.00    0.0
2158 455694.000   22.306070772  114.185225752    48.7124   4   5   4.6459   5.2150  13.2486  -4.0287  -7.4681   7.1598   0.00    0.0
2158 455695.000   22.306078318  114.185205708    51.6215   4   5   4.5806   5.1381  13.0169  -3.9652  -7.3444   7.0405   0.00    0.0
2158 455696.000   22.306086602  114.185158069    57.4427   4   5   4.4986   5.0481  12.6811  -3.8648  -7.1569   6.8607   0.00    0.0
2158 455697.000   22.306087955  114.185080914    68.5615   4   5   4.4181   4.9623  12.3489  -3.7619  -6.9679   6.6805   0.00    0.0
2158 455703.000   22.306332243  114.185005574    71.3993   4   5   4.7127   5.2868  13.3108  -4.0104  -7.4593   7.1740   0.00    0.0
2158 455704.000   22.306313681  114.184934919    69.2999   4   5   4.1202   4.6266  11.0907  -3.2907  -6.1580   5.9379   0.00    0.0
2158 455706.000   22.306309123  114.184883135    64.0930   4   5   4.8956   5.4793  14.0230  -4.2405  -7.8723   7.5706   0.00    0.0
2158 455707.000   22.306312071  114.184880068    58.5688   4   5   4.6559   5.2064  13.2732  -4.0184  -7.4550   7.1699   0.00    0.0
2158 455708.000   22.306301730  114.184857781    57.1355   4   5   4.5907   5.1330  13.0435  -3.9532  -7.3302   7.0503   0.00    0.0
2158 455709.000   22.306292685  114.184833969    52.4824   4   5   4.5182   5.0509  12.7755  -3.8764  -7.1841   6.9091   0.00    0.0
2158 455710.000   22.306303767  114.184842556    49.4678   4   5   4.4404   4.9674  12.4549  -3.7790  -7.0040   6.7362   0.00    0.0
2158 455711.000   22.306303590  114.184839210    45.7008   4   5   4.3631   4.8857  12.1367  -3.6795  -6.8221   6.5628   0.00    0.0
2158 455712.000   22.306308997  114.184847907    43.3957   4   5   4.2952   4.8131  11.8583  -3.5917  -6.6619   6.4107   0.00    0.0
2158 455713.000   22.306307092  114.184852148    42.8713   4   5   4.2425   4.7563  11.6393  -3.5225  -6.5356   6.2913   0.00    0.0
2158 455714.000   22.306316638  114.184871119    39.7443   4   5   4.2059   4.7167  11.4856  -3.4738  -6.4467   6.2076   0.00    0.0
2158 455715.000   22.306324340  114.184884604    36.1155   4   5   4.1836   4.6923  11.3918  -3.4438  -6.3920   6.1565   0.00    0.0
2158 455716.000   22.306325663  114.184895124    33.3835   4   5   4.1722   4.6792  11.3442  -3.4280  -6.3634   6.1305   0.00    0.0
2158 455717.000   22.306322481  114.184899922    31.6024   4   5   4.1675   4.6731  11.3252  -3.4211  -6.3510   6.1200   0.00    0.0
2158 455718.000   22.306321776  114.184913663    29.5925   4   5   4.1659   4.6703  11.3197  -3.4182  -6.3462   6.1169   0.00    0.0
2158 455719.000   22.306317918  114.184915485    29.8469   4   5   4.1652   4.6683  11.3180  -3.4166  -6.3435   6.1158   0.00    0.0
2158 455720.000   22.306315528  114.184912868    31.2173   4   5   4.1644   4.6663  11.3157  -3.4147  -6.3406   6.1144   0.00    0.0
2158 455721.000   22.306326306  114.184930454    29.6676   4   5   4.1633   4.6640  11.3123  -3.4125  -6.3369   6.1124   0.00    0.0
2158 455722.000   22.306329316  114.184949080    28.0242   4   5   4.1621   4.6616  11.3085  -3.4102  -6.3331   6.1101   0.00    0.0
2158 455723.000   22.306325907  114.184963068    26.6237   4   5   4.1610   4.6593  11.3051  -3.4081  -6.3295   6.1082   0.00    0.0
2158 455724.000   22.306338091  114.184966706    23.7525   4   5   4.1602   4.6572  11.3027  -3.4062  -6.3264   6.1067   0.00    0.0
2158 455725.000   22.306336605  114.184947874    23.6762   4   5   4.1595   4.6553  11.3011  -3.4045  -6.3238   6.1057   0.00    0.0
2158 455726.000   22.306342157  114.184919009    25.4516   4   5   4.1590   4.6536  11.3001  -3.4031  -6.3216   6.1050   0.00    0.0
2158 455727.000   22.306453018  114.184835236    41.3538   4   6   3.0916   4.3577   7.9650  -2.6540  -5.1853   3.8695   0.00    0.0
2158 455728.000   22.306537316  114.184786247    43.4031   4   6   2.9726   4.2289   7.3486  -2.4802  -4.8642   3.5164   0.00    0.0
2158 455729.000   22.306618920  114.184766052    41.6329   4   6   2.9640   4.1860   7.2584  -2.4530  -4.7927   3.4800   0.00    0.0
2158 455730.000   22.306645178  114.184732885    42.2628   4   6   2.9635   4.1829   7.2575  -2.4532  -4.7910   3.4797   0.00    0.0
2158 455731.000   22.306657944  114.184680574    47.6843   4   7   2.7712   2.2626   4.8182  -1.5275  -1.9681   2.5327   0.00    0.0
2158 455732.000   22.306717409  114.184631450    54.5130   4   7   2.7353   2.1950   4.5209  -1.4457  -1.7204   2.3826   0.00    0.0
2158 455733.000   22.306776542  114.184619002    58.1145   4   7   2.7310   2.1920   4.4979  -1.4478  -1.7234   2.3685   0.00    0.0
2158 455734.000   22.306821293  114.184621615    61.1257   4   6   2.8105   3.5014   5.8784  -1.9786  -3.6483   2.8508   0.00    0.0
2158 455735.000   22.306855140  114.184608192    64.5045   4   6   2.8989   4.0303   6.7965  -2.3114  -4.4870   3.2491   0.00    0.0
2158 455736.000   22.306868065  114.184601079    65.9994   4   6   2.9361   4.1241   7.0733  -2.3984  -4.6747   3.3871   0.00    0.0
2158 455737.000   22.306875152  114.184571666    68.4783   4   6   2.9419   4.1264   7.1064  -2.4047  -4.6865   3.4059   0.00    0.0
2158 455738.000   22.306863524  114.184595457    67.2585   4   7   2.7648   2.2598   4.7802  -1.5211  -1.9509   2.5136   0.00    0.0
2158 455739.000   22.306839129  114.184604848    67.4201   4   7   2.7293   2.1922   4.4835  -1.4391  -1.7014   2.3640   0.00    0.0
2158 455740.000   22.306818059  114.184625740    64.2343   4   7   2.7271   2.1913   4.4784  -1.4448  -1.7156   2.3590   0.00    0.0
2158 455741.000   22.306802913  114.184660120    59.5716   4   7   2.7275   2.1870   4.4815  -1.4430  -1.7091   2.3613   0.00    0.0
2158 455742.000   22.306824300  114.184756461    59.4577   4   6   2.7827   2.5460   4.5090  -1.1558  -1.4397   2.4260   0.00    0.0
2158 455743.000   22.306843313  114.184798832    59.7584   4   6   2.7871   2.5755   4.5058  -1.1208  -1.3918   2.4307   0.00    0.0
2158 455744.000   22.306826614  114.184723661    59.4103   4   6   2.7247   2.1987   4.4535  -1.4274  -1.6800   2.3482   0.00    0.0
2158 455745.000   22.306698863  114.184675777    33.4374   4   6   3.0951   2.2210   5.4249  -1.2327  -1.3168   3.1723   0.00    0.0
2158 455746.000   22.306626400  114.184686912    14.2605   4   6   3.2304   2.2191   5.8822  -1.2170  -1.2762   3.4887   0.00    0.0
2158 455747.000   22.306611944  114.184713206     7.4411   4   6   3.2544   2.2192   5.9958  -1.2323  -1.3167   3.5541   0.00    0.0
2158 455748.000   22.306607594  114.184719715     5.8917   4   6   3.2553   2.2203   6.0052  -1.2346  -1.3251   3.5583   0.00    0.0
2158 455749.000   22.306604279  114.184717761     7.8920   4   6   3.2557   2.2202   6.0066  -1.2338  -1.3233   3.5595   0.00    0.0
2158 455750.000   22.306605525  114.184710140    10.8220   4   6   3.2578   2.2203   6.0172  -1.2345  -1.3253   3.5658   0.00    0.0
2158 455751.000   22.306615669  114.184700277    13.5662   4   6   3.2603   2.2206   6.0300  -1.2356  -1.3286   3.5732   0.00    0.0
2158 455752.000   22.306621757  114.184676234    13.2282   4   6   3.2620   2.2208   6.0386  -1.2361  -1.3302   3.5782   0.00    0.0
2158 455753.000   22.306585582  114.184621312     3.3856   4   5   4.0688   3.0655   7.5645   1.8998   2.8012   4.8871   0.00    0.0
2158 455754.000   22.306587719  114.184638884     3.7711   4   6   3.3544   2.2405   6.3148  -1.1388  -1.1078   3.7751   0.00    0.0
2158 455755.000   22.306580214  114.184637074     1.1115   4   6   3.2722   2.2250   6.0960  -1.2484  -1.3676   3.6091   0.00    0.0
2158 455756.000   22.306568091  114.184637419    -0.2898   4   6   3.2631   2.2246   6.0482  -1.2357  -1.3351   3.5835   0.00    0.0
2158 455757.000   22.306553025  114.184638050    -1.4323   4   6   3.2641   2.2213   6.0515  -1.2341  -1.3265   3.5864   0.00    0.0
2158 455758.000   22.306530144  114.184643298    -1.9937   4   6   3.2651   2.2217   6.0583  -1.2361  -1.3320   3.5900   0.00    0.0
2158 455759.000   22.306508592  114.184646506    -2.8316   4   6   3.2651   2.2218   6.0589  -1.2358  -1.3314   3.5905   0.00    0.0
2158 455760.000   22.306494436  114.184640419    -4.5264   4   6   3.2645   2.2216   6.0566  -1.2345  -1.3281   3.5893   0.00    0.0
2158 455761.000   22.306477890  114.184636992    -6.3846   4   6   3.2639   2.2216   6.0549  -1.2336  -1.3259   3.5884   0.00    0.0
2158 455762.000   22.306478054  114.184640814    -5.6677   4   6   3.2637   2.2217   6.0549  -1.2332  -1.3251   3.5885   0.00    0.0
2158 455763.000   22.306477637  114.184642369    -4.4575   4   6   3.2637   2.2218   6.0561  -1.2329  -1.3245   3.5892   0.00    0.0
2158 455764.000   22.306480214  114.184636755    -3.8028   4   6   3.2639   2.2219   6.0575  -1.2325  -1.3239   3.5901   0.00    0.0
2158 455765.000   22.306480797  114.184625177    -4.6015   4   6   3.2639   2.2220   6.0587  -1.2322  -1.3233   3.5908   0.00    0.0
2158 455766.000   22.306478925  114.184618896    -5.4352   4   6   3.2639   2.2221   6.0597  -1.2319  -1.3226   3.5915   0.00    0.0
2158 455767.000   22.306471586  114.184621025    -5.8002   4   5   4.0621   3.0727   7.5826   1.9014   2.8147   4.8910   0.00    0.0
2158 455768.000   22.306457904  114.184619978    -7.0340   4   6   3.3551   2.2422   6.3326  -1.1331  -1.0949   3.7856   0.00    0.0
2158 455769.000   22.306446449  114.184619141    -7.9742   4   6   3.2733   2.2263   6.1136  -1.2439  -1.3594   3.6203   0.00    0.0
2158 455770.000   22.306461240  114.184628993    -5.2484   4   5   4.0617   3.0831   7.5856   1.9081   2.8209   4.8920   0.00    0.0
2158 455771.000   22.306480901  114.184639492    -1.4036   4   5   4.5791   3.3910   8.7776   2.5777   3.7755   5.7685   0.00    0.0
2158 455772.000   22.306505182  114.184671768     6.9502   4   5   4.7527   3.4353   9.2598   2.7095   3.9838   6.0854   0.00    0.0
2158 455773.000   22.306530932  114.184701249    15.5560   4   5   4.7884   3.4377   9.3785   2.7218   4.0057   6.1568   0.00    0.0
2158 455774.000   22.306555621  114.184733559    24.4506   4   5   4.7880   3.4385   9.3826   2.7206   4.0044   6.1580   0.00    0.0
2158 455775.000   22.306428102  114.184629798    -2.1340   4   6   3.4128   2.2469   6.5836  -1.1559  -1.1649   3.9335   0.00    0.0
2158 455776.000   22.306392604  114.184618175   -11.1403   4   6   3.2798   2.2355   6.1530  -1.2469  -1.3795   3.6420   0.00    0.0
2158 455777.000   22.306381208  114.184619031   -15.5877   4   6   3.2762   2.2278   6.1233  -1.2316  -1.3307   3.6294   0.00    0.0
2158 455778.000   22.306425502  114.184643926   -10.2854   4   6   3.2779   2.2247   6.1343  -1.2363  -1.3383   3.6354   0.00    0.0
2158 455779.000   22.306481830  114.184658698    -2.2216   4   6   3.2744   2.2248   6.1209  -1.2358  -1.3374   3.6273   0.00    0.0
2158 455780.000   22.306528672  114.184659228     4.8372   4   6   3.2696   2.2241   6.0989  -1.2311  -1.3247   3.6150   0.00    0.0
2158 455781.000   22.306563752  114.184666292    11.5621   4   6   3.2663   2.2236   6.0843  -1.2277  -1.3157   3.6067   0.00    0.0
2158 455782.000   22.306580578  114.184667266    15.1861   4   6   3.2651   2.2236   6.0799  -1.2265  -1.3128   3.6041   0.00    0.0
2158 455783.000   22.306594766  114.184671099    17.3887   4   6   3.2651   2.2237   6.0811  -1.2262  -1.3123   3.6048   0.00    0.0
2158 455784.000   22.306583702  114.184679775    16.9396   4   6   3.2653   2.2238   6.0830  -1.2259  -1.3118   3.6060   0.00    0.0
2158 455785.000   22.306581764  114.184685257    16.2500   4   6   3.2653   2.2238   6.0840  -1.2256  -1.3110   3.6066   0.00    0.0
2158 455786.000   22.306581950  114.184686875    15.2738   4   6   3.2651   2.2239   6.0840  -1.2251  -1.3101   3.6066   0.00    0.0
2158 455787.000   22.306510079  114.184617035    -0.8195   4   5   4.0507   3.0829   7.6029   1.9024   2.8320   4.8928   0.00    0.0
2158 455788.000   22.306412449  114.184546671   -23.6110   4   5   4.5580   3.3987   8.7777   2.5708   3.7809   5.7541   0.00    0.0
2158 455789.000   22.306330703  114.184508521   -42.6980   4   5   4.7282   3.4449   9.2501   2.7042   3.9913   6.0648   0.00    0.0
2158 455790.000   22.306260980  114.184480552   -58.3884   4   5   4.7645   3.4476   9.3707   2.7171   4.0142   6.1373   0.00    0.0
2158 455791.000   22.306198241  114.184451676   -71.8366   4   5   4.7658   3.4483   9.3806   2.7162   4.0134   6.1419   0.00    0.0
2158 455792.000   22.306168082  114.184438429   -78.5816   4   5   4.7661   3.4495   9.3846   2.7174   4.0162   6.1437   0.00    0.0
2158 455793.000   22.306147593  114.184433767   -81.5424   4   5   4.7716   3.4512   9.4046   2.7212   4.0233   6.1555   0.00    0.0
2158 455794.000   22.306144722  114.184425295   -82.4636   4   5   4.7795   3.4532   9.4309   2.7265   4.0328   6.1716   0.00    0.0
2158 455795.000   22.306154411  114.184427029   -80.3202   4   5   4.7858   3.4554   9.4520   2.7313   4.0413   6.1844   0.00    0.0
2158 455796.000   22.306170535  114.184429086   -77.2810   4   5   4.7889   3.4570   9.4637   2.7342   4.0469   6.1913   0.00    0.0
2158 455797.000   22.306211544  114.184445212   -69.2742   4   5   4.7893   3.4580   9.4682   2.7353   4.0495   6.1934   0.00    0.0
2158 455798.000   22.306282741  114.184481901   -53.7066   4   5   4.7883   3.4587   9.4692   2.7353   4.0505   6.1931   0.00    0.0
2158 455799.000   22.306322448  114.184503656   -42.2028   4   5   4.7872   3.4593   9.4696   2.7352   4.0512   6.1925   0.00    0.0
2158 455800.000   22.306354602  114.184508513   -33.4035   4   5   4.7863   3.4600   9.4706   2.7352   4.0521   6.1923   0.00    0.0
2158 455801.000   22.306549527  114.184605772     8.0762   4   6   3.4207   2.2503   6.6443  -1.1477  -1.1487   3.9689   0.00    0.0
2158 455802.000   22.306575615  114.184520939    14.3043   4   6   3.2881   2.2381   6.2126  -1.2404  -1.3689   3.6787   0.00    0.0
2158 455803.000   22.306599750  114.184439137    15.5642   4   6   3.2815   2.2303   6.1712  -1.2241  -1.3176   3.6587   0.00    0.0
2158 455804.000   22.306722640  114.184430589    25.2377   4   5   4.0774   3.0957   7.7384   1.9233   2.8791   4.9686   0.00    0.0
2158 455805.000   22.306855680  114.184488923    37.9764   4   5   4.5797   3.4139   8.9050   2.5897   3.8278   5.8206   0.00    0.0
2158 455806.000   22.306919065  114.184518514    46.2773   4   5   4.7326   3.4589   9.3256   2.7150   4.0249   6.0982   0.00    0.0
2158 455807.000   22.306919816  114.184491365    46.6817   4   5   4.7558   3.4601   9.4069   2.7216   4.0374   6.1458   0.00    0.0
2158 455808.000   22.306885145  114.184454176    41.2096   4   5   4.7508   3.4598   9.3988   2.7168   4.0305   6.1389   0.00    0.0
2158 455814.000   22.306978396  114.183732750    45.4652   4   6   2.2528   3.1404   4.7005  -0.6720   1.0307   1.6040   0.00    0.0
2158 455818.000   22.307196315  114.184630439     7.6187   4   6   2.6101   2.6130   4.8055  -1.6380   0.8384   0.6717   0.00    0.0
2158 455819.000   22.307269199  114.184686889     7.9292   4   6   2.4719   2.2945   4.2966  -0.8895  -0.8456   1.3736   0.00    0.0
2158 455822.000   22.307277894  114.184795223    -5.8778   4   6   3.6734   2.3553   7.3946  -1.3692  -1.5472   4.3785   0.00    0.0
2158 455823.000   22.307358936  114.184910156    11.8109   4   5   4.3168   3.3829   8.4470   2.2859   3.4344   5.3834   0.00    0.0
2158 455826.000   22.307536036  114.185120233    66.1940   4   5   5.4917   3.8237  11.3436   3.2287   4.8488   7.3685   0.00    0.0
2158 455827.000   22.307562448  114.185162762    78.6110   4   5   4.7223   3.5224   9.4813   2.6636   4.0005   6.1021   0.00    0.0
2158 455828.000   22.307584740  114.185204580    89.3776   4   5   4.9967   3.6208  10.1656   2.8728   4.3159   6.5691   0.00    0.0
2158 455829.000   22.307582082  114.185239829    98.0012   4   5   5.3119   3.7061  10.9633   3.1212   4.6890   7.1191   0.00    0.0
2158 455830.000   22.307589863  114.185254261   104.2088   4   5   5.3274   3.6694  11.0273   3.1506   4.7316   7.1753   0.00    0.0
2158 455831.000   22.307595465  114.185280124   109.5545   4   5   5.2374   3.6172  10.7998   3.0928   4.6414   7.0333   0.00    0.0
2158 455832.000   22.307573817  114.185274777   106.2087   4   5   5.1308   3.5822  10.5133   3.0162   4.5219   6.8480   0.00    0.0
2158 455833.000   22.307542190  114.185250372    95.9261   4   5   5.0276   3.5553  10.2380   2.9405   4.4044   6.6671   0.00    0.0
2158 455834.000   22.307509880  114.185237961    90.9288   4   5   4.9368   3.5316   9.9985   2.8734   4.3007   6.5086   0.00    0.0
2158 455835.000   22.307466521  114.185223079    80.7502   4   5   4.8642   3.5127   9.8063   2.8193   4.2172   6.3812   0.00    0.0
